[{"id": "e2bf66f2-075f-4570-b375-a46f25cae206", "name": "Furnace Brook Brewery", "brewery_type": "micro", "address_1": "Trolliloes Lane", "address_2": null, "address_3": null, "city": "Hailshame", "state_province": "East Sussex", "postal_code": "BN27 4QR", "country": "England", "longitude": "0.318049", "latitude": "50.912028", "phone": "1435830835", "website_url": "http://www.quaffale.org.uk/php/brewery/3553", "state": "East Sussex", "street": "Trolliloes Lane"}, {"id": "c1208478-57c2-4bea-91e1-f169ac2a4854", "name": "Furthermore Beer", "brewery_type": "contract", "address_1": "320 Pierce St", "address_2": null, "address_3": null, "city": "Black River Falls", "state_province": "Wisconsin", "postal_code": "54615", "country": "United States", "longitude": "-90.85115523", "latitude": "44.29279126", "phone": "6085883300", "website_url": "http://www.furthermorebeer.com", "state": "Wisconsin", "street": "320 Pierce St"}, {"id": "2501d34d-fa74-4dcc-97ae-4a904214b9cd", "name": "Fury Brewing Company", "brewery_type": "micro", "address_1": "13380 US-30", "address_2": null, "address_3": null, "city": "Irwin", "state_province": "Pennsylvania", "postal_code": "15642", "country": "United States", "longitude": "-79.7029626", "latitude": "40.3248479", "phone": "7248265162", "website_url": "http://www.furybrewingcompany.com", "state": "Pennsylvania", "street": "13380 US-30"}, {"id": "e359d959-95c2-40c6-936b-04c4a8ed947b", "name": "Future Primitive Brewing Company", "brewery_type": "micro", "address_1": "9832 14th Ave SW ", "address_2": null, "address_3": null, "city": "Seattle", "state_province": "Washington", "postal_code": "98106-2816", "country": "United States", "longitude": "-122.3524234", "latitude": "47.51481725", "phone": "2068192241", "website_url": "https://www.futureprimitivebeer.com", "state": "Washington", "street": "9832 14th Ave SW "}, {"id": "e3029b7a-f730-4cda-bb4d-d6b31720386a", "name": "Fyne Ales", "brewery_type": "micro", "address_1": "Achadunan", "address_2": null, "address_3": null, "city": "Cairndow", "state_province": "Argyll", "postal_code": "PA26 8BJ", "country": "Scotland", "longitude": "-4.9139856", "latitude": "56.2761719", "phone": "1499600120", "website_url": "https://www.fyneales.com/", "state": "Argyll", "street": "Achadunan"}, {"id": "72cc9e4f-9347-4375-9e4c-68a014676e7a", "name": "G Man Brewery / G-Man Sports Bar", "brewery_type": "micro", "address_1": "18791 SW Martinazzi Ave", "address_2": null, "address_3": null, "city": "Tualatin", "state_province": "Oregon", "postal_code": "97062-6808", "country": "United States", "longitude": "-122.7598045", "latitude": "45.3841006", "phone": "5033105159", "website_url": "http://www.hotseatsportsbar.com", "state": "Oregon", "street": "18791 SW Martinazzi Ave"}, {"id": "e4edfb7b-9143-4e6e-a866-bb2ecde062c9", "name": "G. Mansfield, Inc", "brewery_type": "planning", "address_1": null, "address_2": null, "address_3": null, "city": "Greensboro", "state_province": "North Carolina", "postal_code": "27403-2744", "country": "United States", "longitude": null, "latitude": null, "phone": "3363370757", "website_url": null, "state": "North Carolina", "street": null}, {"id": "e8d29c6c-50b2-4013-b059-1687215074c1", "name": "G.C. Starkey Beer Company", "brewery_type": "contract", "address_1": "68 Castle St Apt 1C", "address_2": null, "address_3": null, "city": "Geneva", "state_province": "New York", "postal_code": "14456-2648", "country": "United States", "longitude": null, "latitude": null, "phone": "6076784043", "website_url": "http://www.starkeyslookout.com", "state": "New York", "street": "68 Castle St Apt 1C"}, {"id": "01b395ba-7b97-4214-a98c-365ad281d9dd", "name": "G8 Development, Inc.", "brewery_type": "planning", "address_1": null, "address_2": null, "address_3": null, "city": "San Diego", "state_province": "California", "postal_code": "92109-2802", "country": "United States", "longitude": "-117.1627714", "latitude": "32.7174209", "phone": "6198233402", "website_url": null, "state": "California", "street": null}, {"id": "d0a57790-908c-4e55-a814-f15a0cd98258", "name": "Gael Brewing Co", "brewery_type": "micro", "address_1": "4180 State Route 14", "address_2": null, "address_3": null, "city": "Geneva", "state_province": "New York", "postal_code": "14456-9753", "country": "United States", "longitude": null, "latitude": null, "phone": "3152200190", "website_url": "http://www.gaelbrewing.com", "state": "New York", "street": "4180 State Route 14"}, {"id": "5d055cfc-fb44-4cee-8ee7-7b1c7b4706a3", "name": "Gakona Brewing Company", "brewery_type": "micro", "address_1": "Mile 0.5 Tok Cutoff Hwy", "address_2": null, "address_3": null, "city": "Gakona", "state_province": "Alaska", "postal_code": "99586-0336", "country": "United States", "longitude": "-145.335689", "latitude": "62.293667", "phone": "9078225609", "website_url": "https://www.gakonabrewing.com", "state": "Alaska", "street": "Mile 0.5 Tok Cutoff Hwy"}, {"id": "b650d91f-3b4d-4826-a841-8a8827b804f5", "name": "Galactic Coast Brewing", "brewery_type": "micro", "address_1": "1675 Dickinson Ave C", "address_2": null, "address_3": null, "city": "Dickinson", "state_province": "Texas", "postal_code": "77539-4213", "country": "United States", "longitude": "-95.04696", "latitude": "29.478", "phone": "8327381960", "website_url": "http://www.galacticcoastbrewing.com", "state": "Texas", "street": "1675 Dickinson Ave C"}, {"id": "b82fc6a8-47d3-4416-9ffb-9792068623f6", "name": "Galaxy Brewing Co", "brewery_type": "brewpub", "address_1": "41 Court St, 153 & 157", "address_2": null, "address_3": null, "city": "Binghamton", "state_province": "New York", "postal_code": "13901-3104", "country": "United States", "longitude": null, "latitude": null, "phone": "6072174815", "website_url": "http://www.galaxybrewingco.com", "state": "New York", "street": "41 Court St, 153 & 157"}, {"id": "b45388c7-4c1d-495a-ab08-b6c1c573644f", "name": "Galena Brewing Co", "brewery_type": "brewpub", "address_1": "227 N Main St Ste 101", "address_2": null, "address_3": null, "city": "Galena", "state_province": "Illinois", "postal_code": "61036-2217", "country": "United States", "longitude": null, "latitude": null, "phone": "8152759469", "website_url": "http://www.galenabrewery.com", "state": "Illinois", "street": "227 N Main St Ste 101"}, {"id": "fd8c59f5-b0c0-47b3-be6e-002f60580fed", "name": "Gallaghers' Where U Brew", "brewery_type": "micro", "address_1": "180 W Dayton St Ste 105", "address_2": null, "address_3": null, "city": "Edmonds", "state_province": "Washington", "postal_code": "98020-4160", "country": "United States", "longitude": "-122.3866448", "latitude": "47.80984882", "phone": "4257764209", "website_url": "http://www.whereubrew.com", "state": "Washington", "street": "180 W Dayton St Ste 105"}, {"id": "6674fe33-f3c4-499e-ae89-41735f7dc72b", "name": "Gallery Brewery", "brewery_type": "brewpub", "address_1": "143 Kent St", "address_2": null, "address_3": null, "city": "Portland", "state_province": "Michigan", "postal_code": "48875-1456", "country": "United States", "longitude": "-84.90284271", "latitude": "42.86985871", "phone": "5175269060", "website_url": "http://www.thegallerybrewery.com", "state": "Michigan", "street": "143 Kent St"}, {"id": "ed581ab5-738c-4123-89f9-458d538a9602", "name": "Gally's Brewing Co", "brewery_type": "micro", "address_1": "30 Central Ave S", "address_2": null, "address_3": null, "city": "Harlowton", "state_province": "Montana", "postal_code": "59036", "country": "United States", "longitude": "-109.8318655", "latitude": "46.43513718", "phone": "4066325838", "website_url": "http://www.gallysbrewing.com", "state": "Montana", "street": "30 Central Ave S"}, {"id": "32d370dc-63c8-48de-ba18-1d2eb06210d0", "name": "Galveston Bay Beer Company, Inc.", "brewery_type": "micro", "address_1": "12900 FM 3436 Rd", "address_2": null, "address_3": null, "city": "Dickinson", "state_province": "Texas", "postal_code": "77539-2565", "country": "United States", "longitude": null, "latitude": null, "phone": "2813393210", "website_url": "http://www.galvestonbaybeer.com", "state": "Texas", "street": "12900 FM 3436 Rd"}, {"id": "4fd86f7d-aff5-480c-890d-adf81c8e9cde", "name": "Galveston Island Brewing", "brewery_type": "micro", "address_1": "8423 Stewart Rd", "address_2": null, "address_3": null, "city": "Galveston", "state_province": "Texas", "postal_code": "77554-9242", "country": "United States", "longitude": "-94.8491535", "latitude": "29.2556439", "phone": "4097407000", "website_url": "http://www.GalvestonIslandBrewing.com", "state": "Texas", "street": "8423 Stewart Rd"}, {"id": "d9ab395a-affc-4c9d-bb05-244aeda12cdf", "name": "Galway Bay Brewery", "brewery_type": "regional", "address_1": "Carrowmoneash", "address_2": "Station Rd", "address_3": null, "city": "Oranmore", "state_province": "Galway", "postal_code": "H91 FA31", "country": "Ireland", "longitude": "-8.9290923", "latitude": "53.2817059", "phone": "353861700458", "website_url": "http://www.galwaybaybrewery.com/", "state": "Galway", "street": "Carrowmoneash"}, {"id": "af7a4a16-fac8-4174-ae07-050ae5f09f81", "name": "Galway Hooker Brewery", "brewery_type": "regional", "address_1": "Deerpark", "address_2": null, "address_3": null, "city": "Oranmore", "state_province": "Galway", "postal_code": "H91 DX6N", "country": "Ireland", "longitude": "-8.9290923", "latitude": "53.2817059", "phone": "35391483912", "website_url": "http://www.galwayhooker.ie/", "state": "Galway", "street": "Deerpark"}, {"id": "fd8c337d-7335-4ad5-b8b6-add0fba3cbf2", "name": "Game Bag Brewing", "brewery_type": "planning", "address_1": null, "address_2": null, "address_3": null, "city": "Belgrade", "state_province": "Montana", "postal_code": "59714-8809", "country": "United States", "longitude": null, "latitude": null, "phone": "5092208584", "website_url": null, "state": "Montana", "street": null}, {"id": "6b1e2b96-92a4-4cc7-b400-338f97f8e365", "name": "Game On Brewing", "brewery_type": "contract", "address_1": "1999 Shepard Rd", "address_2": null, "address_3": null, "city": "Saint Paul", "state_province": "Minnesota", "postal_code": "55116-3210", "country": "United States", "longitude": "-93.153604", "latitude": "44.90528", "phone": null, "website_url": null, "state": "Minnesota", "street": "1999 Shepard Rd"}, {"id": "67c77a36-b5b2-458d-b7c0-bcc65700aa48", "name": "Garage Brewing Company", "brewery_type": "micro", "address_1": "26015 Jefferson Ave. Ste D", "address_2": null, "address_3": null, "city": "Murrieta", "state_province": "California", "postal_code": "92562", "country": "United States", "longitude": "-117.1435779", "latitude": "33.48271424", "phone": "9516001945", "website_url": "http://www.garagebrewco.com", "state": "California", "street": "26015 Jefferson Ave. Ste D"}, {"id": "c0071f92-6f3a-4153-b7f7-62d7e3ea1405", "name": "Garden Grove Brewing Company", "brewery_type": "micro", "address_1": "3445 W Cary St", "address_2": null, "address_3": null, "city": "Richmond", "state_province": "Virginia", "postal_code": "23221-2726", "country": "United States", "longitude": "-77.48597999", "latitude": "37.55495022", "phone": "8043386029", "website_url": "http://www.gardengrovebrewing.com", "state": "Virginia", "street": "3445 W Cary St"}, {"id": "9bb7757f-2379-43a1-a895-0b1ef014d6f3", "name": "Garden of Eve Farm Brewery", "brewery_type": "micro", "address_1": "4558 Sound Ave", "address_2": null, "address_3": null, "city": "Riverhead", "state_province": "New York", "postal_code": "11901-1207", "country": "United States", "longitude": "-72.648395", "latitude": "40.96775", "phone": "6317228777", "website_url": "http://www.facebook.com/farmbrewery", "state": "New York", "street": "4558 Sound Ave"}, {"id": "9e1a5201-f59d-42d0-b77e-d2f16676a587", "name": "Garden Path Fermentation", "brewery_type": "micro", "address_1": "11653 Higgins Airport Way", "address_2": null, "address_3": null, "city": "Burlington", "state_province": "Washington", "postal_code": "98233-5308", "country": "United States", "longitude": "-122.4179847", "latitude": "48.47697354", "phone": "3605038956", "website_url": "http://www.gardenpathwa.com", "state": "Washington", "street": "11653 Higgins Airport Way"}, {"id": "2e495e44-0746-4651-8b7b-6da0a0758492", "name": "Garden State Beer Company", "brewery_type": "micro", "address_1": "247 E White Horse Pike", "address_2": null, "address_3": null, "city": "Galloway", "state_province": "New Jersey", "postal_code": "08205-9563", "country": "United States", "longitude": "-74.52909948", "latitude": "39.4463759", "phone": "6092322337", "website_url": "http://www.gardenstatebeerco.com", "state": "New Jersey", "street": "247 E White Horse Pike"}, {"id": "70079d9d-bd45-47e3-9a4d-d6cbd4fbf644", "name": "Garland Brew Werks", "brewery_type": "micro", "address_1": "603 W Garland Ave", "address_2": null, "address_3": null, "city": "Spokane", "state_province": "Washington", "postal_code": "99205", "country": "United States", "longitude": "-117.4204687", "latitude": "47.69391487", "phone": "5098639419", "website_url": "https://www.facebook.com/Garland-Brew-Werks-102172055439160", "state": "Washington", "street": "603 W Garland Ave"}, {"id": "25128237-16d0-4273-91fd-c3a7cf09f4d3", "name": "Garland City Beer Works", "brewery_type": "planning", "address_1": null, "address_2": null, "address_3": null, "city": "Watertown", "state_province": "New York", "postal_code": "13601-2423", "country": "United States", "longitude": null, "latitude": null, "phone": "3157832577", "website_url": "http://www.garlandcitybeerworks.com", "state": "New York", "street": null}, {"id": "5de70f8f-79a6-4c7f-bdcb-669d7c7c4599", "name": "Garphish Brewing Company", "brewery_type": "micro", "address_1": "165 Main St", "address_2": null, "address_3": null, "city": "Bethel", "state_province": "Minnesota", "postal_code": "55005", "country": "United States", "longitude": "-93.268872", "latitude": "45.4040025", "phone": "7634520270", "website_url": "http://www.garphish.com", "state": "Minnesota", "street": "165 Main St"}, {"id": "5df4cdd5-700d-4a89-a45f-2cbefb41f00d", "name": "Garr's Beer Co.", "brewery_type": "proprietor", "address_1": null, "address_2": null, "address_3": null, "city": "Franklin", "state_province": "Tennessee", "postal_code": "37067", "country": "United States", "longitude": null, "latitude": null, "phone": "6155090009", "website_url": "http://www.garrs.beer", "state": "Tennessee", "street": null}, {"id": "f49e86fa-5466-4ccf-a23d-526a70c59a49", "name": "Garrison City Beerworks", "brewery_type": "micro", "address_1": "455 Central Ave", "address_2": null, "address_3": null, "city": "Dover", "state_province": "New Hampshire", "postal_code": "03820-3406", "country": "United States", "longitude": "-70.87391507", "latitude": "43.19759761", "phone": "6033434231", "website_url": "http://www.GarrisonCityBeerworks.com", "state": "New Hampshire", "street": "455 Central Ave"}, {"id": "392471bf-2718-4aa2-a587-39bfa92a848a", "name": "Garvies Point Brewery", "brewery_type": "micro", "address_1": "1 Garvies Point Rd", "address_2": null, "address_3": null, "city": "Glen Cove", "state_province": "New York", "postal_code": "11542-2821", "country": "United States", "longitude": "-73.644083", "latitude": "40.858979", "phone": "5168151999", "website_url": "http://www.garviespointbrewery.com", "state": "New York", "street": "1 Garvies Point Rd"}, {"id": "e4ac1f5e-095a-48a6-9d9c-5af5ad082a1a", "name": "Gary's Olde Towne Tavern", "brewery_type": "micro", "address_1": "678 Roosevelt Trl", "address_2": null, "address_3": null, "city": "Naples", "state_province": "Maine", "postal_code": "04055-5335", "country": "United States", "longitude": "-70.601073", "latitude": "43.969705", "phone": "2076936806", "website_url": "http://www.garysoldetownetavern.com", "state": "Maine", "street": "678 Roosevelt Trl"}, {"id": "772ac8c1-7012-46d7-bb38-67de73f87f4c", "name": "Gaslight Brewery and Restaurant", "brewery_type": "brewpub", "address_1": "15 S Orange Ave", "address_2": null, "address_3": null, "city": "South Orange", "state_province": "New Jersey", "postal_code": "07079-1716", "country": "United States", "longitude": "-74.25954982", "latitude": "40.74630918", "phone": "9737627077", "website_url": "http://www.gaslightbrewery.com", "state": "New Jersey", "street": "15 S Orange Ave"}, {"id": "051c41cf-a0a9-4f3a-bf12-84f3b68960be", "name": "Gate City Brewing Company", "brewery_type": "micro", "address_1": "43 Magnolia St", "address_2": null, "address_3": null, "city": "Roswell", "state_province": "Georgia", "postal_code": "30075-4289", "country": "United States", "longitude": "-84.36395307", "latitude": "34.02293426", "phone": "6784040961", "website_url": "http://www.gatecitybrewingco.com", "state": "Georgia", "street": "43 Magnolia St"}, {"id": "55e3d17f-fc93-467c-9eea-1e4f4204edf3", "name": "Gateway Brewing, Inc", "brewery_type": "micro", "address_1": "114 NE 133rd Ave", "address_2": null, "address_3": null, "city": "Portland", "state_province": "Oregon", "postal_code": "97230-2528", "country": "United States", "longitude": "-122.5257352", "latitude": "45.5239106", "phone": "5039759103", "website_url": "http://gatewaybrewingpdx.com", "state": "Oregon", "street": "114 NE 133rd Ave"}, {"id": "235fa557-4fbf-4a82-9b8e-a53f1bc35540", "name": "Gathering Place Brewing Company", "brewery_type": "micro", "address_1": "811 E Vienna Ave", "address_2": null, "address_3": null, "city": "Milwaukee", "state_province": "Wisconsin", "postal_code": "53212-1775", "country": "United States", "longitude": "-87.90107445", "latitude": "43.0857359", "phone": "4143646328", "website_url": "http://www.gatheringplacebrewing.com", "state": "Wisconsin", "street": "811 E Vienna Ave"}, {"id": "2d5a0022-34d3-4822-a97b-7a5b1e5abc79", "name": "Geaghan Brothers Brewing Co", "brewery_type": "micro", "address_1": "34 Abbott St", "address_2": null, "address_3": null, "city": "Brewer", "state_province": "Maine", "postal_code": "04412-2202", "country": "United States", "longitude": "-68.77310776", "latitude": "44.78208079", "phone": "2079453730", "website_url": "http://www.geaghanspub.com", "state": "Maine", "street": "34 Abbott St"}, {"id": "776deebd-50ee-41e3-af82-4cbcd95dae6e", "name": "Geaghan's Pub & Craft Brewery", "brewery_type": "brewpub", "address_1": "570 Main St", "address_2": null, "address_3": null, "city": "Bangor", "state_province": "Maine", "postal_code": "04401-6821", "country": "United States", "longitude": "-68.777503", "latitude": "44.7867295", "phone": "2079453730", "website_url": "http://www.geaghanspub.com", "state": "Maine", "street": "570 Main St"}, {"id": "367a8808-d91e-424b-9e1c-4c8dc1362b81", "name": "GearHouse Brewing Company", "brewery_type": "brewpub", "address_1": "253 Grant St", "address_2": null, "address_3": null, "city": "Chambersburg", "state_province": "Pennsylvania", "postal_code": "17201-1627", "country": "United States", "longitude": "-77.65674215", "latitude": "39.9412218", "phone": "8034226145", "website_url": "http://www.gearhousebrewingco.com", "state": "Pennsylvania", "street": "253 Grant St"}, {"id": "901800b6-36f4-4f84-850b-d8c72c7b60f1", "name": "Geartooth AleWerks", "brewery_type": "micro", "address_1": "1635 S 7th St", "address_2": null, "address_3": null, "city": "San Jose", "state_province": "California", "postal_code": "95112-5932", "country": "United States", "longitude": "-121.8664773", "latitude": "37.31525129", "phone": "4084832679", "website_url": "http://www.geartoothalewerks.com", "state": "California", "street": "1635 S 7th St"}, {"id": "f478ca13-2978-4461-9651-3949addc563a", "name": "Geaux Brewing LLC", "brewery_type": "brewpub", "address_1": "3205 C St NE", "address_2": null, "address_3": null, "city": "Auburn", "state_province": "Washington", "postal_code": "98002-1725", "country": "United States", "longitude": "-122.2237209", "latitude": "47.30767457", "phone": "2533973939", "website_url": "http://www.geauxbrewing.com", "state": "Washington", "street": "3205 C St NE"}, {"id": "c751cc13-ec8a-4979-bac5-d9af45a62ec1", "name": "Geist Beerworks", "brewery_type": "micro", "address_1": "736 SW Umatilla Ave Suite F", "address_2": null, "address_3": null, "city": "Redmond", "state_province": "Oregon", "postal_code": "97756", "country": "United States", "longitude": "-121.1759123", "latitude": "44.25116219", "phone": "5417288663", "website_url": null, "state": "Oregon", "street": "736 SW Umatilla Ave Suite F"}, {"id": "7c88a2c2-0288-40b5-acc5-5a6b6fcb8f1d", "name": "Gella's Diner & Liquid Bread Brewing Co", "brewery_type": "brewpub", "address_1": "117 E 11th St", "address_2": null, "address_3": null, "city": "Hays", "state_province": "Kansas", "postal_code": "67601-3603", "country": "United States", "longitude": "-99.32909033", "latitude": "38.87174492", "phone": "7856212739", "website_url": "http://www.lbbrewing.com", "state": "Kansas", "street": "117 E 11th St"}, {"id": "8035e0d7-8059-4d39-a8d1-26d089cdaa0b", "name": "Gene McCarthy's/Old First Ward Brewing Company", "brewery_type": "brewpub", "address_1": "73 Hamburg St", "address_2": null, "address_3": null, "city": "Buffalo", "state_province": "New York", "postal_code": "14204-2719", "country": "United States", "longitude": "-78.85957723", "latitude": "42.86654075", "phone": "7168558948", "website_url": "http://www.genemccarthys.com", "state": "New York", "street": "73 Hamburg St"}, {"id": "924e3e62-5d27-4760-b139-f0c52517daf0", "name": "Generations Brewing Company", "brewery_type": "micro", "address_1": "1400 S Adams Ave", "address_2": null, "address_3": null, "city": "Freeport", "state_province": "Illinois", "postal_code": "61032-9717", "country": "United States", "longitude": "-89.615349", "latitude": "42.2962963", "phone": "8156165941", "website_url": "http://www.generationsbrewing.com", "state": "Illinois", "street": "1400 S Adams Ave"}, {"id": "9149bbe2-4b97-4b20-b685-357f19ce54ba", "name": "Genesee Brew House / North American Breweries", "brewery_type": "brewpub", "address_1": "25 Cataract St", "address_2": null, "address_3": null, "city": "Rochester", "state_province": "New York", "postal_code": "14605", "country": "United States", "longitude": "-77.6147783", "latitude": "43.163584", "phone": "5852639200", "website_url": "http://www.geneseebeer.com", "state": "New York", "street": "25 Cataract St"}, {"id": "6cca67cf-a3a6-4f43-8da5-7bcd73e4ce67", "name": "Geneseo Brewing Company", "brewery_type": "brewpub", "address_1": "102 S State St", "address_2": null, "address_3": null, "city": "Geneseo", "state_province": "Illinois", "postal_code": "61254-1348", "country": "United States", "longitude": "-90.15561", "latitude": "41.45203206", "phone": "3099451422", "website_url": "http://www.geneseobrewingcompany.com", "state": "Illinois", "street": "102 S State St"}, {"id": "75519fe1-b769-48c8-84f1-28abb719e7d0", "name": "Geneva Lake Brewing Co", "brewery_type": "micro", "address_1": "750 Veterans Pkwy Unit 107", "address_2": null, "address_3": null, "city": "Lake Geneva", "state_province": "Wisconsin", "postal_code": "53147-4950", "country": "United States", "longitude": null, "latitude": null, "phone": "2622154955", "website_url": "http://www.genevalakebrewingcompany.com", "state": "Wisconsin", "street": "750 Veterans Pkwy Unit 107"}, {"id": "930f5822-bf77-4379-991e-a78d606b6a41", "name": "Gentile Brewing Company", "brewery_type": "micro", "address_1": "59 Park St # 1", "address_2": null, "address_3": null, "city": "Beverly", "state_province": "Massachusetts", "postal_code": "01915-4253", "country": "United States", "longitude": null, "latitude": null, "phone": "9789696496", "website_url": "http://www.gentilebrewing.com", "state": "Massachusetts", "street": "59 Park St # 1"}, {"id": "318ed09d-c28b-418a-9291-58eb420c10c7", "name": "Gentle Giant Brewing Company", "brewery_type": "micro", "address_1": "7 N Main St", "address_2": null, "address_3": null, "city": "Pearl River", "state_province": "New York", "postal_code": "10965-2318", "country": "United States", "longitude": "-74.02171299", "latitude": "41.05938885", "phone": null, "website_url": "http://gentlegiantbrewing.com/", "state": "New York", "street": "7 N Main St"}, {"id": "396384cf-1d53-4020-994f-4ce801a9910b", "name": "Genus Brewing and Supply", "brewery_type": "micro", "address_1": "17018 E Sprague Ave", "address_2": null, "address_3": null, "city": "Spokane Valley", "state_province": "Washington", "postal_code": "99216-2171", "country": "United States", "longitude": "-117.1754302", "latitude": "47.65718663", "phone": "5098082395", "website_url": "https://www.genusbrewing.com", "state": "Washington", "street": "17018 E Sprague Ave"}, {"id": "6df5e59d-5473-4a83-a577-c5bcb385c045", "name": "George Ringler & Company", "brewery_type": "planning", "address_1": null, "address_2": null, "address_3": null, "city": "Danville", "state_province": "Indiana", "postal_code": "46122-1623", "country": "United States", "longitude": null, "latitude": null, "phone": "3176268353", "website_url": null, "state": "Indiana", "street": null}, {"id": "34ee7dba-496b-42ca-bf2a-ff24f89ae3eb", "name": "Georgetown Brewing Co", "brewery_type": "regional", "address_1": "5200 Denver Ave S", "address_2": null, "address_3": null, "city": "Seattle", "state_province": "Washington", "postal_code": "98108-2246", "country": "United States", "longitude": "-122.3256809", "latitude": "47.5552618", "phone": "2067668055", "website_url": "http://www.georgetownbeer.com", "state": "Washington", "street": "5200 Denver Ave S"}, {"id": "509592b2-00bc-4210-b57d-35fcd2447e53", "name": "Georgia Beer Co", "brewery_type": "planning", "address_1": null, "address_2": null, "address_3": null, "city": "Valdosta", "state_province": "Georgia", "postal_code": "31601-9017", "country": "United States", "longitude": null, "latitude": null, "phone": "9123995883", "website_url": "http://www.georgiabeerco.com", "state": "Georgia", "street": null}, {"id": "aada6ced-9b6b-42ea-8de5-86957754813c", "name": "Geronimo Brewing Inc", "brewery_type": "planning", "address_1": null, "address_2": null, "address_3": null, "city": "Doylestown", "state_province": "Pennsylvania", "postal_code": "18901", "country": "United States", "longitude": null, "latitude": null, "phone": null, "website_url": "http://www.geronimobrewing.com", "state": "Pennsylvania", "street": null}, {"id": "589a5420-aaa2-4cca-a8c5-feb60bdfb862", "name": "Gezzelig Brewing Company", "brewery_type": "brewpub", "address_1": "403 W 4th St Ste 103", "address_2": null, "address_3": null, "city": "Newton", "state_province": "Iowa", "postal_code": "50208-3019", "country": "United States", "longitude": "-93.058182", "latitude": "41.7022754", "phone": "6417929218", "website_url": "https://www.gezelligbrewing.com", "state": "Iowa", "street": "403 W 4th St Ste 103"}, {"id": "50af38eb-7473-4c40-a365-3deadd41da42", "name": "Ghost Harbor Brewing Company", "brewery_type": "micro", "address_1": "606 B E Colonial Ave", "address_2": null, "address_3": null, "city": "Elizabeth City", "state_province": "North Carolina", "postal_code": "27909", "country": "United States", "longitude": "-76.21879622", "latitude": "36.30042229", "phone": "2525991030", "website_url": "http://www.ghostharborbrewing.com", "state": "North Carolina", "street": "606 B E Colonial Ave"}, {"id": "537b5242-7341-43e4-bab7-5a31b4b2ee23", "name": "Ghost Isle Brewing Company", "brewery_type": "planning", "address_1": null, "address_2": null, "address_3": null, "city": "New Buffalo", "state_province": "Michigan", "postal_code": "49117", "country": "United States", "longitude": null, "latitude": null, "phone": "2195611219", "website_url": null, "state": "Michigan", "street": null}, {"id": "90a85b54-55ca-4fa8-b9cc-70560e715dbf", "name": "Ghost Monkey Brewery", "brewery_type": "micro", "address_1": "522 Wando Ln", "address_2": null, "address_3": null, "city": "Mount Pleasant", "state_province": "South Carolina", "postal_code": "29464-8211", "country": "United States", "longitude": null, "latitude": null, "phone": null, "website_url": null, "state": "South Carolina", "street": "522 Wando Ln"}, {"id": "b0847fe6-cf6a-4fd5-ad56-d5dae59b07a8", "name": "Ghost River Brewing", "brewery_type": "micro", "address_1": "827 S Main St", "address_2": null, "address_3": null, "city": "Memphis", "state_province": "Tennessee", "postal_code": "38106-2063", "country": "United States", "longitude": "-90.059285", "latitude": "35.125851", "phone": "9016614976", "website_url": "http://www.ghostriverbrewing.com", "state": "Tennessee", "street": "827 S Main St"}, {"id": "fc2b7dc0-a96f-46c8-a23d-9395d4b48aee", "name": "Ghost Runners Brewery", "brewery_type": "micro", "address_1": "4216 NE Minnehaha St # 108", "address_2": null, "address_3": null, "city": "Vancouver", "state_province": "Washington", "postal_code": "98661-1244", "country": "United States", "longitude": "-122.639599", "latitude": "45.6678127", "phone": "3609893912", "website_url": "https://ghostrunnersbrewery.com", "state": "Washington", "street": "4216 NE Minnehaha St # 108"}, {"id": "d877471e-4ad3-4317-aaa8-b6c86cdeec58", "name": "Ghost Town Brewing", "brewery_type": "micro", "address_1": "1960 Adeline St", "address_2": null, "address_3": null, "city": "Oakland", "state_province": "California", "postal_code": "94607-2300", "country": "United States", "longitude": "-122.2844396", "latitude": "37.81391748", "phone": "5109266728", "website_url": "http://www.ghosttownbrewing.com", "state": "California", "street": "1960 Adeline St"}, {"id": "bc569d24-491c-424d-a0ca-f1f01e6a5b94", "name": "Ghost Train Brewing Co", "brewery_type": "micro", "address_1": "2616 3rd Ave S", "address_2": null, "address_3": null, "city": "Birmingham", "state_province": "Alabama", "postal_code": "35233-2619", "country": "United States", "longitude": "-86.79406151", "latitude": "33.51415935", "phone": "2053702487", "website_url": "http://www.ghosttrainbrewing.com", "state": "Alabama", "street": "2616 3rd Ave S"}, {"id": "1516418f-29e7-42bc-9759-6697ce515c49", "name": "Ghostface Brewing Company", "brewery_type": "brewpub", "address_1": "427 E Statesville Ave Ste 100", "address_2": null, "address_3": null, "city": "Mooresville", "state_province": "North Carolina", "postal_code": "28115-2595", "country": "United States", "longitude": null, "latitude": null, "phone": "7047997433", "website_url": "http://www.ghostfacebrewing.com", "state": "North Carolina", "street": "427 E Statesville Ave Ste 100"}, {"id": "59929344-4ce7-4499-ba98-db6bbe6bfca0", "name": "Ghostfish Brewing Company", "brewery_type": "micro", "address_1": "2942 1st Ave S", "address_2": null, "address_3": null, "city": "Seattle", "state_province": "Washington", "postal_code": "98134-1820", "country": "United States", "longitude": "-122.3338908", "latitude": "47.5763508", "phone": "2532494650", "website_url": "http://www.ghostfishbrewing.com", "state": "Washington", "street": "2942 1st Ave S"}, {"id": "9d2c5b71-2dab-4acb-90f0-671fccc5c0f0", "name": "Giant Jones Brewing LLC", "brewery_type": "micro", "address_1": "931 E Main St Suite 9", "address_2": null, "address_3": null, "city": "Madison", "state_province": "Wisconsin", "postal_code": "53703", "country": "United States", "longitude": null, "latitude": null, "phone": "6086205172", "website_url": "http://Www.giantjones.com", "state": "Wisconsin", "street": "931 E Main St Suite 9"}, {"id": "e3f9214c-88cf-470f-81ef-8531d23a69fe", "name": "Gibb's Hundred Brewing Company", "brewery_type": "micro", "address_1": "504 State St", "address_2": null, "address_3": null, "city": "Greensboro", "state_province": "North Carolina", "postal_code": "27405", "country": "United States", "longitude": "-79.783217", "latitude": "36.101006", "phone": "3367637087", "website_url": "http://www.gibbshundred.com", "state": "North Carolina", "street": "504 State St"}, {"id": "8b812476-b04a-47c3-b4b5-2e83393dac30", "name": "Gideon's Brewing Company", "brewery_type": "micro", "address_1": "107 N 5th St", "address_2": null, "address_3": null, "city": "Bismarck", "state_province": "North Dakota", "postal_code": "58501-4026", "country": "United States", "longitude": "-100.7844514", "latitude": "46.80607237", "phone": "7017511044", "website_url": "http://gideonsbrewing.com", "state": "North Dakota", "street": "107 N 5th St"}, {"id": "66c64272-72a3-4e8c-96af-2471a32dd812", "name": "Giesenbr\u00c3\u00a4u Bier Co LLC", "brewery_type": "micro", "address_1": "1306 1st St NE", "address_2": null, "address_3": null, "city": "New Prague", "state_province": "Minnesota", "postal_code": "56071-2451", "country": "United States", "longitude": "-93.5756181", "latitude": "44.5447992", "phone": "9527584226", "website_url": "http://www.giesenbraubierco.com", "state": "Minnesota", "street": "1306 1st St NE"}, {"id": "ee356525-7374-4203-97ee-767fbcef6cc2", "name": "Gig Harbor Brewing", "brewery_type": "micro", "address_1": "3120 South Tacoma Way", "address_2": null, "address_3": null, "city": "Tacoma", "state_province": "Washington", "postal_code": "98409-4717", "country": "United States", "longitude": "-122.4772721", "latitude": "47.22805896", "phone": "2538304653", "website_url": "http://www.gigharborbrewing.com", "state": "Washington", "street": "3120 South Tacoma Way"}, {"id": "fa51e915-17bb-4a59-b32c-2ccbf025ebe3", "name": "Gigantic Brewing Co", "brewery_type": "micro", "address_1": "5224 SE 26th Ave", "address_2": null, "address_3": null, "city": "Portland", "state_province": "Oregon", "postal_code": "97202-4627", "country": "United States", "longitude": "-122.6392092", "latitude": "45.48500105", "phone": "5032083416", "website_url": "http://www.giganticbrewing.com", "state": "Oregon", "street": "5224 SE 26th Ave"}, {"id": "9a1e91cf-70a9-4262-99ba-d3fdca9ba42d", "name": "GILD BREWING", "brewery_type": "planning", "address_1": null, "address_2": null, "address_3": null, "city": "Missoula", "state_province": "Montana", "postal_code": "59801-2734", "country": "United States", "longitude": null, "latitude": null, "phone": null, "website_url": null, "state": "Montana", "street": null}, {"id": "311072a3-c9ed-4df1-8efa-896888547e86", "name": "Gilded Goat Brewing Company", "brewery_type": "micro", "address_1": "3500 S College Ave Ste 194", "address_2": null, "address_3": null, "city": "Fort Collins", "state_province": "Colorado", "postal_code": "80525-2639", "country": "United States", "longitude": null, "latitude": null, "phone": "9708257192", "website_url": "http://www.gildedgoatbrewing.com", "state": "Colorado", "street": "3500 S College Ave Ste 194"}, {"id": "81420933-352b-4dca-8f90-665aa5d5a131", "name": "Gilded Otter Brewing Co", "brewery_type": "brewpub", "address_1": "3 Main St", "address_2": null, "address_3": null, "city": "New Paltz", "state_province": "New York", "postal_code": "12561-1742", "country": "United States", "longitude": "-74.08958631", "latitude": "41.7469771", "phone": "8452561700", "website_url": "http://www.gildedotter.com", "state": "New York", "street": "3 Main St"}, {"id": "8e28ee7d-4671-474f-b967-67319470a2af", "name": "Gilgamesh Brewing Co", "brewery_type": "micro", "address_1": "2065 Madrona Ave SE", "address_2": null, "address_3": null, "city": "Salem", "state_province": "Oregon", "postal_code": "97302-1010", "country": "United States", "longitude": "-123.0191178", "latitude": "44.90504576", "phone": "9702014409", "website_url": "http://gilgameshbrewing.com", "state": "Oregon", "street": "2065 Madrona Ave SE"}, {"id": "1b089764-3735-43f2-98a8-547b88e4a487", "name": "Gillette Brewing Company", "brewery_type": "brewpub", "address_1": "301 S Gillette Ave", "address_2": null, "address_3": null, "city": "Gillette", "state_province": "Wyoming", "postal_code": "82716-3705", "country": "United States", "longitude": "-105.5036145", "latitude": "44.29203825", "phone": "3076708948", "website_url": "http://www.gillettebrewingcompany.com", "state": "Wyoming", "street": "301 S Gillette Ave"}, {"id": "4ace443f-a4fb-47ec-89f5-5d75138420f7", "name": "Gilman Brewing Company", "brewery_type": "micro", "address_1": "912 Gilman St", "address_2": null, "address_3": null, "city": "Berkeley", "state_province": "California", "postal_code": "94710-1424", "country": "United States", "longitude": "-122.2998747", "latitude": "37.879466", "phone": null, "website_url": "http://www.gilmanbrew.com", "state": "California", "street": "912 Gilman St"}, {"id": "c0299ec0-af83-4a32-8c75-6d51d9c6956e", "name": "Gino's Brewing Company", "brewery_type": "brewpub", "address_1": "500 N La Salle Dr", "address_2": null, "address_3": null, "city": "Chicago", "state_province": "Illinois", "postal_code": "60654-7109", "country": "United States", "longitude": null, "latitude": null, "phone": "3129884200", "website_url": null, "state": "Illinois", "street": "500 N La Salle Dr"}, {"id": "4c0a2216-b456-49fa-821e-2fec06c653d2", "name": "Girdwood Brewing Company", "brewery_type": "micro", "address_1": "2700 Alyeska Highway", "address_2": null, "address_3": null, "city": "Girdwood", "state_province": "Alaska", "postal_code": "99587-0058", "country": "United States", "longitude": "-149.1540907", "latitude": "60.9578421", "phone": "907783", "website_url": "http://www.girdwoodbrewing.com", "state": "Alaska", "street": "2700 Alyeska Highway"}, {"id": "11db5351-443e-469e-a2ee-705d8449dd37", "name": "Gizmo Brew Works", "brewery_type": "micro", "address_1": "5907 Triangle Dr", "address_2": null, "address_3": null, "city": "Raleigh", "state_province": "North Carolina", "postal_code": "27617-4742", "country": "United States", "longitude": "-78.74513578", "latitude": "35.89611719", "phone": "9197822099", "website_url": "http://www.gizmobrewworks.com", "state": "North Carolina", "street": "5907 Triangle Dr"}, {"id": "39590a48-9284-4b47-93a5-2c8d9bca2484", "name": "Glacier Brewhouse", "brewery_type": "brewpub", "address_1": "737 W 5th Ave Ste 110", "address_2": null, "address_3": null, "city": "Anchorage", "state_province": "Alaska", "postal_code": "99501-2129", "country": "United States", "longitude": "-149.896703", "latitude": "61.218047", "phone": "9072742739", "website_url": "http://www.glacierbrewhouse.com", "state": "Alaska", "street": "737 W 5th Ave Ste 110"}, {"id": "843c6645-01fc-4203-af72-efdde75c572d", "name": "Glacier Brewing Co", "brewery_type": "micro", "address_1": "6 10th Ave E", "address_2": null, "address_3": null, "city": "Polson", "state_province": "Montana", "postal_code": "59860-3219", "country": "United States", "longitude": "-114.1627735", "latitude": "47.6862114", "phone": "4068832595", "website_url": "http://www.glacierbrewing.com", "state": "Montana", "street": "6 10th Ave E"}, {"id": "44ed4be7-68d3-4f49-a8b0-5deca09e43fe", "name": "Gladiator Brewing Co.", "brewery_type": "planning", "address_1": null, "address_2": null, "address_3": null, "city": "Clarksville", "state_province": "Tennessee", "postal_code": "37040", "country": "United States", "longitude": null, "latitude": null, "phone": "9137497035", "website_url": null, "state": "Tennessee", "street": null}, {"id": "5b22de55-7a06-4584-9424-a838f1b8481b", "name": "Glass Creek Winery", "brewery_type": "micro", "address_1": "450 N Whitmore Rd", "address_2": null, "address_3": null, "city": "Hastings", "state_province": "Michigan", "postal_code": "49058-9791", "country": "United States", "longitude": null, "latitude": null, "phone": "2699482752", "website_url": "http://www.glasscreekwinery.com", "state": "Michigan", "street": "450 N Whitmore Rd"}, {"id": "69abf157-f2fb-43e2-ae69-38ca4ff87d9c", "name": "Glasstown Brewing", "brewery_type": "micro", "address_1": "10 Peterson St", "address_2": null, "address_3": null, "city": "Millville", "state_province": "New Jersey", "postal_code": "08332-4818", "country": "United States", "longitude": null, "latitude": null, "phone": "8563277770", "website_url": "http://www.glasstownbrewery.com", "state": "New Jersey", "street": "10 Peterson St"}, {"id": "a4e28559-81cb-4485-b923-c3f56b7fe24e", "name": "Glen Luss Craft Brewery & Distillery", "brewery_type": "micro", "address_1": "Church Road", "address_2": "Luss", "address_3": null, "city": "Alexandria", "state_province": "West Dunbartonshire", "postal_code": "G83 8NZ", "country": "Scotland", "longitude": "-4.637915", "latitude": "56.101269", "phone": "7913413699", "website_url": "https://glenluss.co.uk/", "state": "West Dunbartonshire", "street": "Church Road"}, {"id": "eab9ccc1-7858-43aa-b808-37a9484be013", "name": "Glenmere Brewing Co, Inc", "brewery_type": "micro", "address_1": "55 Maple Ave", "address_2": null, "address_3": null, "city": "Florida", "state_province": "New York", "postal_code": "10921-1124", "country": "United States", "longitude": "-74.360033", "latitude": "41.335404", "phone": "8456511939", "website_url": "http://www.glenmerebrewingco.com", "state": "New York", "street": "55 Maple Ave"}, {"id": "b7946db8-7313-4d80-a9a9-8b41971f49d0", "name": "Glenwood Canyon Brewing Co", "brewery_type": "brewpub", "address_1": "402 7th St", "address_2": null, "address_3": null, "city": "Glenwood Springs", "state_province": "Colorado", "postal_code": "81601-3406", "country": "United States", "longitude": "-107.323424", "latitude": "39.5476563", "phone": "9709451276", "website_url": "http://www.glenwoodcanyon.com", "state": "Colorado", "street": "402 7th St"}, {"id": "f7e064d7-a23d-4078-85a4-5407d2ce4909", "name": "Globier", "brewery_type": "planning", "address_1": null, "address_2": null, "address_3": null, "city": "San Diego", "state_province": "California", "postal_code": "92117-1604", "country": "United States", "longitude": "-117.1627714", "latitude": "32.7174209", "phone": "7757623818", "website_url": "http://www.drinkglobier.com", "state": "California", "street": null}, {"id": "f84b8f31-6675-40c6-bb28-3ed87861ae7e", "name": "Gloucester Brewing Company", "brewery_type": "planning", "address_1": null, "address_2": null, "address_3": null, "city": "Gloucester", "state_province": "Virginia", "postal_code": "23061", "country": "United States", "longitude": null, "latitude": null, "phone": null, "website_url": null, "state": "Virginia", "street": null}, {"id": "748e5fbd-c51a-4dfb-8862-089ac305832b", "name": "Glover Park Brewery", "brewery_type": "planning", "address_1": null, "address_2": null, "address_3": null, "city": "Marietta", "state_province": "Georgia", "postal_code": "30060", "country": "United States", "longitude": null, "latitude": null, "phone": null, "website_url": null, "state": "Georgia", "street": null}, {"id": "14c9d060-b540-4055-8182-a9e02ab70452", "name": "Gnarly Barley Brewing", "brewery_type": "micro", "address_1": "1709 Corbin Rd", "address_2": null, "address_3": null, "city": "Hammond", "state_province": "Louisiana", "postal_code": "70403-3719", "country": "United States", "longitude": "-90.47912007", "latitude": "30.49701825", "phone": "9853180723", "website_url": "http://www.gnarlybeer.com", "state": "Louisiana", "street": "1709 Corbin Rd"}, {"id": "c025c15a-c757-402d-adf2-331a35f3721a", "name": "Gnarly Cedar Brewing", "brewery_type": "nano", "address_1": "6381 Hwy 57", "address_2": null, "address_3": null, "city": "Greenleaf", "state_province": "Wisconsin", "postal_code": "54126", "country": "United States", "longitude": "-88.0909977", "latitude": "44.3341752", "phone": "9205324384", "website_url": "https://www.ledgestonevineyards.xyz/gnarly-cedar-brewing/", "state": "Wisconsin", "street": "6381 Hwy 57"}, {"id": "4334a92c-8d08-42b0-86b0-b5e73b282253", "name": "Gneiss Brewing", "brewery_type": "micro", "address_1": "94 Patterson Rd", "address_2": null, "address_3": null, "city": "Limerick", "state_province": "Maine", "postal_code": "04048-4242", "country": "United States", "longitude": "-70.81799747", "latitude": "43.64831306", "phone": "2077930046", "website_url": "http://www.gneissbeer.com", "state": "Maine", "street": "94 Patterson Rd"}, {"id": "d0b10e4c-895c-4af9-9d07-b3de6d4d882a", "name": "GnomeTown Brewing Co", "brewery_type": "brewpub", "address_1": "203 E Berry St Ste 104", "address_2": null, "address_3": null, "city": "Fort Wayne", "state_province": "Indiana", "postal_code": "46802", "country": "United States", "longitude": null, "latitude": null, "phone": "2604220070", "website_url": "http://www.gnometownbrewing.com", "state": "Indiana", "street": "203 E Berry St Ste 104"}, {"id": "553e835b-4c41-4d59-954d-25f773afcf80", "name": "Goat Creek Brewing", "brewery_type": "planning", "address_1": null, "address_2": null, "address_3": null, "city": "Northampton", "state_province": "Massachusetts", "postal_code": "01062-1326", "country": "United States", "longitude": null, "latitude": null, "phone": null, "website_url": null, "state": "Massachusetts", "street": null}, {"id": "7ab0e9c9-ffb3-44e1-91fb-99dc7fd4959d", "name": "Goat Island Brewing", "brewery_type": "micro", "address_1": "1646 A John H Cooper Drive", "address_2": null, "address_3": null, "city": "Cullman", "state_province": "Alabama", "postal_code": "35055", "country": "United States", "longitude": null, "latitude": null, "phone": "2565909081", "website_url": "http://www.goatislandbrewing.com", "state": "Alabama", "street": "1646 A John H Cooper Drive"}, {"id": "4a3268b5-c896-462f-9567-57a490d77f22", "name": "Goat Lips Chew and Brewhouse / Redneck Riviera Brewing", "brewery_type": "brewpub", "address_1": "2811 Copter Rd", "address_2": null, "address_3": null, "city": "Pensacola", "state_province": "Florida", "postal_code": "32514-7606", "country": "United States", "longitude": null, "latitude": null, "phone": "8504741919", "website_url": "http://www.goatlips.com", "state": "Florida", "street": "2811 Copter Rd"}, {"id": "277c5afe-ab6b-41d9-9200-fafcbf1729e0", "name": "Goat Patch Brewing Co.", "brewery_type": "micro", "address_1": "2727 N Cascade Ave Ste 123", "address_2": null, "address_3": null, "city": "Colorado Springs", "state_province": "Colorado", "postal_code": "80907-6288", "country": "United States", "longitude": null, "latitude": null, "phone": "7194714628", "website_url": "http://www.goatpatchbrewing.com", "state": "Colorado", "street": "2727 N Cascade Ave Ste 123"}, {"id": "4626a269-2893-4805-9b88-27152e8a6fab", "name": "Goat Ridge Brewing", "brewery_type": "micro", "address_1": "17 Central Ave W", "address_2": null, "address_3": null, "city": "New London", "state_province": "Minnesota", "postal_code": "56273-", "country": "United States", "longitude": "-94.94412651", "latitude": "45.30119537", "phone": "3203542383", "website_url": "http://www.goatridgebrewing.com", "state": "Minnesota", "street": "17 Central Ave W"}, {"id": "95872557-1936-47c2-b57c-630e4f1a4466", "name": "GoatHouse Brewing Co", "brewery_type": "micro", "address_1": "600 Wise Rd", "address_2": null, "address_3": null, "city": "Lincoln", "state_province": "California", "postal_code": "95648-8518", "country": "United States", "longitude": "-121.2686181", "latitude": "38.92452521", "phone": "9167409100", "website_url": "http://www.goathousebrewing.com", "state": "California", "street": "600 Wise Rd"}, {"id": "ae816087-1f84-4ea5-aa7f-630e6bacb87d", "name": "Gold Camp Brewing Co", "brewery_type": "micro", "address_1": "1007 S Tejon St", "address_2": null, "address_3": null, "city": "Colorado Springs", "state_province": "Colorado", "postal_code": "80903-4238", "country": "United States", "longitude": "-104.823552", "latitude": "38.8195724", "phone": "7196950344", "website_url": null, "state": "Colorado", "street": "1007 S Tejon St"}, {"id": "503bccde-e659-431a-9797-c855f31a61bc", "name": "Gold Hill Brewery", "brewery_type": "micro", "address_1": "5660 Vineyard Ln", "address_2": null, "address_3": null, "city": "Placerville", "state_province": "California", "postal_code": "95667-9330", "country": "United States", "longitude": "-120.8889631", "latitude": "38.78402952", "phone": "5306266522", "website_url": "http://www.goldhillvineyard.com", "state": "California", "street": "5660 Vineyard Ln"}, {"id": "827402bd-02f7-4a94-ae11-fd3b0f7534e5", "name": "Golden Avalanche Brewing Co", "brewery_type": "brewpub", "address_1": "272 W Main St", "address_2": null, "address_3": null, "city": "Kutztown", "state_province": "Pennsylvania", "postal_code": "19530-1604", "country": "United States", "longitude": "-75.7780207", "latitude": "40.5164127", "phone": "6106839600", "website_url": "http://www.kutztowntavern.com/GoldenAvalancheBrewery", "state": "Pennsylvania", "street": "272 W Main St"}, {"id": "4c87f178-be2b-4bda-91c0-f70da145716a", "name": "Golden Block Brewery", "brewery_type": "brewpub", "address_1": "1227 Greene St", "address_2": null, "address_3": null, "city": "Silverton", "state_province": "Colorado", "postal_code": "81433", "country": "United States", "longitude": "-107.6642307", "latitude": "37.81194434", "phone": "9703875962", "website_url": "http://www.goldenblockbrewery.com", "state": "Colorado", "street": "1227 Greene St"}, {"id": "0336591f-e7d4-4d3d-b523-eda9bb5e5ec3", "name": "Golden City Brewery", "brewery_type": "brewpub", "address_1": "920 1/2 12th St", "address_2": null, "address_3": null, "city": "Golden", "state_province": "Colorado", "postal_code": "80401-1181", "country": "United States", "longitude": "-105.2227813", "latitude": "39.75471167", "phone": "3032798092", "website_url": null, "state": "Colorado", "street": "920 1/2 12th St"}, {"id": "c95ca449-14d0-4188-8f74-8540a64305bf", "name": "Golden Fox Brewing, LLC", "brewery_type": "micro", "address_1": "523 W Matilda St", "address_2": null, "address_3": null, "city": "Illiopolis", "state_province": "Illinois", "postal_code": "62539-3607", "country": "United States", "longitude": "-89.25359479", "latitude": "39.850216", "phone": null, "website_url": "http://www.GoldenFoxBrew.com", "state": "Illinois", "street": "523 W Matilda St"}, {"id": "045fb2d4-698c-4d1a-a8ca-ecf225871dd3", "name": "Golden Handle Project", "brewery_type": "micro", "address_1": "111 S Cedar St", "address_2": null, "address_3": null, "city": "Spokane", "state_province": "Washington", "postal_code": "99201", "country": "United States", "longitude": "-117.4326605", "latitude": "47.65656661", "phone": "5098680264", "website_url": "https://www.goldenhandle.org", "state": "Washington", "street": "111 S Cedar St"}, {"id": "745d91d0-9ae1-47d4-a2e1-92cbefe1bed2", "name": "Golden Road Brewing", "brewery_type": "large", "address_1": "2210 E Orangewood Ave", "address_2": null, "address_3": null, "city": "Anaheim", "state_province": "California", "postal_code": "92806", "country": "United States", "longitude": "-117.885189", "latitude": "33.79565792", "phone": "7149124015", "website_url": null, "state": "California", "street": "2210 E Orangewood Ave"}, {"id": "cbf3abb3-0bea-4d9c-ae71-d6e0022c49ce", "name": "Golden Road Brewing", "brewery_type": "large", "address_1": "5430 W San Fernando Rd", "address_2": null, "address_3": null, "city": "Los Angeles", "state_province": "California", "postal_code": "90039-1015", "country": "United States", "longitude": "-118.2744781", "latitude": "34.15049571", "phone": "2135426039", "website_url": "http://www.goldenroad.la", "state": "California", "street": "5430 W San Fernando Rd"}, {"id": "a92d1f36-efdc-49eb-bde8-a2435cb4ab08", "name": "Golden Road Brewing Co", "brewery_type": "planning", "address_1": null, "address_2": null, "address_3": null, "city": "Sacramento", "state_province": "California", "postal_code": "95811", "country": "United States", "longitude": "-121.4943996", "latitude": "38.5815719", "phone": "9163829445", "website_url": null, "state": "California", "street": null}, {"id": "647b33a1-30ea-457c-99bf-77c402b48293", "name": "Golden State Brew and Grill", "brewery_type": "brewpub", "address_1": "7560 Monterey Rd Ste 100", "address_2": null, "address_3": null, "city": "Gilroy", "state_province": "California", "postal_code": "95020", "country": "United States", "longitude": "-121.5695839", "latitude": "37.0088398", "phone": "4088467070", "website_url": null, "state": "California", "street": "7560 Monterey Rd Ste 100"}, {"id": "4e6a4f7f-2527-4511-8231-03f80b1d74b8", "name": "Golden State Brewery", "brewery_type": "micro", "address_1": "1252 Memorex Dr", "address_2": null, "address_3": null, "city": "Santa Clara", "state_province": "California", "postal_code": "95050-2812", "country": "United States", "longitude": "-121.9503168", "latitude": "37.36253839", "phone": "4087272337", "website_url": "http://www.goldenstate.beer", "state": "California", "street": "1252 Memorex Dr"}, {"id": "474774f5-f9dc-42eb-9487-4bdf5a9533bf", "name": "Golden Valley Brewery and Pub", "brewery_type": "brewpub", "address_1": "980 NE 4th St", "address_2": null, "address_3": null, "city": "McMinnville", "state_province": "Oregon", "postal_code": "97128-4308", "country": "United States", "longitude": "-123.1894925", "latitude": "45.21065713", "phone": null, "website_url": null, "state": "Oregon", "street": "980 NE 4th St"}, {"id": "113ef241-1d07-45a6-a9e5-7a528f441063", "name": "Goldhorn Brewery", "brewery_type": "brewpub", "address_1": "1361 E 55th St", "address_2": null, "address_3": null, "city": "Cleveland", "state_province": "Ohio", "postal_code": "44103-1301", "country": "United States", "longitude": "-81.6516143", "latitude": "41.5214479", "phone": null, "website_url": null, "state": "Ohio", "street": "1361 E 55th St"}, {"id": "f75b8bf1-6fc4-467b-ba8e-cdb09b515042", "name": "Goldmark Craft Beers LTd", "brewery_type": "taproom", "address_1": "The Vinery", "address_2": null, "address_3": null, "city": "Arundel", "state_province": "West Sussex", "postal_code": "BN18 9PY", "country": "England", "longitude": "-0.507102", "latitude": "50.84058", "phone": "1903297838", "website_url": "https://goldmarkbeers.co.uk/?v=79cba1185463", "state": "West Sussex", "street": "The Vinery"}, {"id": "5667d9d2-8053-4a56-a246-2c5845ca4c74", "name": "Goldspot Brewing Co", "brewery_type": "micro", "address_1": "4970 Lowell Blvd", "address_2": null, "address_3": null, "city": "Denver", "state_province": "Colorado", "postal_code": "80221-1028", "country": "United States", "longitude": "-105.0343545", "latitude": "39.7868924", "phone": "3039555657", "website_url": "http://www.goldspotbrewing.com", "state": "Colorado", "street": "4970 Lowell Blvd"}, {"id": "1a2ef664-c118-4079-9513-9f374aef67cd", "name": "Goldwater Brewing Co", "brewery_type": "micro", "address_1": "3608 N Scottsdale Rd", "address_2": null, "address_3": null, "city": "Scottsdale", "state_province": "Arizona", "postal_code": "85251-5612", "country": "United States", "longitude": "-111.9254955", "latitude": "33.658427", "phone": "4803507305", "website_url": "http://www.goldwaterbrewing.com", "state": "Arizona", "street": "3608 N Scottsdale Rd"}, {"id": "87b3024f-7071-4399-ace2-a0a6713271f4", "name": "Goliad Brewing Company", "brewery_type": "micro", "address_1": "252 Metting Rd", "address_2": null, "address_3": null, "city": "Goliad", "state_province": "Texas", "postal_code": "77963-3966", "country": "United States", "longitude": "-97.39806345", "latitude": "28.69079583", "phone": "2817827860", "website_url": "http://www.goliadbrewing.com", "state": "Texas", "street": "252 Metting Rd"}, {"id": "4c381866-9fca-4612-91e9-bb8294374386", "name": "Gonzo's BigDogg Brewery", "brewery_type": "brewpub", "address_1": "140 S Westnedge Ave", "address_2": null, "address_3": null, "city": "Kalamazoo", "state_province": "Michigan", "postal_code": "49007-4600", "country": "United States", "longitude": "-85.59008261", "latitude": "42.2908852", "phone": "2693822739", "website_url": "http://www.gonzosbiggdoggbrewing.com", "state": "Michigan", "street": "140 S Westnedge Ave"}, {"id": "67640d3f-1f88-4f7e-b603-4c52cac5aa1b", "name": "Good Bad Ugly Brewing Co. @ Tavern+Bowl Westgate", "brewery_type": "brewpub", "address_1": "6770 N Sunrise Blvd Ste G100", "address_2": null, "address_3": null, "city": "Glendale", "state_province": "Arizona", "postal_code": "85305-3224", "country": "United States", "longitude": null, "latitude": null, "phone": "9282088376", "website_url": "http://www.tavernbowlwestgate.com", "state": "Arizona", "street": "6770 N Sunrise Blvd Ste G100"}, {"id": "4fc2ac9a-57df-4cf2-80c6-ba63dd3d8340", "name": "Good Brewing Company", "brewery_type": "micro", "address_1": "16104 125th Pl NE", "address_2": null, "address_3": null, "city": "Woodinville", "state_province": "Washington", "postal_code": "98072-7983", "country": "United States", "longitude": "-122.1717877", "latitude": "47.74469959", "phone": "4252473245", "website_url": "http://www.globalbeercompany.com", "state": "Washington", "street": "16104 125th Pl NE"}, {"id": "a20eb612-f3de-4e44-aef5-5a8d0c3548c6", "name": "Good City Brewing Company", "brewery_type": "brewpub", "address_1": "2108 N Farwell Ave", "address_2": null, "address_3": null, "city": "Milwaukee", "state_province": "Wisconsin", "postal_code": "53202-1115", "country": "United States", "longitude": "-87.8889038", "latitude": "43.0565468", "phone": "4145394173", "website_url": "http://www.goodcitybrewing.com", "state": "Wisconsin", "street": "2108 N Farwell Ave"}, {"id": "81a767f3-9342-4102-84b9-ffcb09726574", "name": "Good Earth Brewing", "brewery_type": "planning", "address_1": null, "address_2": null, "address_3": null, "city": "Terrebonne", "state_province": "Oregon", "postal_code": "97760-9709", "country": "United States", "longitude": null, "latitude": null, "phone": "5598609998", "website_url": "http://www.goodearthbrewing.com", "state": "Oregon", "street": null}, {"id": "52559e7e-39e4-418e-bb43-368a74e38f1e", "name": "Good Hops Brewing LLC", "brewery_type": "micro", "address_1": "811 Harper Ave", "address_2": null, "address_3": null, "city": "Carolina Beach", "state_province": "North Carolina", "postal_code": "28428-4202", "country": "United States", "longitude": "-77.9038204", "latitude": "34.04080721", "phone": "7067131594", "website_url": "http://www.goodhopsbrewing.com", "state": "North Carolina", "street": "811 Harper Ave"}, {"id": "1df544e7-9d2b-4bc8-a9a0-a57d1baf058d", "name": "Good Liquid Brewing Company", "brewery_type": "micro", "address_1": "4824 14th St W", "address_2": null, "address_3": null, "city": "Bradenton", "state_province": "Florida", "postal_code": "34207-2017", "country": "United States", "longitude": "-82.575274", "latitude": "27.470805", "phone": "9418966381", "website_url": "http://www.thegoodliquidbrewing.com", "state": "Florida", "street": "4824 14th St W"}, {"id": "e9231b48-c709-4934-b6eb-0a79117523da", "name": "Good Measure Brewing Co", "brewery_type": "micro", "address_1": "17 East St", "address_2": null, "address_3": null, "city": "Northfield", "state_province": "Vermont", "postal_code": "05663-6719", "country": "United States", "longitude": "-72.6556223", "latitude": "44.1487966", "phone": null, "website_url": "http://www.goodmeasurebrewing.com", "state": "Vermont", "street": "17 East St"}, {"id": "6bba0c8b-6d21-4105-841d-bb24e3e49c5a", "name": "Good Nature Farm Brewery", "brewery_type": "micro", "address_1": "1727 State Route 12b", "address_2": null, "address_3": null, "city": "Hamilton", "state_province": "New York", "postal_code": "13346-2268", "country": "United States", "longitude": "-75.54560551", "latitude": "42.807293", "phone": "3158242337", "website_url": "http://goodnaturebrewing.com", "state": "New York", "street": "1727 State Route 12b"}, {"id": "a2f7f1df-4a8e-49a2-8272-7804ae685e97", "name": "Good Neighbor Brews", "brewery_type": "micro", "address_1": "211 Regency Dr", "address_2": null, "address_3": null, "city": "Wylie", "state_province": "Texas", "postal_code": "75098-7089", "country": "United States", "longitude": "-96.58583347", "latitude": "33.00449384", "phone": "4694714287", "website_url": "http://www.goodneighborbrews.com", "state": "Texas", "street": "211 Regency Dr"}, {"id": "e9d98f63-620d-4282-95bc-e6cc8240cdd2", "name": "Good News Brewing Company", "brewery_type": "brewpub", "address_1": "330 Sonderen St", "address_2": null, "address_3": null, "city": "O Fallon", "state_province": "Missouri", "postal_code": "63366-2629", "country": "United States", "longitude": "-90.694613", "latitude": "38.807136", "phone": "6362946593", "website_url": "http://goodnewsbrewing.com", "state": "Missouri", "street": "330 Sonderen St"}, {"id": "9bdcf023-7ca4-4cb2-95f1-8f03d7262810", "name": "Good People Brewing Co", "brewery_type": "micro", "address_1": "114 14th St S", "address_2": null, "address_3": null, "city": "Birmingham", "state_province": "Alabama", "postal_code": "35233-1415", "country": "United States", "longitude": "-86.81217995", "latitude": "33.50759461", "phone": "6154984165", "website_url": "http://www.goodpeoplebrewing.com", "state": "Alabama", "street": "114 14th St S"}, {"id": "36785f2c-ba97-48ed-8bcf-2b45c3a4a0d0", "name": "Good River Beer Company", "brewery_type": "contract", "address_1": "1790 S Bannock St.", "address_2": null, "address_3": null, "city": "Denver", "state_province": "Colorado", "postal_code": "80223", "country": "United States", "longitude": "-104.9898169", "latitude": "39.68421218", "phone": "6023697442", "website_url": "http://www.grbeerco.com", "state": "Colorado", "street": "1790 S Bannock St."}, {"id": "0a7e88a9-f4c1-4977-af19-9b5b18431889", "name": "Good Things Brewing Co Ltd", "brewery_type": "micro", "address_1": "Sandhill Lane", "address_2": null, "address_3": null, "city": "Tunbridge Wells", "state_province": "East Sussex", "postal_code": "TN3 9LP", "country": "England", "longitude": "0.204763", "latitude": "51.075834", "phone": "1892249012", "website_url": "https://goodthingsbrewing.co/", "state": "East Sussex", "street": "Sandhill Lane"}, {"id": "b90cc90a-da50-4d39-9c27-67b32e299e57", "name": "Good Times Brewing", "brewery_type": "brewpub", "address_1": "237 Maxwell Ave", "address_2": null, "address_3": null, "city": "Greenwood", "state_province": "South Carolina", "postal_code": "29646-2616", "country": "United States", "longitude": "-82.16363224", "latitude": "34.18989245", "phone": "8649937302", "website_url": "http://www.goodtimesbrewing.beer", "state": "South Carolina", "street": "237 Maxwell Ave"}, {"id": "649e9b90-6572-4b02-9652-90d4ffec7a92", "name": "Good Word Brewing & Public House", "brewery_type": "brewpub", "address_1": "3085 Main St Ste 520", "address_2": null, "address_3": null, "city": "Duluth", "state_province": "Georgia", "postal_code": "30096-3261", "country": "United States", "longitude": null, "latitude": null, "phone": "4049732077", "website_url": "http://www.goodwordbrewing.com", "state": "Georgia", "street": "3085 Main St Ste 520"}, {"id": "1c372c46-860d-40a6-9a33-8b1c491d6090", "name": "Goodfire Brewing Company", "brewery_type": "micro", "address_1": "219 Anderson St Ste 6", "address_2": null, "address_3": null, "city": "Portland", "state_province": "Maine", "postal_code": "04101-1401", "country": "United States", "longitude": null, "latitude": null, "phone": "2078088910", "website_url": "http://www.goodfirebrewing.com", "state": "Maine", "street": "219 Anderson St Ste 6"}, {"id": "26b96041-d01d-4ec8-95a2-d0bb1d050455", "name": "GoodLife Brewing Company", "brewery_type": "regional", "address_1": "70 SW Century Ave 100-464", "address_2": null, "address_3": null, "city": "Bend", "state_province": "Oregon", "postal_code": "97701", "country": "United States", "longitude": "-121.3302942", "latitude": "44.05138311", "phone": "5417280749", "website_url": "http://www.goodlifebrewing.com", "state": "Oregon", "street": "70 SW Century Ave 100-464"}, {"id": "df996aa0-8e03-48af-9143-080e58b236cb", "name": "GoodWater Brewery", "brewery_type": "micro", "address_1": "740 Marshall Ave", "address_2": null, "address_3": null, "city": "Williston", "state_province": "Vermont", "postal_code": "05495-8978", "country": "United States", "longitude": null, "latitude": null, "phone": "8029997396", "website_url": "http://www.goodwaterbreweryvt.com", "state": "Vermont", "street": "740 Marshall Ave"}, {"id": "0eba6b3c-8158-4610-a120-c0a90e5922c9", "name": "Goodwood Brewery", "brewery_type": "micro", "address_1": "Goodwood Farm", "address_2": null, "address_3": null, "city": "Chichester", "state_province": "West Sussex", "postal_code": "PO18 0QF", "country": "England", "longitude": "-0.721936", "latitude": "50.871619", "phone": "1243755154", "website_url": "https://www.goodwood.com/", "state": "West Sussex", "street": "Goodwood Farm"}, {"id": "af71f073-98d7-4791-afe1-6d6c29637ad3", "name": "Goodwood Brewing Co", "brewery_type": "micro", "address_1": "636 E Main St", "address_2": null, "address_3": null, "city": "Louisville", "state_province": "Kentucky", "postal_code": "40202-1004", "country": "United States", "longitude": "-85.7400684", "latitude": "38.254635", "phone": "5025842739", "website_url": "http://www.goodwood.beer", "state": "Kentucky", "street": "636 E Main St"}, {"id": "c77a6112-2b38-4e69-ae8e-53077c8f2307", "name": "Goose And The Monkey Brew House, LLC", "brewery_type": "planning", "address_1": null, "address_2": null, "address_3": null, "city": "Lexington", "state_province": "North Carolina", "postal_code": "27292", "country": "United States", "longitude": null, "latitude": null, "phone": "3362405310", "website_url": "http://www.gooseandthemonkeybrewhouse.com", "state": "North Carolina", "street": null}, {"id": "8e309724-11ae-4fc0-8d18-3ae64eeaa84a", "name": "Goose Island Beer Co / Fulton St", "brewery_type": "large", "address_1": "1800 W Fulton St", "address_2": null, "address_3": null, "city": "Chicago", "state_province": "Illinois", "postal_code": "60612-2512", "country": "United States", "longitude": "-87.6722122", "latitude": "41.8870058", "phone": "3122261119", "website_url": "http://www.gooseisland.com", "state": "Illinois", "street": "1800 W Fulton St"}, {"id": "4cc60614-30c4-406a-9fec-c5dc01b22863", "name": "Goose Island Brewhouse Seoul", "brewery_type": "brewpub", "address_1": "118, Yeoksam-ro", "address_2": null, "address_3": null, "city": "Gangnam-gu", "state_province": "Seoul", "postal_code": "06251", "country": "South Korea", "longitude": "127.0323206", "latitude": "37.49360307", "phone": "02-6205-1785", "website_url": "https://gooseisland.kr", "state": "Seoul", "street": "118, Yeoksam-ro"}, {"id": "8ef0b76f-0cd8-4c9d-ad65-61627c7276d7", "name": "Goose Island Brewpub", "brewery_type": "large", "address_1": "1800 N Clybourn Ave Ste B", "address_2": null, "address_3": null, "city": "Chicago", "state_province": "Illinois", "postal_code": "60614-4895", "country": "United States", "longitude": null, "latitude": null, "phone": "3129150071", "website_url": "http://www.gooseisland.com", "state": "Illinois", "street": "1800 N Clybourn Ave Ste B"}, {"id": "c395ff94-7641-4115-804b-5eec844b6fdb", "name": "Goose Island Philadelphia", "brewery_type": "brewpub", "address_1": "1002 Canal St", "address_2": null, "address_3": null, "city": "Philadelphia", "state_province": "Pennsylvania", "postal_code": "19123", "country": "United States", "longitude": "-75.13506341", "latitude": "39.9648491", "phone": null, "website_url": null, "state": "Pennsylvania", "street": "1002 Canal St"}, {"id": "9a0a767e-4958-40b0-8ed1-74bd5e719cc2", "name": "Gordon Biersch Brewery Restaurant - Annapolis", "brewery_type": "brewpub", "address_1": "1906 Towne Centre Blvd Ste 155", "address_2": null, "address_3": null, "city": "Annapolis", "state_province": "Maryland", "postal_code": "21401-3681", "country": "United States", "longitude": null, "latitude": null, "phone": "4102665965", "website_url": "http://www.craftworksrestaurants.com", "state": "Maryland", "street": "1906 Towne Centre Blvd Ste 155"}, {"id": "a638f91d-b523-4965-875b-2c2580e990f2", "name": "Gordon Biersch Brewery Restaurant - Atlanta", "brewery_type": "brewpub", "address_1": "3242 Peachtree Rd NE", "address_2": null, "address_3": null, "city": "Atlanta", "state_province": "Georgia", "postal_code": "30305-2425", "country": "United States", "longitude": "-84.3620936", "latitude": "33.8503143", "phone": "4042640253", "website_url": "http://www.craftworksrestaurants.com", "state": "Georgia", "street": "3242 Peachtree Rd NE"}]