[{"id": "789c9614-dbbd-473e-a5d8-7c881dfa5e51", "name": "Blind Tiger Brewery & Restaurant", "brewery_type": "brewpub", "address_1": "417 SW 37th St", "address_2": null, "address_3": null, "city": "Topeka", "state_province": "Kansas", "postal_code": "66611-2354", "country": "United States", "longitude": "-95.6846745", "latitude": "39.0002602", "phone": "7852672739", "website_url": "http://www.blindtiger.com", "state": "Kansas", "street": "417 SW 37th St"}, {"id": "83078530-df39-4a88-bbac-362f1253a43a", "name": "Block 15", "brewery_type": "brewpub", "address_1": "300 SW Jefferson Ave", "address_2": null, "address_3": null, "city": "Corvallis", "state_province": "Oregon", "postal_code": "97333-4607", "country": "United States", "longitude": "-123.262222", "latitude": "44.5622701", "phone": "5417582077", "website_url": null, "state": "Oregon", "street": "300 SW Jefferson Ave"}, {"id": "df8022a7-1cbc-4e06-a5e5-c163fcfa3ce1", "name": "Block 15 Brewery & Tap Room", "brewery_type": "brewpub", "address_1": "3415 SW Deschutes St", "address_2": null, "address_3": null, "city": "Corvallis", "state_province": "Oregon", "postal_code": "97333-9283", "country": "United States", "longitude": "-123.269049", "latitude": "44.5305284", "phone": "5417522337", "website_url": "http://www.block15.com", "state": "Oregon", "street": "3415 SW Deschutes St"}, {"id": "7e39a579-8605-49a5-9988-a4d594650d1e", "name": "Block Brewing Company", "brewery_type": "brewpub", "address_1": "1140 S Michigan Ave", "address_2": null, "address_3": null, "city": "Howell", "state_province": "Michigan", "postal_code": "48843-2669", "country": "United States", "longitude": "-83.931806", "latitude": "42.603858", "phone": null, "website_url": "http://www.blockbrewingcompany.com", "state": "Michigan", "street": "1140 S Michigan Ave"}, {"id": "b5c811b0-dcf0-42d2-801b-74b0519227e5", "name": "Bloom Brew", "brewery_type": "micro", "address_1": "100 Riverside Dr", "address_2": null, "address_3": null, "city": "West Newton", "state_province": "Pennsylvania", "postal_code": "15089-1542", "country": "United States", "longitude": "-79.768066", "latitude": "40.210228", "phone": "7243224494", "website_url": "http://www.bloombrew.com", "state": "Pennsylvania", "street": "100 Riverside Dr"}, {"id": "08270e49-04d2-43a5-ae56-f9025f60668a", "name": "Bloomer Brewing Co", "brewery_type": "micro", "address_1": "1526 Martin Rd Ste A", "address_2": null, "address_3": null, "city": "Bloomer", "state_province": "Wisconsin", "postal_code": "54724-1764", "country": "United States", "longitude": null, "latitude": null, "phone": "7152713967", "website_url": null, "state": "Wisconsin", "street": "1526 Martin Rd Ste A"}, {"id": "0b768b24-8163-4b21-a633-ef4dad76b501", "name": "Bloomington Brewing Co", "brewery_type": "brewpub", "address_1": "1795 E 10th St", "address_2": null, "address_3": null, "city": "Bloomington", "state_province": "Indiana", "postal_code": "47407-6955", "country": "United States", "longitude": "-86.51136673", "latitude": "39.1720504", "phone": "8123392256", "website_url": null, "state": "Indiana", "street": "1795 E 10th St"}, {"id": "b63e1e54-3e7d-4755-a513-0792ab9e4d12", "name": "Bloomington Brewing Co - Production Facility", "brewery_type": "micro", "address_1": "2234 West Industrial Drive", "address_2": null, "address_3": null, "city": "Bloomington", "state_province": "Indiana", "postal_code": "47404", "country": "United States", "longitude": null, "latitude": null, "phone": "8126992005", "website_url": "http://www.bbcbloomington.com", "state": "Indiana", "street": "2234 West Industrial Drive"}, {"id": "22ef447a-0379-4be5-ab93-72d95e4a778a", "name": "Blowing Rock Brewing Company", "brewery_type": "brewpub", "address_1": "152 Sunset Dr", "address_2": null, "address_3": null, "city": "Blowing Rock", "state_province": "North Carolina", "postal_code": "28605-7205", "country": "United States", "longitude": "-81.677229", "latitude": "36.1327196", "phone": "8284149600", "website_url": "http://www.blowingrockbrewing.com", "state": "North Carolina", "street": "152 Sunset Dr"}, {"id": "68f388b7-f7ed-4ece-8968-879d2846b189", "name": "Blue Blaze Brewing", "brewery_type": "micro", "address_1": "528 S Turner Ave", "address_2": null, "address_3": null, "city": "Charlotte", "state_province": "North Carolina", "postal_code": "28208-4259", "country": "United States", "longitude": "-80.86710843", "latitude": "35.24138809", "phone": "9808592586", "website_url": "http://www.blueblazebrewing.com", "state": "North Carolina", "street": "528 S Turner Ave"}, {"id": "f5e7c55b-e9bc-40fd-9008-dcf443a88837", "name": "Blue Blood Brewing Company", "brewery_type": "brewpub", "address_1": "925 Robbers Cave Rd", "address_2": null, "address_3": null, "city": "Lincoln", "state_province": "Nebraska", "postal_code": "68502", "country": "United States", "longitude": "-96.70701376", "latitude": "40.77999602", "phone": "4024772337", "website_url": "http://www.bluebloodbrewing.com", "state": "Nebraska", "street": "925 Robbers Cave Rd"}, {"id": "956f2d40-477b-455a-bc21-b03779150cf0", "name": "Blue Canoe Brewery", "brewery_type": "brewpub", "address_1": "113 S Franklin St", "address_2": null, "address_3": null, "city": "Titusville", "state_province": "Pennsylvania", "postal_code": "16354-1737", "country": "United States", "longitude": "-79.6733234", "latitude": "41.6230211", "phone": "8147750077", "website_url": null, "state": "Pennsylvania", "street": "113 S Franklin St"}, {"id": "755b03e1-07f0-4c63-952d-449a5b8f554e", "name": "Blue Canoe Brewing Co", "brewery_type": "micro", "address_1": "1637 E. 15th Street", "address_2": null, "address_3": null, "city": "Little Rock", "state_province": "Arkansas", "postal_code": "72202", "country": "United States", "longitude": "-92.25366807", "latitude": "34.73235496", "phone": "5014929378", "website_url": "http://www.bluecanoebrewco.com", "state": "Arkansas", "street": "1637 E. 15th Street"}, {"id": "2daa16bf-b6ef-40f1-b70a-b3590227c0b5", "name": "Blue Cat Brew Pub", "brewery_type": "brewpub", "address_1": "113 18th St", "address_2": null, "address_3": null, "city": "Rock Island", "state_province": "Illinois", "postal_code": "61201-8708", "country": "United States", "longitude": "-90.5145797", "latitude": "41.51094347", "phone": "3097888247", "website_url": "http://www.bluecatbrewpub.com", "state": "Illinois", "street": "113 18th St"}, {"id": "2595ff73-65f0-41ea-820c-3d7d35f453ca", "name": "Blue Collar Brewery, Inc.", "brewery_type": "brewpub", "address_1": "40 Cottage St", "address_2": null, "address_3": null, "city": "Poughkeepsie", "state_province": "New York", "postal_code": "12601-2015", "country": "United States", "longitude": "-73.91831", "latitude": "41.707234", "phone": "8454542739", "website_url": "http://www.thebluecollarbrewery.com", "state": "New York", "street": "40 Cottage St"}, {"id": "bfcbf176-9040-445a-a70f-58d8ce0df722", "name": "Blue Corn Cafe", "brewery_type": "brewpub", "address_1": "4056 Cerrillos Rd Ste G", "address_2": null, "address_3": null, "city": "Santa Fe", "state_province": "New Mexico", "postal_code": "87507-2605", "country": "United States", "longitude": null, "latitude": null, "phone": "5059841800", "website_url": "http://www.bluecorncafe.com", "state": "New Mexico", "street": "4056 Cerrillos Rd Ste G"}, {"id": "b0d6f266-fc2c-4902-ac56-8037f58608c3", "name": "Blue Cow Cafe/Big Rapids Brewing Co", "brewery_type": "brewpub", "address_1": "119 N Michigan Ave", "address_2": null, "address_3": null, "city": "Big Rapids", "state_province": "Michigan", "postal_code": "49307-1401", "country": "United States", "longitude": "-85.48211793", "latitude": "43.69871439", "phone": "2317960100", "website_url": "http://www.bluecowcafe.com", "state": "Michigan", "street": "119 N Michigan Ave"}, {"id": "3cb83545-6111-426e-8c53-f463bdefbd9b", "name": "Blue Earl Brewing Company", "brewery_type": "micro", "address_1": "210 Artisan Dr", "address_2": null, "address_3": null, "city": "Smyrna", "state_province": "Delaware", "postal_code": "19977-3715", "country": "United States", "longitude": "-75.62418056", "latitude": "39.28096844", "phone": null, "website_url": "http://www.blueearlbrewing.com", "state": "Delaware", "street": "210 Artisan Dr"}, {"id": "267e407e-db63-4026-8468-8043815c24e8", "name": "Blue Frog Brewing Company", "brewery_type": "micro", "address_1": "1740 Travis Blvd", "address_2": null, "address_3": null, "city": "Fairfield", "state_province": "California", "postal_code": "94533-3431", "country": "United States", "longitude": "-122.0600589", "latitude": "38.2585569", "phone": "7074292337", "website_url": "http://www.bluefrogbrewingcompany.com", "state": "California", "street": "1740 Travis Blvd"}, {"id": "2e73516c-cb09-4946-a500-e6bc12149b97", "name": "Blue Ghost Brewing Company", "brewery_type": "brewpub", "address_1": "125 Underwood Rd", "address_2": null, "address_3": null, "city": "Fletcher", "state_province": "North Carolina", "postal_code": "28732-", "country": "United States", "longitude": "-82.5305803", "latitude": "35.4368388", "phone": "8283760159", "website_url": "http://www.blueghostbrewing.com", "state": "North Carolina", "street": "125 Underwood Rd"}, {"id": "ff28c999-2a8b-4f5e-be5c-61708b56d8c2", "name": "Blue Heron Brew Pub", "brewery_type": "brewpub", "address_1": "108 W 9th St", "address_2": null, "address_3": null, "city": "Marshfield", "state_province": "Wisconsin", "postal_code": "54449-4111", "country": "United States", "longitude": "-90.18148902", "latitude": "44.65938079", "phone": "7153891868", "website_url": "http://www.blueheronbrewpub.com", "state": "Wisconsin", "street": "108 W 9th St"}, {"id": "7d96c9eb-d026-4579-b0d2-703de93af667", "name": "Blue Heron Brewing", "brewery_type": "micro", "address_1": "2214 New Mexico 68", "address_2": null, "address_3": null, "city": "Embudo", "state_province": "New Mexico", "postal_code": "87531", "country": "United States", "longitude": null, "latitude": null, "phone": "5055799188", "website_url": "http://www.blueheronbrews.com", "state": "New Mexico", "street": "2214 New Mexico 68"}, {"id": "9c8281e9-37e8-4f0f-8608-5be45c0148fd", "name": "Blue Island Beer Co", "brewery_type": "micro", "address_1": "13357 Olde Western Ave", "address_2": null, "address_3": null, "city": "Blue Island", "state_province": "Illinois", "postal_code": "60406-2969", "country": "United States", "longitude": null, "latitude": null, "phone": "7089548085", "website_url": "http://www.blueislandbeerco.com", "state": "Illinois", "street": "13357 Olde Western Ave"}, {"id": "aef7a703-7954-41ed-9e29-c6d6bb8a23fe", "name": "Blue Line Brewery", "brewery_type": "brewpub", "address_1": "555 Lake Flower Ave", "address_2": null, "address_3": null, "city": "Saranac Lake", "state_province": "New York", "postal_code": "12983-2465", "country": "United States", "longitude": "-74.11766659", "latitude": "44.31358605", "phone": "5183548114", "website_url": "http://www.bluelinebrew.com", "state": "New York", "street": "555 Lake Flower Ave"}, {"id": "de0da44e-8a09-4e8d-8b3a-aca03b39cc23", "name": "Blue Moon Brewery", "brewery_type": "large", "address_1": "3750 Chestnut Pl", "address_2": null, "address_3": null, "city": "Denver", "state_province": "Colorado", "postal_code": "80216-3632", "country": "United States", "longitude": "-104.9769417", "latitude": "39.7735561", "phone": null, "website_url": null, "state": "Colorado", "street": "3750 Chestnut Pl"}, {"id": "1ec80861-6a0b-45be-a7bb-824b42088f80", "name": "Blue Mountain Barrel House and Organic Brewery", "brewery_type": "micro", "address_1": "495 Cooperative Way", "address_2": null, "address_3": null, "city": "Arrington", "state_province": "Virginia", "postal_code": "22922-3305", "country": "United States", "longitude": null, "latitude": null, "phone": "4342634002", "website_url": "http://www.bluemountainbarrel.com", "state": "Virginia", "street": "495 Cooperative Way"}, {"id": "34ca6770-79f4-419e-b244-16f21b1273f4", "name": "Blue Mountain Brewery", "brewery_type": "micro", "address_1": "9519 Critzers Shop Rd", "address_2": null, "address_3": null, "city": "Afton", "state_province": "Virginia", "postal_code": "22920-2415", "country": "United States", "longitude": null, "latitude": null, "phone": "5404568020", "website_url": "http://www.bluemountainbrewery.com", "state": "Virginia", "street": "9519 Critzers Shop Rd"}, {"id": "23799b52-1cb9-423e-abd5-35c913bf68e9", "name": "Blue Mountain Pizza and Brew Pub", "brewery_type": "brewpub", "address_1": "55 N Main St", "address_2": null, "address_3": null, "city": "Weaverville", "state_province": "North Carolina", "postal_code": "28787-6634", "country": "United States", "longitude": "-82.55934457", "latitude": "35.70849553", "phone": "8286588777", "website_url": "http://www.bluemountainpizza.com", "state": "North Carolina", "street": "55 N Main St"}, {"id": "151dc23e-ecd8-4402-a4c5-2fac488d5e92", "name": "Blue Nose Brewery", "brewery_type": "micro", "address_1": "6119 East Ave", "address_2": null, "address_3": null, "city": "Hodgkins", "state_province": "Illinois", "postal_code": "60525-4126", "country": "United States", "longitude": "-87.85833464", "latitude": "41.77904908", "phone": "7089055198", "website_url": "http://www.bluenosebrewery.com", "state": "Illinois", "street": "6119 East Ave"}, {"id": "4857f5fa-2815-44f7-b30d-2b1f0d3c0c6b", "name": "Blue Note Brewing Company", "brewery_type": "micro", "address_1": "750 Dead Cat Aly", "address_2": null, "address_3": null, "city": "Woodland", "state_province": "California", "postal_code": "95695-3435", "country": "United States", "longitude": "-121.7712396", "latitude": "38.67803633", "phone": "5303584677", "website_url": "http://www.bluenotebrewing.com", "state": "California", "street": "750 Dead Cat Aly"}, {"id": "b2e4ab7a-3508-450d-8bea-47b39bee40d2", "name": "Blue Oak Brewing Co", "brewery_type": "micro", "address_1": "821 Cherry Ln", "address_2": null, "address_3": null, "city": "San Carlos", "state_province": "California", "postal_code": "94070-3306", "country": "United States", "longitude": "-122.2534864", "latitude": "37.51008173", "phone": "4152739676", "website_url": "http://blueoakbrewing.com", "state": "California", "street": "821 Cherry Ln"}, {"id": "5c4c95ae-4128-4510-b2c7-2a7c483de5a2", "name": "Blue Owl Brewing", "brewery_type": "micro", "address_1": "2400 E Cesar Chavez St Ste 300", "address_2": null, "address_3": null, "city": "Austin", "state_province": "Texas", "postal_code": "78702-4638", "country": "United States", "longitude": "-97.7189581", "latitude": "30.2545583", "phone": "5125931262", "website_url": "http://www.blueowlbrewing.com", "state": "Texas", "street": "2400 E Cesar Chavez St Ste 300"}, {"id": "638f8af8-5c7f-4eed-9b7e-5c199227e154", "name": "Blue Pants Brewery", "brewery_type": "micro", "address_1": "500 Lanier Rd, Bld 1 - Ste A", "address_2": null, "address_3": null, "city": "Madison", "state_province": "Alabama", "postal_code": "35758-8675", "country": "United States", "longitude": null, "latitude": null, "phone": "2566796330", "website_url": "http://www.bluepantsbrew.com", "state": "Alabama", "street": "500 Lanier Rd, Bld 1 - Ste A"}, {"id": "2305e910-7a97-4d2e-bc7d-573216936035", "name": "Blue Pike Cantina", "brewery_type": "brewpub", "address_1": "152 S Water St", "address_2": null, "address_3": null, "city": "Marine City", "state_province": "Michigan", "postal_code": "48039-1687", "country": "United States", "longitude": "-82.49085669", "latitude": "42.71829576", "phone": "8107654200", "website_url": null, "state": "Michigan", "street": "152 S Water St"}, {"id": "448fb5bd-505b-40a0-ab84-0720ff5f281c", "name": "Blue Point Brewing", "brewery_type": "large", "address_1": "225 West Main St", "address_2": null, "address_3": null, "city": "Patchogue", "state_province": "New York", "postal_code": "11772", "country": "United States", "longitude": "-73.02103705", "latitude": "40.76644215", "phone": null, "website_url": null, "state": "New York", "street": "225 West Main St"}, {"id": "593ee04a-4af6-4d32-a00d-f8ac6357469a", "name": "Blue Point Brewing Co", "brewery_type": "large", "address_1": "161 River Ave", "address_2": null, "address_3": null, "city": "Patchogue", "state_province": "New York", "postal_code": "11772-3304", "country": "United States", "longitude": "-73.0216063", "latitude": "40.75913445", "phone": "6314756944", "website_url": "http://www.bluepointbrewing.com", "state": "New York", "street": "161 River Ave"}, {"id": "05a8d9a8-670a-4e5d-86c3-fddd352cfe43", "name": "Blue Ridge Brewing Co/Foothills Brewing", "brewery_type": "brewpub", "address_1": "308 Trade St", "address_2": null, "address_3": null, "city": "Greer", "state_province": "South Carolina", "postal_code": "29651-3432", "country": "United States", "longitude": "-82.2262648", "latitude": "34.9361559", "phone": "8642324677", "website_url": "http://www.blueridgebrewing.com", "state": "South Carolina", "street": "308 Trade St"}, {"id": "e1312a12-35d9-4636-a80a-9f9a95463964", "name": "Blue Ridge Community College", "brewery_type": "planning", "address_1": null, "address_2": null, "address_3": null, "city": "Flat Rock", "state_province": "North Carolina", "postal_code": "28731-4774", "country": "United States", "longitude": null, "latitude": null, "phone": "8286941674", "website_url": "http://www.blueridge.edu", "state": "North Carolina", "street": null}, {"id": "3b5c7026-2f62-4fc0-ad1b-71a62ed0989d", "name": "Blue Skye Brewery", "brewery_type": "brewpub", "address_1": "116 N Santa Fe Ave", "address_2": null, "address_3": null, "city": "Salina", "state_province": "Kansas", "postal_code": "67401-2614", "country": "United States", "longitude": "-97.608998", "latitude": "38.84100296", "phone": "7854521234", "website_url": "http://blueskyebrewery.com", "state": "Kansas", "street": "116 N Santa Fe Ave"}, {"id": "b43d9155-7bdb-49af-b0b8-58bc87119cfe", "name": "Blue Spruce Brewing", "brewery_type": "brewpub", "address_1": "4151 E County Line Rd Unit G", "address_2": null, "address_3": null, "city": "Centennial", "state_province": "Colorado", "postal_code": "80122-8113", "country": "United States", "longitude": null, "latitude": null, "phone": "3037710590", "website_url": "http://www.bluesprucebrewing.com", "state": "Colorado", "street": "4151 E County Line Rd Unit G"}, {"id": "20541e39-2e32-455d-9b2b-cb926fc11fa2", "name": "Blue Spruce Brewing Littleton", "brewery_type": "brewpub", "address_1": "10577 W Centennial Rd", "address_2": null, "address_3": null, "city": "Littleton", "state_province": "Colorado", "postal_code": "80127-4233", "country": "United States", "longitude": null, "latitude": null, "phone": null, "website_url": "http://www.bluesprucebrewing.com", "state": "Colorado", "street": "10577 W Centennial Rd"}, {"id": "6d48e0c5-c4ec-43f9-8678-28daa1be8c78", "name": "Blue Stallion Brewing Company", "brewery_type": "micro", "address_1": "610 W Third St", "address_2": null, "address_3": null, "city": "Lexington", "state_province": "Kentucky", "postal_code": "40508-1243", "country": "United States", "longitude": "-84.50136234", "latitude": "38.05710985", "phone": "8596088490", "website_url": "http://www.bluestallionbrewing.com", "state": "Kentucky", "street": "610 W Third St"}, {"id": "549145aa-cde9-4d76-a282-7508eaee9b3c", "name": "Blue Star Brewing Co", "brewery_type": "brewpub", "address_1": "1414 S Alamo St # 105", "address_2": null, "address_3": null, "city": "San Antonio", "state_province": "Texas", "postal_code": "78210-1117", "country": "United States", "longitude": "-98.49615307", "latitude": "29.40989569", "phone": "2102125506", "website_url": "http://www.bluestarbrewing.com", "state": "Texas", "street": "1414 S Alamo St # 105"}, {"id": "eeef44bf-a841-4f54-94d3-d9864b81785c", "name": "Blue Tractor Brewing Co", "brewery_type": "brewpub", "address_1": "207 E Washington St", "address_2": null, "address_3": null, "city": "Ann Arbor", "state_province": "Michigan", "postal_code": "48104-2007", "country": "United States", "longitude": "-83.74704578", "latitude": "42.28052759", "phone": "7342224095", "website_url": null, "state": "Michigan", "street": "207 E Washington St"}, {"id": "1487d681-ecde-4a87-a70d-12956186e99c", "name": "Blue Wolf Brewing Company LLC", "brewery_type": "micro", "address_1": "8515 Edinburgh Centre Dr.", "address_2": null, "address_3": null, "city": "Brooklyn Park", "state_province": "Minnesota", "postal_code": "55443", "country": "United States", "longitude": null, "latitude": null, "phone": "7633906700", "website_url": "http://www.bluewolfbrew.com", "state": "Minnesota", "street": "8515 Edinburgh Centre Dr."}, {"id": "c3d86c65-615c-4d13-9c5d-9f4bc7b5ee64", "name": "Blue Zone Brewing Co.", "brewery_type": "planning", "address_1": null, "address_2": null, "address_3": null, "city": "Saint George", "state_province": "Utah", "postal_code": "84790-5716", "country": "United States", "longitude": null, "latitude": null, "phone": "4353135050", "website_url": null, "state": "Utah", "street": null}, {"id": "d30dffbe-c246-4137-9ab2-e15e68c44d4b", "name": "Bluebird Brasserie", "brewery_type": "brewpub", "address_1": "13730 Ventura Blvd", "address_2": null, "address_3": null, "city": "Sherman Oaks", "state_province": "California", "postal_code": "91423", "country": "United States", "longitude": "-118.4365891", "latitude": "34.1489109", "phone": null, "website_url": "http://www.bluebirdbrasserie.com", "state": "California", "street": "13730 Ventura Blvd"}, {"id": "fe28d7bf-10f6-4535-821b-71dab747bc14", "name": "Bluebird Microcreamery and Brewery", "brewery_type": "micro", "address_1": "7415 Greenwood Ave N", "address_2": null, "address_3": null, "city": "Seattle", "state_province": "Washington", "postal_code": "98103-5044", "country": "United States", "longitude": "-122.355108", "latitude": "47.6826657", "phone": "2066598154", "website_url": "https://www.facebook.com/bluebirdicecrm", "state": "Washington", "street": "7415 Greenwood Ave N"}, {"id": "cc7d935c-c318-4a60-9da6-e683a3ce7fb9", "name": "Bluebonnet Beer Co", "brewery_type": "micro", "address_1": "1700 Bryant Dr Ste 107", "address_2": null, "address_3": null, "city": "Round Rock", "state_province": "Texas", "postal_code": "78664-3898", "country": "United States", "longitude": "-97.645332", "latitude": "30.491657", "phone": "5127744258", "website_url": "http://www.bluebonnetbeerco.com", "state": "Texas", "street": "1700 Bryant Dr Ste 107"}, {"id": "769657dd-ea31-413f-a465-54e729967309", "name": "Bluegrass Brewing Co - Brewpub", "brewery_type": "brewpub", "address_1": "300 W Main St", "address_2": null, "address_3": null, "city": "Louisville", "state_province": "Kentucky", "postal_code": "40202-2945", "country": "United States", "longitude": "-85.75508898", "latitude": "38.25620645", "phone": "5028997070", "website_url": "http://www.bbcbrew.com", "state": "Kentucky", "street": "300 W Main St"}, {"id": "2b6bb7e5-a528-4387-a970-0be422a7afcc", "name": "Bluejacket", "brewery_type": "brewpub", "address_1": "300 Tingey St SE", "address_2": null, "address_3": null, "city": "Washington", "state_province": "District of Columbia", "postal_code": "20003-4625", "country": "United States", "longitude": "-77.0006981", "latitude": "38.8750965", "phone": null, "website_url": "http://www.bluejacketdc.com", "state": "District of Columbia", "street": "300 Tingey St SE"}, {"id": "4ff360b9-b45b-45d2-8646-c2b91975890f", "name": "Blueprint Brewing Co.", "brewery_type": "micro", "address_1": "1571 Gehman Rd", "address_2": null, "address_3": null, "city": "Harleysville", "state_province": "Pennsylvania", "postal_code": "19438-2930", "country": "United States", "longitude": null, "latitude": null, "phone": "4843197901", "website_url": "http://www.blueprintbrewco.com", "state": "Pennsylvania", "street": "1571 Gehman Rd"}, {"id": "b4f332ec-a7a0-4acb-8d19-9c4073a4b84e", "name": "Blues City Brewing Co", "brewery_type": "regional", "address_1": "5151 E Raines Rd", "address_2": null, "address_3": null, "city": "Memphis", "state_province": "Tennessee", "postal_code": "38118-7026", "country": "United States", "longitude": "-89.8874019", "latitude": "35.0350188", "phone": "6087854200", "website_url": "http://www.citybrewing.com", "state": "Tennessee", "street": "5151 E Raines Rd"}, {"id": "6e5e63f5-4465-4ea8-9dbf-b55213db2775", "name": "Bluestone Brewing Company", "brewery_type": "brewpub", "address_1": "18 Pitney St", "address_2": null, "address_3": null, "city": "Sayre", "state_province": "Pennsylvania", "postal_code": "18840-2720", "country": "United States", "longitude": "-76.54508776", "latitude": "41.99222929", "phone": "5707310222", "website_url": "http://www.bluestonebrewingcompany.com", "state": "Pennsylvania", "street": "18 Pitney St"}, {"id": "804a6227-ddd1-41d8-8771-2485a1c63bdb", "name": "BlueTarp Brewing Co", "brewery_type": "micro", "address_1": "731 E College Ave", "address_2": null, "address_3": null, "city": "Decatur", "state_province": "Georgia", "postal_code": "30030-5365", "country": "United States", "longitude": "-84.2835622", "latitude": "33.7740425", "phone": "4046696740", "website_url": "http://www.bluetarpbrew.com", "state": "Georgia", "street": "731 E College Ave"}, {"id": "6cf234fc-dbea-49e6-8f47-900554620a42", "name": "Bluewater Brewing Co", "brewery_type": "micro", "address_1": "318 S Royal Ave", "address_2": null, "address_3": null, "city": "Florence", "state_province": "Alabama", "postal_code": "35630-4810", "country": "United States", "longitude": "-87.65970529", "latitude": "34.8041295", "phone": "2562751221", "website_url": "http://www.facebook.com/pg/BluewaterBrewingCompanyInc", "state": "Alabama", "street": "318 S Royal Ave"}, {"id": "47245471-08aa-439c-acfb-67fb282e336a", "name": "Bluewood Brewing", "brewery_type": "micro", "address_1": "1821 Cherokee St", "address_2": null, "address_3": null, "city": "Saint Louis", "state_province": "Missouri", "postal_code": "63118", "country": "United States", "longitude": "-90.216631", "latitude": "38.601767", "phone": "3143764166", "website_url": "http://www.bluewoodbrewing.com", "state": "Missouri", "street": "1821 Cherokee St"}, {"id": "0c7d6d42-ad91-4e1c-8556-c1c1ac8617ae", "name": "Bnaf, LLC", "brewery_type": "planning", "address_1": null, "address_2": null, "address_3": null, "city": "Austin", "state_province": "Texas", "postal_code": "78727-7602", "country": "United States", "longitude": null, "latitude": null, "phone": null, "website_url": null, "state": "Texas", "street": null}, {"id": "7363955c-5498-4fe3-becb-5c09ae0978bc", "name": "BNS Brewing & Distilling Co.", "brewery_type": "closed", "address_1": "10960 Wheatlands Ave Ste 101", "address_2": null, "address_3": null, "city": "Santee", "state_province": "California", "postal_code": "92071-5617", "country": "United States", "longitude": "-116.9583418", "latitude": "32.84680335", "phone": "6199560952", "website_url": "http://www.bnsbrewinganddistilling.com", "state": "California", "street": "10960 Wheatlands Ave Ste 101"}, {"id": "033c99f9-ac36-4169-8721-1e90548a253a", "name": "Bo Bristle Brewing Co.", "brewery_type": "micro", "address_1": "Unit 5, Banagher Enterprise Centre", "address_2": "Church St", "address_3": "Kylebeg", "city": "Banagher", "state_province": "Offaly", "postal_code": "R42 KX30", "country": "Ireland", "longitude": "-7.9921729", "latitude": "53.1866197", "phone": "353861250283", "website_url": null, "state": "Offaly", "street": "Unit 5, Banagher Enterprise Centre"}, {"id": "b58ed0a2-769a-4923-b0f6-360bff09ab8c", "name": "Boak Brewing Co", "brewery_type": "contract", "address_1": "262 Wanaque Ave Rear", "address_2": null, "address_3": null, "city": "Pompton Lakes", "state_province": "New Jersey", "postal_code": "07442-2116", "country": "United States", "longitude": null, "latitude": null, "phone": "9735706381", "website_url": "http://www.boaks.com", "state": "New Jersey", "street": "262 Wanaque Ave Rear"}, {"id": "1e876ec1-817a-4153-a143-459dc0627309", "name": "Boat Town Brewing", "brewery_type": "micro", "address_1": "18146 Campground Rd", "address_2": null, "address_3": null, "city": "Phillipsburg", "state_province": "Missouri", "postal_code": "65722-8122", "country": "United States", "longitude": "-92.712765", "latitude": "37.59991", "phone": "4175332306", "website_url": "http://www.boattownbrewing.com", "state": "Missouri", "street": "18146 Campground Rd"}, {"id": "863ccdbc-4d91-4499-9e10-c6c175e54d6d", "name": "Boathouse Brewery LLC", "brewery_type": "brewpub", "address_1": "47 E Sheridan St", "address_2": null, "address_3": null, "city": "Ely", "state_province": "Minnesota", "postal_code": "55731-1289", "country": "United States", "longitude": "-91.8656329", "latitude": "47.9034136", "phone": "2183654301", "website_url": "http://www.frontiernet.net", "state": "Minnesota", "street": "47 E Sheridan St"}, {"id": "3b84f884-47c8-4dbb-84f7-1cb785d2c2a1", "name": "Boathouse Brothers Brewing Co", "brewery_type": "micro", "address_1": "16211 Main Avenue SE", "address_2": null, "address_3": null, "city": "Prior Lake", "state_province": "Minnesota", "postal_code": "55372-2332", "country": "United States", "longitude": "-93.42397083", "latitude": "44.71449616", "phone": "9522506143", "website_url": null, "state": "Minnesota", "street": "16211 Main Avenue SE"}, {"id": "cb05f966-8048-44d9-87a7-a52ea80fdd7b", "name": "Boatyard Brewing Co", "brewery_type": "micro", "address_1": "432 E Paterson St", "address_2": null, "address_3": null, "city": "Kalamazoo", "state_province": "Michigan", "postal_code": "49007-2599", "country": "United States", "longitude": "-85.578439", "latitude": "42.303203", "phone": "2692260300", "website_url": "http://www.boatyardbrewing.com", "state": "Michigan", "street": "432 E Paterson St"}, {"id": "941a14d9-f881-4f74-992c-75ab08d5837e", "name": "Bob Loblaw Brewing", "brewery_type": "planning", "address_1": null, "address_2": null, "address_3": null, "city": "Miami", "state_province": "Florida", "postal_code": "33179", "country": "United States", "longitude": null, "latitude": null, "phone": "3052495628", "website_url": "http://www.bobloblawbrewing.com", "state": "Florida", "street": null}, {"id": "add8f33d-d999-4acd-a8cc-11cac7434700", "name": "Bobcat Brewery & Cafe", "brewery_type": "brewpub", "address_1": "5 Main St", "address_2": null, "address_3": null, "city": "Bristol", "state_province": "Vermont", "postal_code": "05443-1317", "country": "United States", "longitude": "-73.07811204", "latitude": "44.13284975", "phone": "8024533311", "website_url": "http://www.bobcatcafe.com", "state": "Vermont", "street": "5 Main St"}, {"id": "676ccc41-f722-484a-b4b8-c9b8713d6249", "name": "Bobtown Brewhouse & Grill", "brewery_type": "brewpub", "address_1": "220 W Main St", "address_2": null, "address_3": null, "city": "Roberts", "state_province": "Wisconsin", "postal_code": "54023", "country": "United States", "longitude": "-92.55599", "latitude": "44.983639", "phone": "7153381046", "website_url": "http://www.bobtownbrewhouse.com", "state": "Wisconsin", "street": "220 W Main St"}, {"id": "218c5541-892d-4bd8-9745-ebd90304f80b", "name": "Boerne Brewery", "brewery_type": "micro", "address_1": "9 Hill View Ln", "address_2": null, "address_3": null, "city": "Boerne", "state_province": "Texas", "postal_code": "78006-7003", "country": "United States", "longitude": null, "latitude": null, "phone": "8306889693", "website_url": "http://www.boernebrewery.com", "state": "Texas", "street": "9 Hill View Ln"}, {"id": "3e64794e-5a83-41d5-b017-19fdc058cf3e", "name": "Boese Brothers Brewing", "brewery_type": "micro", "address_1": "601 Gold Ave SW", "address_2": null, "address_3": null, "city": "Albuquerque", "state_province": "New Mexico", "postal_code": "87102-3119", "country": "United States", "longitude": "-106.654295", "latitude": "35.083957", "phone": "5053827060", "website_url": "http://www.boesebrothers.com", "state": "New Mexico", "street": "601 Gold Ave SW"}, {"id": "b3e33c9a-90f4-4ea3-9177-3b05e2ce0062", "name": "Bog Brewing Company", "brewery_type": "micro", "address_1": "218 W King St", "address_2": null, "address_3": null, "city": "Saint Augustine", "state_province": "Florida", "postal_code": "32084-4144", "country": "United States", "longitude": "-81.3267969", "latitude": "29.8908994", "phone": "9046793146", "website_url": "http://www.bogbrewery.com", "state": "Florida", "street": "218 W King St"}, {"id": "8428c5dd-c356-482d-a9de-8af6b633447c", "name": "Bog Iron Brewing Co", "brewery_type": "micro", "address_1": "33 W Main St", "address_2": null, "address_3": null, "city": "Norton", "state_province": "Massachusetts", "postal_code": "02766-2711", "country": "United States", "longitude": "-71.18849942", "latitude": "41.96658468", "phone": "5089520555", "website_url": null, "state": "Massachusetts", "street": "33 W Main St"}, {"id": "1a423bc0-601e-49de-989b-f2847047207e", "name": "Bog Turtle Brewery, LLC", "brewery_type": "micro", "address_1": "14 S 3rd St Ste 1", "address_2": null, "address_3": null, "city": "Oxford", "state_province": "Pennsylvania", "postal_code": "19363-1601", "country": "United States", "longitude": null, "latitude": null, "phone": "4847580416", "website_url": "http://www.bogturtlebrewery.com", "state": "Pennsylvania", "street": "14 S 3rd St Ste 1"}, {"id": "a36d09de-a9a0-4d01-8b2f-7db2c4ab48e3", "name": "Boggy Draw Brewery", "brewery_type": "micro", "address_1": "3535 S Platte River Dr Ste L", "address_2": null, "address_3": null, "city": "Sheridan", "state_province": "Colorado", "postal_code": "80110-3307", "country": "United States", "longitude": null, "latitude": null, "phone": "7209400338", "website_url": "http://www.boggydrawbrewing.com", "state": "Colorado", "street": "3535 S Platte River Dr Ste L"}, {"id": "14c0503a-20dd-4b54-bb96-61c4f5abf7c5", "name": "Boghopper Brewery", "brewery_type": "micro", "address_1": "Kilderry Business Park", "address_2": "6 Kilderry Ln", "address_3": "Ardmore", "city": "Muff", "state_province": "Donegal", "postal_code": "F93 WN63", "country": "Ireland", "longitude": "-7.262928486", "latitude": "55.06640125", "phone": "353873256993", "website_url": null, "state": "Donegal", "street": "Kilderry Business Park"}, {"id": "dddce31e-3831-4366-ac7f-da653e730d2c", "name": "Bohemian Brewery and Grill", "brewery_type": "micro", "address_1": "94 7200 S", "address_2": null, "address_3": null, "city": "Midvale", "state_province": "Utah", "postal_code": "84047-1532", "country": "United States", "longitude": "-111.894011", "latitude": "40.6206923", "phone": "8015665474", "website_url": "http://www.bohemianbrewery.com", "state": "Utah", "street": "94 7200 S"}, {"id": "d6aff1d6-953e-4bc7-90b6-ce8ab896bb6e", "name": "Boiler Brewing Company", "brewery_type": "micro", "address_1": "129 N 10th St Ste 8", "address_2": null, "address_3": null, "city": "Lincoln", "state_province": "Nebraska", "postal_code": "68508-3633", "country": "United States", "longitude": "-96.707404", "latitude": "40.814185", "phone": "4022618775", "website_url": "http://www.boilerbrewingcompany.com", "state": "Nebraska", "street": "129 N 10th St Ste 8"}, {"id": "b25a0380-2356-4529-b04e-d844eb73858f", "name": "Hullabaloo Diner", "brewery_type": "brewpub", "address_1": "15045 FM 2154 Rd", "address_2": null, "address_3": null, "city": "College Station", "state_province": "Texas", "postal_code": "77845-3345", "country": "United States", "longitude": null, "latitude": null, "phone": "9796903002", "website_url": null, "state": "Texas", "street": "15045 FM 2154 Rd"}, {"id": "0237e528-96d2-41ef-8549-54611b40eaef", "name": "Boise Brewing", "brewery_type": "micro", "address_1": "521 W Broad St", "address_2": null, "address_3": null, "city": "Boise", "state_province": "Idaho", "postal_code": "83702-7642", "country": "United States", "longitude": "-116.203056", "latitude": "43.611778", "phone": "2083427655", "website_url": "http://www.boisebrewing.com", "state": "Idaho", "street": "521 W Broad St"}, {"id": "6ac83b12-2e87-47ac-a439-11af6b9038a2", "name": "Bold City Brewery", "brewery_type": "micro", "address_1": "2670 Rosselle St Ste 7", "address_2": null, "address_3": null, "city": "Jacksonville", "state_province": "Florida", "postal_code": "32204-3004", "country": "United States", "longitude": null, "latitude": null, "phone": "9043796551", "website_url": "http://www.boldcitybrewery.com", "state": "Florida", "street": "2670 Rosselle St Ste 7"}, {"id": "823d7543-75ef-4ce6-b3f3-6108eea702f8", "name": "Bold City Brewery", "brewery_type": "micro", "address_1": "109 E Bay St", "address_2": null, "address_3": null, "city": "Jacksonville", "state_province": "Florida", "postal_code": "32202-3414", "country": "United States", "longitude": "-81.656519", "latitude": "30.326002", "phone": "9045037682", "website_url": "http://www.boldcitybrewery.com", "state": "Florida", "street": "109 E Bay St"}, {"id": "bcaa1166-a27a-447f-b057-3bf43d21ed68", "name": "Bold Missy Brewery", "brewery_type": "brewpub", "address_1": "610 Anderson St", "address_2": null, "address_3": null, "city": "Charlotte", "state_province": "North Carolina", "postal_code": "28205-1208", "country": "United States", "longitude": "-80.796429", "latitude": "35.24960852", "phone": "9802994184", "website_url": "http://www.boldmissybrewery.com", "state": "North Carolina", "street": "610 Anderson St"}, {"id": "b47c0e0d-23bf-4306-96eb-20f69302a63e", "name": "Bolero Snort Brewery", "brewery_type": "contract", "address_1": "65 Railroad Ave", "address_2": null, "address_3": null, "city": "Ridgefield Park", "state_province": "New Jersey", "postal_code": "07660-1321", "country": "United States", "longitude": "-74.02983351", "latitude": "40.86058569", "phone": "2018193527", "website_url": "http://www.bolerosnort.com", "state": "New Jersey", "street": "65 Railroad Ave"}, {"id": "1f2d069d-af7a-4b5f-813a-338360822902", "name": "Bolo Beer Co", "brewery_type": "micro", "address_1": "420 E 1st St", "address_2": null, "address_3": null, "city": "Valentine", "state_province": "Nebraska", "postal_code": "69201-1904", "country": "United States", "longitude": "-100.5457277", "latitude": "42.87204733", "phone": null, "website_url": "http://www.bolobeer.com", "state": "Nebraska", "street": "420 E 1st St"}, {"id": "8c4150d3-3edc-4b8d-bf03-0b89de7f4cf2", "name": "Bolt Brewery", "brewery_type": "brewpub", "address_1": "8179 Center St", "address_2": null, "address_3": null, "city": "La Mesa", "state_province": "California", "postal_code": "91942-2907", "country": "United States", "longitude": "-117.02043", "latitude": "32.771889", "phone": "6193037837", "website_url": "http://www.boltbrewery.com", "state": "California", "street": "8179 Center St"}, {"id": "f5da109c-ab26-413e-9c86-51a3c6086e29", "name": "Bolton Beer Works", "brewery_type": "brewpub", "address_1": "100 Wattaquadock Hill Rd", "address_2": null, "address_3": null, "city": "Bolton", "state_province": "Massachusetts", "postal_code": "01740-1238", "country": "United States", "longitude": "-71.619812", "latitude": "42.430173", "phone": "9787795521", "website_url": "http://boltonbeerworks.com", "state": "Massachusetts", "street": "100 Wattaquadock Hill Rd"}, {"id": "beb4abeb-3386-4ee8-9838-82ea78de6ecf", "name": "Bolton Landing Brewing Co.", "brewery_type": "micro", "address_1": "4933 Lake Shore Dr", "address_2": null, "address_3": null, "city": "Bolton Landing", "state_province": "New York", "postal_code": "12814-7757", "country": "United States", "longitude": "-73.655636", "latitude": "43.555707", "phone": "5186442739", "website_url": "http://www.boltonlandingbrewing.com", "state": "New York", "street": "4933 Lake Shore Dr"}, {"id": "5ae387ac-2a8a-4710-81e8-5df49d0c01c5", "name": "Bomb Plant Brewing Company", "brewery_type": "planning", "address_1": null, "address_2": null, "address_3": null, "city": "North Augusta", "state_province": "South Carolina", "postal_code": "29860-7462", "country": "United States", "longitude": null, "latitude": null, "phone": "7068042722", "website_url": "http://www.bombplantbrewing.com", "state": "South Carolina", "street": null}, {"id": "c4476467-ca84-4c96-807f-9c91efefdd17", "name": "Bombastic Brewing", "brewery_type": "contract", "address_1": "11100 N Airport Rd", "address_2": null, "address_3": null, "city": "Hayden", "state_province": "Idaho", "postal_code": "83835", "country": "United States", "longitude": "-116.8105485", "latitude": "47.772517", "phone": null, "website_url": "http://www.bombasticbrewing.com", "state": "Idaho", "street": "11100 N Airport Rd"}, {"id": "ff3b3c00-18a2-4d67-ac98-ac289ef21ca1", "name": "Bombing Range Brewing Company", "brewery_type": "brewpub", "address_1": "2000 Logston Blvd Ste 126", "address_2": null, "address_3": null, "city": "Richland", "state_province": "Washington", "postal_code": "99354-5330", "country": "United States", "longitude": "-119.2999357", "latitude": "46.3204119", "phone": "5093923377", "website_url": "http://www.bombingrangebrewing.com", "state": "Washington", "street": "2000 Logston Blvd Ste 126"}, {"id": "b2c6e5d4-0637-44be-977b-ffb98569da4d", "name": "Bombs Away Beer Company", "brewery_type": "brewpub", "address_1": "9801 Acoma Rd SE", "address_2": null, "address_3": null, "city": "Albuquerque", "state_province": "New Mexico", "postal_code": "87123-3301", "country": "United States", "longitude": "-106.53905", "latitude": "35.070904", "phone": "5055543204", "website_url": "http://www.bombsawaybeer.com", "state": "New Mexico", "street": "9801 Acoma Rd SE"}, {"id": "43a54dba-6adf-4248-bffd-50e0cf422b93", "name": "Bombshell Beer Company", "brewery_type": "micro", "address_1": "120 Quantum Dr", "address_2": null, "address_3": null, "city": "Holly Springs", "state_province": "North Carolina", "postal_code": "27540-8861", "country": "United States", "longitude": "-78.83588932", "latitude": "35.65841825", "phone": "9198231933", "website_url": "http://www.bombshellbeer.com", "state": "North Carolina", "street": "120 Quantum Dr"}, {"id": "871b70be-e09e-4936-8b29-f92c0d2e2667", "name": "Bonaventure Brewing Co", "brewery_type": "brewpub", "address_1": "404 S Figueroa St Ste 418A", "address_2": null, "address_3": null, "city": "Los Angeles", "state_province": "California", "postal_code": "90071-1797", "country": "United States", "longitude": "-118.2562113", "latitude": "34.05314634", "phone": "2132360802", "website_url": "http://www.bonaventurebrewing.com", "state": "California", "street": "404 S Figueroa St Ste 418A"}, {"id": "1186065b-e2c7-4d71-8bc2-30bcdd0e6150", "name": "Bond Brothers Beer Company", "brewery_type": "micro", "address_1": "202 E Cedar St", "address_2": null, "address_3": null, "city": "Cary", "state_province": "North Carolina", "postal_code": "27511-3440", "country": "United States", "longitude": "-78.77797444", "latitude": "35.78798475", "phone": "9194592670", "website_url": "http://www.bondbrothersbeer.com", "state": "North Carolina", "street": "202 E Cedar St"}, {"id": "a2105e97-2f68-4d9d-a1eb-e2914936f086", "name": "Bone Hook Brewing Company", "brewery_type": "micro", "address_1": "1514 Immokalee Rd Unit 106", "address_2": null, "address_3": null, "city": "Naples", "state_province": "Florida", "postal_code": "34110-1454", "country": "United States", "longitude": null, "latitude": null, "phone": "2396318522", "website_url": "http://www.bonehookbrewing.com", "state": "Florida", "street": "1514 Immokalee Rd Unit 106"}, {"id": "6c808c0d-3021-4545-ace7-652f67dd1d44", "name": "Bone Island Brewing", "brewery_type": "micro", "address_1": "1111 Eaton St", "address_2": null, "address_3": null, "city": "Key West", "state_province": "Florida", "postal_code": "33040-6926", "country": "United States", "longitude": "-81.79651464", "latitude": "24.56141707", "phone": "3053043472", "website_url": "http://www.boneislandbrewing.com", "state": "Florida", "street": "1111 Eaton St"}, {"id": "1c8aad05-295e-4362-b173-c4c48c287077", "name": "Bone Up Brewing Co.", "brewery_type": "micro", "address_1": "38 Norman St", "address_2": null, "address_3": null, "city": "Everett", "state_province": "Massachusetts", "postal_code": "02149-1932", "country": "United States", "longitude": "-71.0663396", "latitude": "42.405551", "phone": "7816919092", "website_url": "http://www.boneup.beer", "state": "Massachusetts", "street": "38 Norman St"}, {"id": "11c67cfd-3f90-4c50-896f-e4d9842f7b31", "name": "Bonesaw Brewing Co.", "brewery_type": "micro", "address_1": "570 Mullica Hill Road", "address_2": null, "address_3": null, "city": "Glassboro", "state_province": "New Jersey", "postal_code": "08028", "country": "United States", "longitude": "-75.1354598", "latitude": "39.7129747", "phone": "8562435464", "website_url": "http://www.bonesawbrewing.com", "state": "New Jersey", "street": "570 Mullica Hill Road"}, {"id": "f91384a3-fabc-4df3-a467-9e14d64efb84", "name": "Boneshire Brew Works", "brewery_type": "micro", "address_1": "7462 Derry St", "address_2": null, "address_3": null, "city": "Harrisburg", "state_province": "Pennsylvania", "postal_code": "17111-5228", "country": "United States", "longitude": "-76.8712077", "latitude": "40.2633825", "phone": "7174127814", "website_url": "http://www.boneshire.com", "state": "Pennsylvania", "street": "7462 Derry St"}, {"id": "a3bfaa8d-ad1e-4c84-ae0d-ed3918f5bd03", "name": "Boneyard Beer Co", "brewery_type": "micro", "address_1": "37 NW Lake Pl Ste B", "address_2": null, "address_3": null, "city": "Bend", "state_province": "Oregon", "postal_code": "97703-2971", "country": "United States", "longitude": "-121.3080908", "latitude": "44.05412648", "phone": "5413232325", "website_url": null, "state": "Oregon", "street": "37 NW Lake Pl Ste B"}, {"id": "c79f5c93-c9e1-4d12-a6a8-c3ac7510664a", "name": "Boneyard Beer Co", "brewery_type": "brewpub", "address_1": "1955 NE Division St", "address_2": null, "address_3": null, "city": "Bend", "state_province": "Oregon", "postal_code": "97701", "country": "United States", "longitude": "-121.3065353", "latitude": "44.07094734", "phone": "5413232325", "website_url": "http://www.boneyardbeer.com", "state": "Oregon", "street": "1955 NE Division St"}, {"id": "f3cd9907-119e-4d36-82f3-64cceb23c7e0", "name": "Bonfire Brewing", "brewery_type": "micro", "address_1": "127 W 2nd St", "address_2": null, "address_3": null, "city": "Eagle", "state_province": "Colorado", "postal_code": "81631", "country": "United States", "longitude": "-106.82826", "latitude": "39.65531966", "phone": "9703067113", "website_url": "http://www.bonfirebrewing.com", "state": "Colorado", "street": "127 W 2nd St"}, {"id": "2d8a902e-c960-46cc-9222-9dfb2cdfeb46", "name": "Bonfire Brewing Production", "brewery_type": "micro", "address_1": "936 Chambers Ct. B-4", "address_2": null, "address_3": null, "city": "Eagle", "state_province": "Colorado", "postal_code": "81631-5276", "country": "United States", "longitude": null, "latitude": null, "phone": "9703067113", "website_url": null, "state": "Colorado", "street": "936 Chambers Ct. B-4"}, {"id": "402b5bb1-9aa8-4e55-9215-824957bf45f5", "name": "Bonn Place Brewing", "brewery_type": "micro", "address_1": "310 Taylor St", "address_2": null, "address_3": null, "city": "Bethlehem", "state_province": "Pennsylvania", "postal_code": "18015", "country": "United States", "longitude": "-75.3745048", "latitude": "40.6116536", "phone": "6104196660", "website_url": "http://www.bonnbrewing.com", "state": "Pennsylvania", "street": "310 Taylor St"}, {"id": "66ab4fe9-46a6-480c-ba0e-d9044e233017", "name": "Bonneville Brewery", "brewery_type": "micro", "address_1": "1641 N Main St", "address_2": null, "address_3": null, "city": "Tooele", "state_province": "Utah", "postal_code": "84074-8023", "country": "United States", "longitude": "-112.2978178", "latitude": "40.55980233", "phone": "4352480652", "website_url": null, "state": "Utah", "street": "1641 N Main St"}, {"id": "800af4b4-2ba1-4fb1-9712-66d5d514912b", "name": "Bonsai Brewing Project", "brewery_type": "brewpub", "address_1": "549 Wisconsin Ave", "address_2": null, "address_3": null, "city": "Whitefish", "state_province": "Montana", "postal_code": "59937-2127", "country": "United States", "longitude": "-114.3406189", "latitude": "48.4214453", "phone": "4067301717", "website_url": "http://bonsaibrew.com", "state": "Montana", "street": "549 Wisconsin Ave"}, {"id": "1e9d4558-c7eb-44a6-b943-1f7c2f39f9c5", "name": "Boojum Brewing Company", "brewery_type": "micro", "address_1": "357 Dayton Dr", "address_2": null, "address_3": null, "city": "Waynesville", "state_province": "North Carolina", "postal_code": "28786-6931", "country": "United States", "longitude": "-82.99383657", "latitude": "35.52574804", "phone": "8289440888", "website_url": "http://www.BoojumBrewing.com", "state": "North Carolina", "street": "357 Dayton Dr"}, {"id": "2efab57a-8614-428d-a5e2-a6a528dd6cac", "name": "Bookhouse Brewing, LLC.", "brewery_type": "planning", "address_1": null, "address_2": null, "address_3": null, "city": "Cleveland", "state_province": "Ohio", "postal_code": "44113-3104", "country": "United States", "longitude": null, "latitude": null, "phone": "4144264555", "website_url": "http://www.bookhouse.beer", "state": "Ohio", "street": null}, {"id": "dda9e364-55af-4b00-acd9-5d59cb82313b", "name": "Books & Brews", "brewery_type": "brewpub", "address_1": "9402 Uptown Dr Ste 1400", "address_2": null, "address_3": null, "city": "Indianapolis", "state_province": "Indiana", "postal_code": "46256-1076", "country": "United States", "longitude": null, "latitude": null, "phone": "3172885136", "website_url": "http://www.booksnbrews.com", "state": "Indiana", "street": "9402 Uptown Dr Ste 1400"}, {"id": "32f78839-6d32-4162-bb75-8e4f714077bf", "name": "Boom City Brewing", "brewery_type": "brewpub", "address_1": "317 Pine St", "address_2": null, "address_3": null, "city": "Williamsport", "state_province": "Pennsylvania", "postal_code": "17701-6509", "country": "United States", "longitude": "-77.00331232", "latitude": "41.24108564", "phone": "2722022956", "website_url": "http://www.boomcitybrewing.com", "state": "Pennsylvania", "street": "317 Pine St"}, {"id": "abcf36fa-7b69-4a58-b471-f4511a80512c", "name": "Boom Island Brewing Company", "brewery_type": "micro", "address_1": "2014 Washington Ave North #300", "address_2": null, "address_3": null, "city": "Minneapolis", "state_province": "Minnesota", "postal_code": "55411-2220", "country": "United States", "longitude": "-93.2739955", "latitude": "44.9855585", "phone": "6122279635", "website_url": "http://www.boomislandbrewing.com", "state": "Minnesota", "street": "2014 Washington Ave North #300"}, {"id": "aa877eb8-397a-4230-a379-c9424d9ca96d", "name": "Boomtown Brewery", "brewery_type": "micro", "address_1": "700 Jackson St", "address_2": null, "address_3": null, "city": "Los Angeles", "state_province": "California", "postal_code": "90012-3443", "country": "United States", "longitude": "-118.233179", "latitude": "34.0507711", "phone": "2136178497", "website_url": "http://www.boomtownbrew.com", "state": "California", "street": "700 Jackson St"}, {"id": "edfa72b9-a54d-44db-94fd-6714470fef11", "name": "BoomTown Brewery and Woodfire Grill", "brewery_type": "brewpub", "address_1": "531 E Howard St", "address_2": null, "address_3": null, "city": "Hibbing", "state_province": "Minnesota", "postal_code": "55746-1713", "country": "United States", "longitude": "-92.9355964", "latitude": "47.4276931", "phone": "2184401710", "website_url": "http://www.boomtownwoodfire.com", "state": "Minnesota", "street": "531 E Howard St"}, {"id": "01f95ff4-9f8a-4626-8b01-75efb27f8673", "name": "Boondocks Brewing", "brewery_type": "brewpub", "address_1": "302 S Jefferson Ave", "address_2": null, "address_3": null, "city": "West Jefferson", "state_province": "North Carolina", "postal_code": "28694-", "country": "United States", "longitude": "-81.49133567", "latitude": "36.39941459", "phone": "3362465222", "website_url": "http://www.boondocksbrew.com", "state": "North Carolina", "street": "302 S Jefferson Ave"}, {"id": "f09bda30-0156-41cf-ba7d-1625ff37dad0", "name": "Boondoggle Brewing", "brewery_type": "contract", "address_1": "553 Maple St", "address_2": null, "address_3": null, "city": "Wethersfield", "state_province": "Connecticut", "postal_code": "06109-3732", "country": "United States", "longitude": "-72.66458677", "latitude": "41.6838887", "phone": "8603367366", "website_url": "http://www.boondogglebeers.com", "state": "Connecticut", "street": "553 Maple St"}, {"id": "90bd1462-fbc7-4ced-a354-cd24f3996576", "name": "Boone Valley Brewing Co", "brewery_type": "micro", "address_1": "816 7th St", "address_2": null, "address_3": null, "city": "Boone", "state_province": "Iowa", "postal_code": "50036-2818", "country": "United States", "longitude": "-93.88096265", "latitude": "42.062643", "phone": "5154321232", "website_url": "http://www.boonevalleybrewing.com", "state": "Iowa", "street": "816 7th St"}, {"id": "bcdb6b87-37af-4168-ae08-976e89498a10", "name": "Booneshine Brewing Company", "brewery_type": "micro", "address_1": "465 Industrial Park Dr.", "address_2": null, "address_3": null, "city": "Boone", "state_province": "North Carolina", "postal_code": "28607", "country": "United States", "longitude": "-81.645208", "latitude": "36.222104", "phone": "8282634305", "website_url": "http://www.booneshine.beer", "state": "North Carolina", "street": "465 Industrial Park Dr."}, {"id": "7dd5dd2e-62e8-427f-81a3-8ecfa17d63d6", "name": "Boot N Flute Brewery / Guild Wurst Tavern", "brewery_type": "brewpub", "address_1": "53 2nd St", "address_2": null, "address_3": null, "city": "Coralville", "state_province": "Iowa", "postal_code": "52241", "country": "United States", "longitude": "-91.56271744", "latitude": "41.66788468", "phone": "3193331740", "website_url": "http://www.guildwursttavern.com", "state": "Iowa", "street": "53 2nd St"}, {"id": "59b00fce-d9cf-4278-982e-684554d23b87", "name": "Boothbay Craft Brewery, Inc", "brewery_type": "micro", "address_1": "301 Adams Pond Rd", "address_2": null, "address_3": null, "city": "Boothbay", "state_province": "Maine", "postal_code": "04537-4334", "country": "United States", "longitude": null, "latitude": null, "phone": "2076333411", "website_url": "http://www.boothbaycraftbrewery.com", "state": "Maine", "street": "301 Adams Pond Rd"}, {"id": "31a00e99-284f-419b-a1e9-93cc47cec627", "name": "Bootleg Brewers - Sandhills Brewing Company", "brewery_type": "brewpub", "address_1": "45145 829th Rd", "address_2": null, "address_3": null, "city": "Taylor", "state_province": "Nebraska", "postal_code": "68879-8120", "country": "United States", "longitude": "-99.4254083", "latitude": "41.8662836", "phone": "3089423440", "website_url": "http://www.bootlegbrewers.com", "state": "Nebraska", "street": "45145 829th Rd"}, {"id": "3ced5c24-34e0-4346-9167-572a6d2ba16c", "name": "Bootleggers Brewery", "brewery_type": "micro", "address_1": "130 S Highland Ave", "address_2": null, "address_3": null, "city": "Fullerton", "state_province": "California", "postal_code": "92832-1803", "country": "United States", "longitude": "-117.928591", "latitude": "33.87004", "phone": "7148712337", "website_url": null, "state": "California", "street": "130 S Highland Ave"}, {"id": "d9e00679-9ced-416c-9042-c1414a47dba4", "name": "Bootleggers Brewery", "brewery_type": "micro", "address_1": "1100 E Truslow Ave", "address_2": null, "address_3": null, "city": "Fullerton", "state_province": "California", "postal_code": "92831-4626", "country": "United States", "longitude": "-117.9080095", "latitude": "33.86741253", "phone": "7148712337", "website_url": "http://www.bootleggersbrewery.com", "state": "California", "street": "1100 E Truslow Ave"}, {"id": "76d91768-88ce-485a-91e2-83baf9d2f10c", "name": "Boots Brewing Company, Inc.", "brewery_type": "micro", "address_1": "89 Public Sq", "address_2": null, "address_3": null, "city": "Watertown", "state_province": "New York", "postal_code": "13601-2626", "country": "United States", "longitude": "-75.90904644", "latitude": "43.97475173", "phone": "3157670794", "website_url": "http://www.bootsbrew.com", "state": "New York", "street": "89 Public Sq"}, {"id": "e2c8bc39-b3c3-475a-8552-2b323d1d4e0a", "name": "Bootstrap Brewing", "brewery_type": "micro", "address_1": "142 Pratt St", "address_2": null, "address_3": null, "city": "Longmont", "state_province": "Colorado", "postal_code": "80501", "country": "United States", "longitude": "-105.1062808", "latitude": "40.16140505", "phone": "3036524186", "website_url": null, "state": "Colorado", "street": "142 Pratt St"}, {"id": "a3412077-804c-4613-a7e6-9546b47ced90", "name": "Bootstrap Brewing Co", "brewery_type": "micro", "address_1": "6778 N 79th St", "address_2": null, "address_3": null, "city": "Niwot", "state_province": "Colorado", "postal_code": "80503-7118", "country": "United States", "longitude": "-105.1691581", "latitude": "40.09681247", "phone": "3036524186", "website_url": "http://www.bootstrapbrewing.com", "state": "Colorado", "street": "6778 N 79th St"}, {"id": "e6f749a5-aa78-46ae-9e84-c001986a9305", "name": "Booze Brothers Brewing Co.", "brewery_type": "brewpub", "address_1": "2545 Progress St", "address_2": null, "address_3": null, "city": "Vista", "state_province": "California", "postal_code": "92081-8483", "country": "United States", "longitude": "-117.218025", "latitude": "33.148212", "phone": "7602950217", "website_url": "http://www.boozebrothersbrewery.com", "state": "California", "street": "2545 Progress St"}, {"id": "23239fd9-a723-4227-878a-4e3905885acb", "name": "Border Brewery/Border Brew Supply", "brewery_type": "micro", "address_1": "224 N Broadway Ste D14", "address_2": null, "address_3": null, "city": "Salem", "state_province": "New Hampshire", "postal_code": "03079-2145", "country": "United States", "longitude": null, "latitude": null, "phone": "6032169134", "website_url": "http://www.borderbrewsupply.com", "state": "New Hampshire", "street": "224 N Broadway Ste D14"}, {"id": "05250da0-46b3-4d2a-bf60-c185f602780d", "name": "Border Brewing Company", "brewery_type": "micro", "address_1": "406 E 18th St", "address_2": null, "address_3": null, "city": "Kansas City", "state_province": "Missouri", "postal_code": "64108", "country": "United States", "longitude": "-94.5786142", "latitude": "39.0917581", "phone": "8163156807", "website_url": "http://www.borderbrewco.com", "state": "Missouri", "street": "406 E 18th St"}, {"id": "e1a5d62a-19a5-4a73-9aa6-0e7ca2799868", "name": "Border Town Pub", "brewery_type": "brewpub", "address_1": "22 N Dixie Hwy # 28", "address_2": null, "address_3": null, "city": "Momence", "state_province": "Illinois", "postal_code": "60954-1504", "country": "United States", "longitude": "-87.66261835", "latitude": "41.16238275", "phone": "8154724340", "website_url": "http://www.BorderTownPub.com", "state": "Illinois", "street": "22 N Dixie Hwy # 28"}, {"id": "b28d3c64-b98d-4c97-a1bd-ab2465b0dbdb", "name": "Border X Brewing", "brewery_type": "micro", "address_1": "2181 Logan Ave", "address_2": null, "address_3": null, "city": "San Diego", "state_province": "California", "postal_code": "92113-2203", "country": "United States", "longitude": "-117.1397541", "latitude": "32.6982174", "phone": "6195010503", "website_url": "http://www.borderxbrewing.com", "state": "California", "street": "2181 Logan Ave"}, {"id": "e61f3a16-9521-40a6-9f86-3918b7081a6f", "name": "Border X Logan", "brewery_type": "brewpub", "address_1": "2181 Logan Ave", "address_2": null, "address_3": null, "city": "San Diego", "state_province": "California", "postal_code": "92113-2203", "country": "United States", "longitude": "-117.1397541", "latitude": "32.6982174", "phone": "8584050528", "website_url": "http://www.borderxbrewing.com", "state": "California", "street": "2181 Logan Ave"}, {"id": "0f840953-1dd8-478d-a6b6-3ea6ce3a65ac", "name": "Borderlands Brewing Co", "brewery_type": "micro", "address_1": "119 E Toole Ave", "address_2": null, "address_3": null, "city": "Tucson", "state_province": "Arizona", "postal_code": "85701-1210", "country": "United States", "longitude": "-110.9676305", "latitude": "32.22334681", "phone": "5202618773", "website_url": "http://www.borderlandsbrewing.com", "state": "Arizona", "street": "119 E Toole Ave"}, {"id": "73dfe26a-7ed0-43ff-b930-cf7caa16c2a1", "name": "Boring Brewing Co., LLC", "brewery_type": "micro", "address_1": "38250 Pioneer Blvd", "address_2": null, "address_3": null, "city": "Sandy", "state_province": "Oregon", "postal_code": "97009", "country": "United States", "longitude": "-122.2702045", "latitude": "45.39722205", "phone": "5034278619", "website_url": "http://www.boringbrewing.com", "state": "Oregon", "street": "38250 Pioneer Blvd"}, {"id": "58b42b92-8294-4785-9767-5c12009610fe", "name": "Boscos Squared", "brewery_type": "brewpub", "address_1": "2120 Madison Ave", "address_2": null, "address_3": null, "city": "Memphis", "state_province": "Tennessee", "postal_code": "38104-6502", "country": "United States", "longitude": "-90.0401714", "latitude": "35.1417658", "phone": "9014322222", "website_url": "http://www.boscosbeer.com", "state": "Tennessee", "street": "2120 Madison Ave"}, {"id": "54d82d12-cdc6-4721-a519-40b53de28ffa", "name": "Bosk Brew Works", "brewery_type": "micro", "address_1": "14350 NE 193rd Pl", "address_2": null, "address_3": null, "city": "Woodinville", "state_province": "Washington", "postal_code": "98072-8402", "country": "United States", "longitude": "-122.1492358", "latitude": "47.76907913", "phone": "4254194782", "website_url": "https://boskbrewworks.com", "state": "Washington", "street": "14350 NE 193rd Pl"}, {"id": "024f587b-17f8-42b6-8554-423162e200c9", "name": "Bosque Brewing Co", "brewery_type": "micro", "address_1": "8900 San Mateo Blvd NE Ste I", "address_2": null, "address_3": null, "city": "Albuquerque", "state_province": "New Mexico", "postal_code": "87113-2459", "country": "United States", "longitude": null, "latitude": null, "phone": "5054333889", "website_url": "http://www.bosquebrewingco.com", "state": "New Mexico", "street": "8900 San Mateo Blvd NE Ste I"}, {"id": "9cfb70f4-7918-426f-9280-2c93e0b46c09", "name": "Bosque Brewing Co - Bosque North", "brewery_type": "micro", "address_1": "834 W. Highway 550", "address_2": null, "address_3": null, "city": "Bernalillo", "state_province": "New Mexico", "postal_code": "87004", "country": "United States", "longitude": null, "latitude": null, "phone": "5054333889", "website_url": null, "state": "New Mexico", "street": "834 W. Highway 550"}, {"id": "d4dc69ab-cf58-44b9-9456-cea49cf6dd35", "name": "Boss Dog Brewing", "brewery_type": "brewpub", "address_1": "2179 Lee Rd", "address_2": null, "address_3": null, "city": "Cleveland", "state_province": "Ohio", "postal_code": "44118-2907", "country": "United States", "longitude": "-81.56529555", "latitude": "41.50030645", "phone": "2163212337", "website_url": "http://www.bossdogbrewing.com", "state": "Ohio", "street": "2179 Lee Rd"}, {"id": "9375dc3a-6315-4ef4-a5e6-35a257deb8a3", "name": "Boston Beer Co", "brewery_type": "micro", "address_1": "1 Design Center Pl Ste 850", "address_2": null, "address_3": null, "city": "Boston", "state_province": "Massachusetts", "postal_code": "02210-2300", "country": "United States", "longitude": null, "latitude": null, "phone": "6173685000", "website_url": null, "state": "Massachusetts", "street": "1 Design Center Pl Ste 850"}, {"id": "214c08f5-53a3-458a-a011-63b41d62254d", "name": "Boston Beer Co", "brewery_type": "micro", "address_1": "30 Germania St Ste 1", "address_2": null, "address_3": null, "city": "Boston", "state_province": "Massachusetts", "postal_code": "02130-2312", "country": "United States", "longitude": null, "latitude": null, "phone": "6173685000", "website_url": "http://www.samueladams.com", "state": "Massachusetts", "street": "30 Germania St Ste 1"}, {"id": "a7928f72-0201-4c7e-bb72-a83016945a2e", "name": "Boston Beer Co - DBA Samuel Adams Brewing Co", "brewery_type": "regional", "address_1": "1625 Central Pkwy", "address_2": null, "address_3": null, "city": "Cincinnati", "state_province": "Ohio", "postal_code": "45214-2423", "country": "United States", "longitude": "-84.5207651", "latitude": "39.11257", "phone": "6173685000", "website_url": "http://www.samueladams.com", "state": "Ohio", "street": "1625 Central Pkwy"}, {"id": "b342f329-7cd5-494f-9c46-7298cdb63b0e", "name": "Bottle Logic Brewing", "brewery_type": "micro", "address_1": "1072 N Armando St", "address_2": null, "address_3": null, "city": "Anaheim", "state_province": "California", "postal_code": "92806-2605", "country": "United States", "longitude": "-117.8597226", "latitude": "33.8495705", "phone": "714660", "website_url": "http://www.bottlelogic.com", "state": "California", "street": "1072 N Armando St"}, {"id": "b98d7721-ffac-4618-8fd5-7ae3c61255b5", "name": "Bottle Rocket Brewing Co", "brewery_type": "micro", "address_1": "230 S 5th St", "address_2": null, "address_3": null, "city": "Seward", "state_province": "Nebraska", "postal_code": "68434-2520", "country": "United States", "longitude": "-97.09777551", "latitude": "40.90629564", "phone": "4023045673", "website_url": "http://www.bottlerocketbrewing.com", "state": "Nebraska", "street": "230 S 5th St"}, {"id": "e23c476c-0f42-4d31-9a59-0fe5a809c76f", "name": "Bottle Tree Beer Co", "brewery_type": "contract", "address_1": "10 N Trade St Apt A", "address_2": null, "address_3": null, "city": "Tryon", "state_province": "North Carolina", "postal_code": "28782-3476", "country": "United States", "longitude": null, "latitude": null, "phone": "8642660133", "website_url": "http://www.bottletree.net", "state": "North Carolina", "street": "10 N Trade St Apt A"}, {"id": "d6317b33-57b6-4509-b4f8-d96094716eef", "name": "BottleHouse Brewery", "brewery_type": "micro", "address_1": "13368 Madison Ave", "address_2": null, "address_3": null, "city": "Lakewood", "state_province": "Ohio", "postal_code": "44107-4840", "country": "United States", "longitude": "-81.78445705", "latitude": "41.47721765", "phone": "2162142120", "website_url": "http://www.thebottlehousebrewingcompany.com", "state": "Ohio", "street": "13368 Madison Ave"}, {"id": "22046ed7-ceb2-4ba5-a77d-5a158baa87bd", "name": "Bottom Shelf Brewery", "brewery_type": "brewpub", "address_1": "118 E Mill St", "address_2": null, "address_3": null, "city": "Bayfield", "state_province": "Colorado", "postal_code": "81122", "country": "United States", "longitude": "-107.5990683", "latitude": "37.2251348", "phone": "9708842442", "website_url": "http://www.bottomshelfbrewing.com", "state": "Colorado", "street": "118 E Mill St"}, {"id": "50c38066-568b-4e12-a4cb-536073d998c0", "name": "Bottomless Brewing, LLC", "brewery_type": "brewpub", "address_1": "3543 E Lake Rd", "address_2": null, "address_3": null, "city": "Geneva", "state_province": "New York", "postal_code": "14456-9261", "country": "United States", "longitude": null, "latitude": null, "phone": "3153254380", "website_url": "http://www.bottomlessbrewing.com", "state": "New York", "street": "3543 E Lake Rd"}, {"id": "9de1818b-9215-4043-a36b-d1dce42776ae", "name": "Boulder Beer Co", "brewery_type": "regional", "address_1": "2880 Wilderness Pl", "address_2": null, "address_3": null, "city": "Boulder", "state_province": "Colorado", "postal_code": "80301-5401", "country": "United States", "longitude": "-105.2480158", "latitude": "40.026439", "phone": null, "website_url": null, "state": "Colorado", "street": "2880 Wilderness Pl"}, {"id": "d3e1adcf-6b5c-4cbc-95e7-c980ccb79742", "name": "Boulder Beer On Walnut", "brewery_type": "brewpub", "address_1": "1123 Walnut St", "address_2": null, "address_3": null, "city": "Boulder", "state_province": "Colorado", "postal_code": "80302-5116", "country": "United States", "longitude": "-105.2804375", "latitude": "40.0168555", "phone": "3034471345", "website_url": null, "state": "Colorado", "street": "1123 Walnut St"}, {"id": "0afcc8c2-d95e-4ef3-9f55-009e01afeb4b", "name": "Boulder Dam Brewing Company", "brewery_type": "brewpub", "address_1": "453 Nevada Way", "address_2": null, "address_3": null, "city": "Boulder City", "state_province": "Nevada", "postal_code": "89005-2424", "country": "United States", "longitude": "-114.836937", "latitude": "35.97842094", "phone": null, "website_url": null, "state": "Nevada", "street": "453 Nevada Way"}]