[{"id": "3790c27b-c47f-4f4a-843a-6e056eb8a83d", "name": "Lucky Bucket Brewing Co", "brewery_type": "micro", "address_1": "11941 Centennial Rd Ste 1", "address_2": null, "address_3": null, "city": "La Vista", "state_province": "Nebraska", "postal_code": "68128-5623", "country": "United States", "longitude": "-96.099373", "latitude": "41.169693", "phone": "4027638868", "website_url": "https://www.cutspike.com", "state": "Nebraska", "street": "11941 Centennial Rd Ste 1"}, {"id": "97782b4a-4cfc-4168-8f18-48ed9c10abf5", "name": "Lucky City Brewing Co.", "brewery_type": "planning", "address_1": null, "address_2": null, "address_3": null, "city": "Reidsville", "state_province": "North Carolina", "postal_code": "27320-3810", "country": "United States", "longitude": null, "latitude": null, "phone": "3364716758", "website_url": "http://www.luckycitybrewing.com", "state": "North Carolina", "street": null}, {"id": "73d6562a-6747-47fb-bc80-57dbc43603fb", "name": "Lucky Devil Brewing", "brewery_type": "contract", "address_1": "Frank H Ogawa Pl", "address_2": null, "address_3": null, "city": "Oakland", "state_province": "California", "postal_code": "94612", "country": "United States", "longitude": "-122.2713141", "latitude": "37.80450396", "phone": "5109692865", "website_url": "http://www.luckydevilbrewery.com", "state": "California", "street": "Frank H Ogawa Pl"}, {"id": "44c13b00-8a87-4aaa-9db8-a272329ef87e", "name": "Lucky Envelope Brewing", "brewery_type": "micro", "address_1": "907 NW 50th St", "address_2": null, "address_3": null, "city": "Seattle", "state_province": "Washington", "postal_code": "98107-3635", "country": "United States", "longitude": "-122.3691135", "latitude": "47.6648583", "phone": "2062890425", "website_url": "http://www.luckyenvelopebrewing.com", "state": "Washington", "street": "907 NW 50th St"}, {"id": "14562b70-98a6-4fe4-bbac-b71fdd5c1be3", "name": "Lucky Girl Brewing Co Crossroads", "brewery_type": "brewpub", "address_1": "34016 M 43", "address_2": null, "address_3": null, "city": "Paw Paw", "state_province": "Michigan", "postal_code": "49079-8464", "country": "United States", "longitude": null, "latitude": null, "phone": "2696280054", "website_url": "http://luckygirlcrossroads.com", "state": "Michigan", "street": "34016 M 43"}, {"id": "e36dccc0-cc0f-4b80-845f-baedb1372426", "name": "Lucky Hare Brewing Company, Inc.", "brewery_type": "micro", "address_1": "6085 Beckhorn Road", "address_2": null, "address_3": null, "city": "Hector", "state_province": "New York", "postal_code": "14841", "country": "United States", "longitude": null, "latitude": null, "phone": "6075462036", "website_url": "http://www.luckyharebrewing.com", "state": "New York", "street": "6085 Beckhorn Road"}, {"id": "7ba87c15-8af2-4dbc-b64f-fd28df2cfe02", "name": "Lucky Labrador Beer Hall", "brewery_type": "brewpub", "address_1": "1945 NW Quimby St", "address_2": null, "address_3": null, "city": "Portland", "state_province": "Oregon", "postal_code": "97209-1712", "country": "United States", "longitude": "-122.6917362", "latitude": "45.53370375", "phone": "5035174352", "website_url": "http://www.luckylab.com", "state": "Oregon", "street": "1945 NW Quimby St"}, {"id": "27cea017-91b4-4d46-951e-9eaa029a9322", "name": "Lucky Labrador Brewpub", "brewery_type": "micro", "address_1": "915 SE Hawthorne Blvd", "address_2": null, "address_3": null, "city": "Portland", "state_province": "Oregon", "postal_code": "97214-3545", "country": "United States", "longitude": "-122.6564149", "latitude": "45.51247125", "phone": "5032363555", "website_url": "http://www.luckylab.com", "state": "Oregon", "street": "915 SE Hawthorne Blvd"}, {"id": "19263853-9099-41a4-80ff-0c7e9905e9ee", "name": "Lucky Luke Brewing Company", "brewery_type": "micro", "address_1": "610 W Avenue O Ste 104", "address_2": null, "address_3": null, "city": "Palmdale", "state_province": "California", "postal_code": "93551-3610", "country": "United States", "longitude": "-118.1411039", "latitude": "34.61623136", "phone": "6612705588", "website_url": "http://www.luckylukebrewing.com", "state": "California", "street": "610 W Avenue O Ste 104"}, {"id": "674e3037-058b-4066-9de4-00b22fcad906", "name": "Lucky Monk Burger, Pizza & Beer Co", "brewery_type": "brewpub", "address_1": "105 Hollywood Blvd", "address_2": null, "address_3": null, "city": "South Barrington", "state_province": "Illinois", "postal_code": "60010-7121", "country": "United States", "longitude": null, "latitude": null, "phone": "8478980500", "website_url": "http://www.theluckymonk.com", "state": "Illinois", "street": "105 Hollywood Blvd"}, {"id": "bb74ff2e-a0b7-457c-9b9e-7a7343cf91bc", "name": "Lucky Owl Brewing", "brewery_type": "micro", "address_1": "8660 Tamarack Trl", "address_2": null, "address_3": null, "city": "Chagrin Falls", "state_province": "Ohio", "postal_code": "44023-1876", "country": "United States", "longitude": null, "latitude": null, "phone": "4408363440", "website_url": "http://www.luckyowlbrewing.com", "state": "Ohio", "street": "8660 Tamarack Trl"}, {"id": "c0e603fa-36fa-48e5-80fa-1008ba0af69e", "name": "Lucky Pigeon Brewing", "brewery_type": "planning", "address_1": null, "address_2": null, "address_3": null, "city": "Gorham", "state_province": "Maine", "postal_code": "04038-2371", "country": "United States", "longitude": null, "latitude": null, "phone": null, "website_url": null, "state": "Maine", "street": null}, {"id": "5add03e6-9a49-4e98-89bd-8bf41dafb72e", "name": "Lucky Star Brewery", "brewery_type": "brewpub", "address_1": "219 S 2nd St", "address_2": null, "address_3": null, "city": "Miamisburg", "state_province": "Ohio", "postal_code": "45342-2924", "country": "United States", "longitude": "-84.28782443", "latitude": "39.63943573", "phone": "9378662739", "website_url": "http://www.luckystarbrewery.com", "state": "Ohio", "street": "219 S 2nd St"}, {"id": "a76253b7-d902-408b-af47-3cdf10a3e5c0", "name": "Lucky Town Brewing Co", "brewery_type": "micro", "address_1": "1710 N Mill St", "address_2": null, "address_3": null, "city": "Jackson", "state_province": "Mississippi", "postal_code": "39202-1536", "country": "United States", "longitude": "-90.18857808", "latitude": "32.31965604", "phone": "6017900142", "website_url": "http://www.luckytownbrewing.com", "state": "Mississippi", "street": "1710 N Mill St"}, {"id": "e1d96308-ade4-439a-b4e0-a90552b8b701", "name": "Lucky's 1313 Brewpub", "brewery_type": "brewpub", "address_1": "1313 Regent St", "address_2": null, "address_3": null, "city": "Madison", "state_province": "Wisconsin", "postal_code": "53715-1254", "country": "United States", "longitude": "-89.40765838", "latitude": "43.06766144", "phone": "6082508989", "website_url": "http://www.luckys1313.com", "state": "Wisconsin", "street": "1313 Regent St"}, {"id": "1d395c71-54a6-4af8-a0a3-21f5946f49ee", "name": "Ludington Bay Brewing Co", "brewery_type": "brewpub", "address_1": "515 S James St", "address_2": null, "address_3": null, "city": "Ludington", "state_province": "Michigan", "postal_code": "49431-2325", "country": "United States", "longitude": "-86.44763415", "latitude": "43.95070214", "phone": "2312396690", "website_url": "http://ludingtonbaybrewing.com", "state": "Michigan", "street": "515 S James St"}, {"id": "e13e9d88-359f-4e3d-b981-4753940c5455", "name": "Ludlam Island Brewery", "brewery_type": "micro", "address_1": "9 Stoney Ct Unit 3", "address_2": null, "address_3": null, "city": "Ocean View", "state_province": "New Jersey", "postal_code": "08230-1041", "country": "United States", "longitude": null, "latitude": null, "phone": "6092636969", "website_url": "http://ludlamisland.com", "state": "New Jersey", "street": "9 Stoney Ct Unit 3"}, {"id": "51652e93-207c-47c3-8c98-dd4f1c81fd39", "name": "Lumber Barons Brewery", "brewery_type": "brewpub", "address_1": "804 E Midland St", "address_2": null, "address_3": null, "city": "Bay City", "state_province": "Michigan", "postal_code": "48706-4953", "country": "United States", "longitude": null, "latitude": null, "phone": "9898910100", "website_url": "http://www.lumberbaronsbrewery.com", "state": "Michigan", "street": "804 E Midland St"}, {"id": "4e0b0d7e-31e4-42a8-abff-30757dc8e330", "name": "Lumber House Brewing Company", "brewery_type": "micro", "address_1": "30741 3rd AVE Suite 133", "address_2": null, "address_3": null, "city": "Black Diamond", "state_province": "Washington", "postal_code": "98010", "country": "United States", "longitude": "-122.010144", "latitude": "47.327123", "phone": "4254320121", "website_url": "https://lumberhousebrew.com", "state": "Washington", "street": "30741 3rd AVE Suite 133"}, {"id": "79ba2199-ced7-4dc5-a374-cbc05cd8fb39", "name": "Lumberbeard Brewing", "brewery_type": "micro", "address_1": "25 E 3rd Ave", "address_2": null, "address_3": null, "city": "Spokane", "state_province": "Washington", "postal_code": "99202", "country": "United States", "longitude": "-117.4101242", "latitude": "47.65416824", "phone": "5093815142", "website_url": "https://lumberbeardbrewing.com", "state": "Washington", "street": "25 E 3rd Ave"}, {"id": "97fb454b-8b8b-42e7-a89e-9355de3b76f2", "name": "Lumberyard Brewing Co Taproom and Grille", "brewery_type": "micro", "address_1": "5 S San Francisco St", "address_2": null, "address_3": null, "city": "Flagstaff", "state_province": "Arizona", "postal_code": "86001-5736", "country": "United States", "longitude": "-111.648578", "latitude": "35.1964377", "phone": "9287792739", "website_url": "http://www.lumberyardbrewingcompany.com", "state": "Arizona", "street": "5 S San Francisco St"}, {"id": "58d2915a-9712-4619-a54b-0dec8d6e64e3", "name": "Luminous Brewhouse", "brewery_type": "micro", "address_1": "504 Broadway St", "address_2": null, "address_3": null, "city": "Sheridan", "state_province": "Wyoming", "postal_code": "82801-3619", "country": "United States", "longitude": "-106.953486", "latitude": "44.80297173", "phone": null, "website_url": "http://www.luminousbrewhouse.com", "state": "Wyoming", "street": "504 Broadway St"}, {"id": "90d7563e-7ff5-4fb4-aab3-19275c21bd9d", "name": "Lumpy Ridge Brewing Co", "brewery_type": "micro", "address_1": "531 S St Vrain Ave", "address_2": null, "address_3": null, "city": "Estes Park", "state_province": "Colorado", "postal_code": "80517-7416", "country": "United States", "longitude": "-105.503658", "latitude": "40.367158", "phone": "9702351752", "website_url": "http://www.lumpyridgebrewing.com", "state": "Colorado", "street": "531 S St Vrain Ave"}, {"id": "71b04b23-ecaf-47fd-a76b-de4afa732ac9", "name": "Lunacy Brewing Company", "brewery_type": "micro", "address_1": "1500 Kings Hwy", "address_2": null, "address_3": null, "city": "Haddon Heights", "state_province": "New Jersey", "postal_code": "08035", "country": "United States", "longitude": null, "latitude": null, "phone": "8566170681", "website_url": "http://www.lunacybrewingcompany.com", "state": "New Jersey", "street": "1500 Kings Hwy"}, {"id": "c883e57f-28d0-4793-bfc4-ef1d02e194e4", "name": "Lunar Brewing Co", "brewery_type": "proprietor", "address_1": "54 E Saint Charles Rd", "address_2": null, "address_3": null, "city": "Villa Park", "state_province": "Illinois", "postal_code": "60181-2434", "country": "United States", "longitude": "-87.97720306", "latitude": "41.88987006", "phone": "6305302077", "website_url": "http://www.mypsace.com/LunaRbrewingco", "state": "Illinois", "street": "54 E Saint Charles Rd"}, {"id": "2c1834c4-5ec7-42c2-85e6-43dad91a0a4e", "name": "Lunkenheimer Craft Brewing Co. LLC", "brewery_type": "micro", "address_1": "PO Box 539 8920 N Seneca St,", "address_2": null, "address_3": null, "city": "Weedsport", "state_province": "New York", "postal_code": "13166-0539", "country": "United States", "longitude": null, "latitude": null, "phone": "3158347027", "website_url": "http://www.lunkenheimercraftbrewing.com", "state": "New York", "street": "PO Box 539 8920 N Seneca St,"}, {"id": "917424e7-ecc3-4a22-8174-abfe86581f66", "name": "LuPine Brewing Co", "brewery_type": "micro", "address_1": "248 River St N", "address_2": null, "address_3": null, "city": "Delano", "state_province": "Minnesota", "postal_code": "55328-8264", "country": "United States", "longitude": null, "latitude": null, "phone": "7633331033", "website_url": "http://www.lupinebrewing.com", "state": "Minnesota", "street": "248 River St N"}, {"id": "09f9fd85-fa02-451a-8efc-c4233290bbce", "name": "Lupulin Brewing", "brewery_type": "micro", "address_1": "570 Humboldt Dr Ste 107", "address_2": null, "address_3": null, "city": "Big Lake", "state_province": "Minnesota", "postal_code": "55309-4868", "country": "United States", "longitude": null, "latitude": null, "phone": "7632639549", "website_url": "http://www.lupulinbrewing.com", "state": "Minnesota", "street": "570 Humboldt Dr Ste 107"}, {"id": "c06f078b-daf8-447d-b192-336fc1971b52", "name": "Lupulin Brewing - Sioux Falls", "brewery_type": "brewpub", "address_1": "2425 S. Shirley Ave, Suite 112", "address_2": null, "address_3": null, "city": "Sioux Falls", "state_province": "South Dakota", "postal_code": "57106-4332", "country": "United States", "longitude": "-96.7772127", "latitude": "43.52471978", "phone": "6052755544", "website_url": "http://www.lupulinbrewing.com", "state": "South Dakota", "street": "2425 S. Shirley Ave, Suite 112"}, {"id": "33228a1a-cbb2-4251-8d61-adae85bf78c4", "name": "Lydian Stone Brewery", "brewery_type": "micro", "address_1": "685 York Haven Rd", "address_2": null, "address_3": null, "city": "York Haven", "state_province": "Pennsylvania", "postal_code": "17370-9006", "country": "United States", "longitude": "-76.7157289", "latitude": "40.0944263", "phone": "7173846055", "website_url": "http://www.lydianstonebrewing.com", "state": "Pennsylvania", "street": "685 York Haven Rd"}, {"id": "44349854-3a4e-41f1-be35-70dd6bbc9107", "name": "Lynchpin Beer Company / The Laundry", "brewery_type": "brewpub", "address_1": "115 W Shiawassee Ave", "address_2": null, "address_3": null, "city": "Fenton", "state_province": "Michigan", "postal_code": "48430-2005", "country": "United States", "longitude": "-83.70642814", "latitude": "42.792852", "phone": "8106298852", "website_url": "http://www.lunchandbeyond.com", "state": "Michigan", "street": "115 W Shiawassee Ave"}, {"id": "a39e5f76-1435-4f84-bb48-d9fe56df3055", "name": "LynLake Brewery", "brewery_type": "micro", "address_1": "2934 Lyndale Ave S", "address_2": null, "address_3": null, "city": "Minneapolis", "state_province": "Minnesota", "postal_code": "55408-2110", "country": "United States", "longitude": "-93.2884965", "latitude": "44.9489135", "phone": "6122249682", "website_url": "http://www.lynlakebrewery.com", "state": "Minnesota", "street": "2934 Lyndale Ave S"}, {"id": "bb0715b7-bf7b-460d-aae4-d5a2ada52773", "name": "Lynnwood Brewing Concern", "brewery_type": "brewpub", "address_1": "4821 Grove Barton Rd", "address_2": null, "address_3": null, "city": "Raleigh", "state_province": "North Carolina", "postal_code": "27613-1900", "country": "United States", "longitude": "-78.71623989", "latitude": "35.87060368", "phone": "9197850043", "website_url": "http://www.lynnwoodbrewing.beer", "state": "North Carolina", "street": "4821 Grove Barton Rd"}, {"id": "73d0933d-61ce-4b09-be56-2ca9f5bcc482", "name": "Lynnwood Brewing Concern", "brewery_type": "micro", "address_1": "1053 E Whitaker Mill Rd Ste 101", "address_2": null, "address_3": null, "city": "Raleigh", "state_province": "North Carolina", "postal_code": "27604-5305", "country": "United States", "longitude": "-78.62430807", "latitude": "35.80788061", "phone": "5207779456", "website_url": null, "state": "North Carolina", "street": "1053 E Whitaker Mill Rd Ste 101"}, {"id": "59736f54-303c-49d8-9daf-8080d3cff2ae", "name": "Lyons Den Brewing Co.", "brewery_type": "planning", "address_1": null, "address_2": null, "address_3": null, "city": "Wrentham", "state_province": "Massachusetts", "postal_code": "02093", "country": "United States", "longitude": null, "latitude": null, "phone": null, "website_url": null, "state": "Massachusetts", "street": null}, {"id": "f1e6162d-bdbc-41d8-af4a-a0c940ba9bed", "name": "Lyonsmith Brewing Company", "brewery_type": "micro", "address_1": "138 Water St", "address_2": null, "address_3": null, "city": "Penn Yan", "state_province": "New York", "postal_code": "14527-1651", "country": "United States", "longitude": "-77.05463635", "latitude": "42.65899476", "phone": "3155365603", "website_url": "http://www.lyonsmithbrewing.com", "state": "New York", "street": "138 Water St"}, {"id": "06f29dde-6f82-4e2e-923a-6ddcaa8c61b0", "name": "M.I.A. Beer Co", "brewery_type": "micro", "address_1": "10400 NW 33rd St Ste 150", "address_2": null, "address_3": null, "city": "Doral", "state_province": "Florida", "postal_code": "33172-5902", "country": "United States", "longitude": null, "latitude": null, "phone": "3055675550", "website_url": "http://www.mia.beer", "state": "Florida", "street": "10400 NW 33rd St Ste 150"}, {"id": "d8f0b1a8-9976-49b8-8e3d-d38b17496c9c", "name": "M.Special Brewing Company", "brewery_type": "micro", "address_1": "6860 Cortona Dr Ste C", "address_2": null, "address_3": null, "city": "Goleta", "state_province": "California", "postal_code": "93117-5507", "country": "United States", "longitude": "-119.8684287", "latitude": "34.43298751", "phone": null, "website_url": "http://www.mspecialbrewco.com", "state": "California", "street": "6860 Cortona Dr Ste C"}, {"id": "68cb3ab3-3136-419e-aff6-06d965cfb280", "name": "M.Special Brewing Company", "brewery_type": "micro", "address_1": "634 State St", "address_2": null, "address_3": null, "city": "Santa Barbara", "state_province": "California", "postal_code": "93101", "country": "United States", "longitude": "-119.6977816", "latitude": "34.41874978", "phone": null, "website_url": "http://www.mspecialbrewco.com", "state": "California", "street": "634 State St"}, {"id": "6fea98ab-5ca3-4876-a1da-d0004045a00d", "name": "Mac and Jacks Brewery Inc", "brewery_type": "regional", "address_1": "17825 NE 65th St Ste B110", "address_2": null, "address_3": null, "city": "Redmond", "state_province": "Washington", "postal_code": "98052-4995", "country": "United States", "longitude": "-122.1026326", "latitude": "47.66431006", "phone": "4255589697", "website_url": "https://www.macandjacks.com", "state": "Washington", "street": "17825 NE 65th St Ste B110"}, {"id": "2ef707fa-134a-4660-8523-64c0ab830e55", "name": "Macatawa Ale Company", "brewery_type": "micro", "address_1": "102 S River Ave", "address_2": null, "address_3": null, "city": "Holland", "state_province": "Michigan", "postal_code": "49423-2851", "country": "United States", "longitude": "-86.10911659", "latitude": "42.79223968", "phone": "6168487677", "website_url": "http://www.macatawaalecompany.com", "state": "Michigan", "street": "102 S River Ave"}, {"id": "87f669f2-1318-4fdf-8018-3e590996759d", "name": "Machias River Brewing Company", "brewery_type": "micro", "address_1": "86 Main St", "address_2": null, "address_3": null, "city": "Machias", "state_province": "Maine", "postal_code": "04654-1150", "country": "United States", "longitude": "-67.45804551", "latitude": "44.71446257", "phone": "2072596001", "website_url": null, "state": "Maine", "street": "86 Main St"}, {"id": "8840fe69-ce15-4d46-ab1f-01f78e0f6375", "name": "Machine House Brewery", "brewery_type": "micro", "address_1": "5840 Airport Way S Ste 121", "address_2": null, "address_3": null, "city": "Seattle", "state_province": "Washington", "postal_code": "98108-2751", "country": "United States", "longitude": "-122.3171301", "latitude": "47.5502618", "phone": "2064026025", "website_url": "https://www.machinehousebrewery.com", "state": "Washington", "street": "5840 Airport Way S Ste 121"}, {"id": "7a9b2fa2-8e51-4a5c-98c0-a09d99303f39", "name": "MachineHead Brewing Co.", "brewery_type": "planning", "address_1": null, "address_2": null, "address_3": null, "city": "Clovis", "state_province": "California", "postal_code": "93612", "country": "United States", "longitude": "-119.7029194", "latitude": "36.8252277", "phone": null, "website_url": null, "state": "California", "street": null}, {"id": "e6bfe52d-1f1e-4c1e-a57e-8f12f481a52c", "name": "Mackenzie Brewing Company", "brewery_type": "micro", "address_1": "932 Meramec Station Rd", "address_2": null, "address_3": null, "city": "Valley Park", "state_province": "Missouri", "postal_code": "63088", "country": "United States", "longitude": "-90.497364", "latitude": "38.537146", "phone": "6362264148", "website_url": "http://www.mknzbrewing.com", "state": "Missouri", "street": "932 Meramec Station Rd"}, {"id": "9ef4af01-189b-4196-a1cf-96ed6696840e", "name": "Mackinaw Brewing Co", "brewery_type": "brewpub", "address_1": "161 E Front St", "address_2": null, "address_3": null, "city": "Traverse City", "state_province": "Michigan", "postal_code": "49684-5779", "country": "United States", "longitude": "-85.62124459", "latitude": "44.76426455", "phone": "2319331100", "website_url": "http://www.mackinawbrewing.com", "state": "Michigan", "street": "161 E Front St"}, {"id": "42cbe82e-95a3-4fd4-8d2c-1c3b277fa533", "name": "Mackinaw Trail Brewing Company / Mackinaw Trail Winery and Brewery", "brewery_type": "micro", "address_1": "103 W Lakeshore Dr", "address_2": null, "address_3": null, "city": "Manistique", "state_province": "Michigan", "postal_code": "49854-1579", "country": "United States", "longitude": "-86.2503664", "latitude": "45.9535761", "phone": "9063412303", "website_url": "http://www.mackinawtrailwinery.com", "state": "Michigan", "street": "103 W Lakeshore Dr"}, {"id": "b261b101-bcad-4384-98a9-8da00ddb71f0", "name": "MacLeod Ale Brewing Company, LLC", "brewery_type": "micro", "address_1": "14741 Calvert St", "address_2": null, "address_3": null, "city": "Van Nuys", "state_province": "California", "postal_code": "91411-2706", "country": "United States", "longitude": "-118.4540488", "latitude": "34.1817376", "phone": "8186311963", "website_url": "http://www.macleodale.com", "state": "California", "street": "14741 Calvert St"}, {"id": "1b52a67f-8d6f-428e-835e-4c08ec1df483", "name": "Macon Beer Company", "brewery_type": "proprietor", "address_1": "345 Oglethorpe St", "address_2": null, "address_3": null, "city": "Macon", "state_province": "Georgia", "postal_code": "31201-3274", "country": "United States", "longitude": "-83.630297", "latitude": "32.828235", "phone": "4782167117", "website_url": "http://www.maconbeer.com", "state": "Georgia", "street": "345 Oglethorpe St"}, {"id": "864416b2-b7bd-464e-bed0-d836fad787f0", "name": "Mad Anthony Brewing Co", "brewery_type": "micro", "address_1": "2002 Broadway", "address_2": null, "address_3": null, "city": "Fort Wayne", "state_province": "Indiana", "postal_code": "46802-3710", "country": "United States", "longitude": null, "latitude": null, "phone": "2604262537", "website_url": "http://www.madbrew.com", "state": "Indiana", "street": "2002 Broadway"}, {"id": "244e7c7d-7e0b-4c20-bc3d-8707c7c42f34", "name": "Mad Beach Brewing", "brewery_type": "micro", "address_1": "12945 Village Blvd", "address_2": null, "address_3": null, "city": "Madeira Beach", "state_province": "Florida", "postal_code": "33708-2656", "country": "United States", "longitude": "-82.7835534", "latitude": "27.7865945", "phone": "7273620008", "website_url": "http://www.madbeachbrewing.com", "state": "Florida", "street": "12945 Village Blvd"}, {"id": "9b7ca1bf-2632-4cd5-ae78-e72d9ce082a5", "name": "Mad Bomber Brewing Company", "brewery_type": "micro", "address_1": "9265 N Government Way", "address_2": null, "address_3": null, "city": "Hayden", "state_province": "Idaho", "postal_code": "83835-8278", "country": "United States", "longitude": "-116.7867267", "latitude": "47.75597167", "phone": "2087627343", "website_url": "http://www.madbomberbrewing.com", "state": "Idaho", "street": "9265 N Government Way"}, {"id": "2db77c0b-76d8-45df-a47a-283d53b171b8", "name": "Mad Chef Craft Brewing", "brewery_type": "brewpub", "address_1": "2023 Miller Rd", "address_2": null, "address_3": null, "city": "East Petersburg", "state_province": "Pennsylvania", "postal_code": "17520-1624", "country": "United States", "longitude": "-76.3496026", "latitude": "40.09366985", "phone": "7172836469", "website_url": "http://www.madchefcraftbrewing.com", "state": "Pennsylvania", "street": "2023 Miller Rd"}, {"id": "15f89eab-85d7-40df-97bb-dab2bb810c07", "name": "Mad County Brewing", "brewery_type": "brewpub", "address_1": "45 N Main St", "address_2": null, "address_3": null, "city": "Marshall", "state_province": "North Carolina", "postal_code": "28753-0040", "country": "United States", "longitude": "-82.68585484", "latitude": "35.79772897", "phone": "8286498600", "website_url": "http://www.madisoncountybrewing.com", "state": "North Carolina", "street": "45 N Main St"}, {"id": "588e8cf3-e3e0-44ef-a94f-d3e9231c2237", "name": "Mad Duck Craft Brewing Company", "brewery_type": "brewpub", "address_1": "3085 E Campus Pointe Dr", "address_2": null, "address_3": null, "city": "Fresno", "state_province": "California", "postal_code": "93710-7526", "country": "United States", "longitude": "-119.7346794", "latitude": "36.81180929", "phone": "5593253825", "website_url": "http://www.madduckcraft.com", "state": "California", "street": "3085 E Campus Pointe Dr"}, {"id": "cc1968cf-0ef8-4d1e-84da-1b320125d7ee", "name": "Mad Fox Brewing Co", "brewery_type": "brewpub", "address_1": "444 W Broad St Ste I", "address_2": null, "address_3": null, "city": "Falls Church", "state_province": "Virginia", "postal_code": "22046-3362", "country": "United States", "longitude": null, "latitude": null, "phone": "7039426840", "website_url": "http://www.madfoxbrewing.com", "state": "Virginia", "street": "444 W Broad St Ste I"}, {"id": "fd4e8fed-a8a7-451f-ae27-e613538958e0", "name": "Mad Fritz", "brewery_type": "micro", "address_1": "393 Lafata St", "address_2": null, "address_3": null, "city": "Saint Helena", "state_province": "California", "postal_code": "94574-1405", "country": "United States", "longitude": "-122.4584186", "latitude": "38.49985781", "phone": "7079685058", "website_url": "http://www.madfritz.com", "state": "California", "street": "393 Lafata St"}, {"id": "c48b1465-3ed7-498e-a209-d5427033e44a", "name": "Mad Jack Brewing Co / Van Dyck Restaurant & Lounge", "brewery_type": "brewpub", "address_1": "237 Union St", "address_2": null, "address_3": null, "city": "Schenectady", "state_province": "New York", "postal_code": "12305-1405", "country": "United States", "longitude": "-73.94466273", "latitude": "42.81647276", "phone": "5183487999", "website_url": "http://www.madjackbrewing.com", "state": "New York", "street": "237 Union St"}, {"id": "fb83d0e7-4260-425b-97b6-6e86d38aee4c", "name": "Mad Jack's Mountain Brewery", "brewery_type": "micro", "address_1": "23 Main St", "address_2": null, "address_3": null, "city": "Bailey", "state_province": "Colorado", "postal_code": "80421", "country": "United States", "longitude": "-105.4774352", "latitude": "39.40651269", "phone": "3038162337", "website_url": "http://www.madjacksmountainbrewery.com", "state": "Colorado", "street": "23 Main St"}, {"id": "3caf21fd-86fc-4eb8-b5c3-8f447f47500b", "name": "Mad Knight Brewing Company", "brewery_type": "micro", "address_1": "4015 Tennessee Ave", "address_2": null, "address_3": null, "city": "Chattanooga", "state_province": "Tennessee", "postal_code": "37409-1322", "country": "United States", "longitude": "-85.32785692", "latitude": "35.00864326", "phone": "4238256504", "website_url": "http://www.madknightbrewing.com", "state": "Tennessee", "street": "4015 Tennessee Ave"}, {"id": "9d006d77-28d5-41d3-9781-748bcec556a2", "name": "Mad Malts Brewery & Tap Room", "brewery_type": "micro", "address_1": "109 Maple Ave NW", "address_2": null, "address_3": null, "city": "Huntsville", "state_province": "Alabama", "postal_code": "35801-4634", "country": "United States", "longitude": "-86.585242", "latitude": "34.746475", "phone": "2564243543", "website_url": "http://www.madmaltsbrewing.com", "state": "Alabama", "street": "109 Maple Ave NW"}, {"id": "ca45ba20-0c37-46ec-8767-c02efb7951e5", "name": "Mad Mole Brewing LLC", "brewery_type": "micro", "address_1": "6309 Boathouse Rd Ste C", "address_2": null, "address_3": null, "city": "Wilmington", "state_province": "North Carolina", "postal_code": "28403-3576", "country": "United States", "longitude": null, "latitude": null, "phone": "9108598115", "website_url": "http://www.madmolebrewing.com", "state": "North Carolina", "street": "6309 Boathouse Rd Ste C"}, {"id": "b76e67fb-fe15-41c3-8a43-531bfb7a4d20", "name": "Mad Mouse Brewery", "brewery_type": "contract", "address_1": null, "address_2": null, "address_3": null, "city": "Chicago", "state_province": "Illinois", "postal_code": "60607-5017", "country": "United States", "longitude": null, "latitude": null, "phone": null, "website_url": "http://www.moxeerestaurant.com", "state": "Illinois", "street": null}, {"id": "44656423-b14c-4378-aac9-da0f59576737", "name": "Mad Pecker Brewing", "brewery_type": "brewpub", "address_1": "6025 Tezel Rd Ste 122", "address_2": null, "address_3": null, "city": "San Antonio", "state_province": "Texas", "postal_code": "78250-4180", "country": "United States", "longitude": null, "latitude": null, "phone": "2105623059", "website_url": "http://www.madpeckerbrewing.com", "state": "Texas", "street": "6025 Tezel Rd Ste 122"}, {"id": "4c4398d4-5560-4248-ab68-eae17056697c", "name": "Mad Princes Brewing", "brewery_type": "micro", "address_1": "2537 Bogarts Tavern Rd", "address_2": null, "address_3": null, "city": "Buckingham", "state_province": "Pennsylvania", "postal_code": "18902", "country": "United States", "longitude": "-75.0613301", "latitude": "40.32438895", "phone": "2676146104", "website_url": null, "state": "Pennsylvania", "street": "2537 Bogarts Tavern Rd"}, {"id": "ce9573b0-30e9-464c-9371-0af1d9b6485a", "name": "Mad River Brewing Co", "brewery_type": "micro", "address_1": "101 Taylor Way", "address_2": null, "address_3": null, "city": "Blue Lake", "state_province": "California", "postal_code": "95525", "country": "United States", "longitude": "-123.992063", "latitude": "40.878682", "phone": "7076684151", "website_url": "http://www.madriverbrewing.com", "state": "California", "street": "101 Taylor Way"}, {"id": "b355c492-9798-4ba6-bb3d-17b3baf27b8b", "name": "Mad Science Brewing Company", "brewery_type": "micro", "address_1": "1619 Buckeystown Pike", "address_2": null, "address_3": null, "city": "Adamstown", "state_province": "Maryland", "postal_code": "21710", "country": "United States", "longitude": null, "latitude": null, "phone": "2404098723", "website_url": "http://www.madsciencebrewing.com", "state": "Maryland", "street": "1619 Buckeystown Pike"}, {"id": "6ce79fd9-1b5c-4543-94ff-cfc8d9863149", "name": "Mad Swede Brewing", "brewery_type": "micro", "address_1": "2772 S Cole Rd Ste 140", "address_2": null, "address_3": null, "city": "Boise", "state_province": "Idaho", "postal_code": "83709-8028", "country": "United States", "longitude": "-116.273944", "latitude": "43.57693444", "phone": "2089226883", "website_url": "http://www.madswedebrewing.com", "state": "Idaho", "street": "2772 S Cole Rd Ste 140"}, {"id": "7308bfec-4104-467a-8aa7-59f11fec31e3", "name": "Mad-K Brewery", "brewery_type": "micro", "address_1": "298 Mountain Top Rd", "address_2": null, "address_3": null, "city": "Howard", "state_province": "Pennsylvania", "postal_code": "16841-2627", "country": "United States", "longitude": null, "latitude": null, "phone": "5702951842", "website_url": "http://www.mad-kbrews.com", "state": "Pennsylvania", "street": "298 Mountain Top Rd"}, {"id": "f4db9b09-2c1c-4dc8-b2b6-5a4d6903477a", "name": "Madcap Brew Co.", "brewery_type": "micro", "address_1": "1422 Mogadore Rd", "address_2": null, "address_3": null, "city": "Kent", "state_province": "Ohio", "postal_code": "44240-7536", "country": "United States", "longitude": "-81.372012", "latitude": "41.139183", "phone": "3305489654", "website_url": null, "state": "Ohio", "street": "1422 Mogadore Rd"}, {"id": "02aa77e2-94f3-49e4-9a47-e8d2d5e85c17", "name": "Madcow Brewing Co.", "brewery_type": "micro", "address_1": "206 SE 166th Ave", "address_2": null, "address_3": null, "city": "Portland", "state_province": "Oregon", "postal_code": "97233-4202", "country": "United States", "longitude": "-122.4924064", "latitude": "45.5034238", "phone": null, "website_url": "http://www.madcowbrewing.com", "state": "Oregon", "street": "206 SE 166th Ave"}, {"id": "012a9f88-a14a-42eb-b455-1f5671fe8373", "name": "Madewest Brewing Company", "brewery_type": "micro", "address_1": "1744 Donlon St", "address_2": null, "address_3": null, "city": "Ventura", "state_province": "California", "postal_code": "93003-5673", "country": "United States", "longitude": "-119.2354401", "latitude": "34.26181601", "phone": "8059475002", "website_url": "http://www.madewest.com", "state": "California", "street": "1744 Donlon St"}, {"id": "998ea6f7-1be2-4fb0-8b48-31a983acec3c", "name": "Madhouse Brewing Co", "brewery_type": "micro", "address_1": "501 Scott Ave", "address_2": null, "address_3": null, "city": "Des Moines", "state_province": "Iowa", "postal_code": "50309-5047", "country": "United States", "longitude": "-93.60766907", "latitude": "41.58113315", "phone": "9165017014", "website_url": "http://www.madhousebeer.com", "state": "Iowa", "street": "501 Scott Ave"}, {"id": "9cfdc1bb-b22c-4e9d-a569-c277a7e44b53", "name": "Madison Brewing Co, Pub and Restaurant", "brewery_type": "brewpub", "address_1": "428 Main St", "address_2": null, "address_3": null, "city": "Bennington", "state_province": "Vermont", "postal_code": "05201-2109", "country": "United States", "longitude": "-73.1963588", "latitude": "42.8783819", "phone": "8024427397", "website_url": "http://www.madisonbrewingco.com", "state": "Vermont", "street": "428 Main St"}, {"id": "1f430591-da36-4af3-9f64-d2f8cdae64b7", "name": "Madison River Brewing Co", "brewery_type": "micro", "address_1": "20900 Frontage Rd Ste B", "address_2": null, "address_3": null, "city": "Belgrade", "state_province": "Montana", "postal_code": "59714-8558", "country": "United States", "longitude": null, "latitude": null, "phone": "4063880322", "website_url": "http://www.madisonriverbrewing.com", "state": "Montana", "street": "20900 Frontage Rd Ste B"}, {"id": "337b4c62-2460-4ae7-b271-d022058469cc", "name": "MadTree Brewing", "brewery_type": "regional", "address_1": "3301 Madison Rd", "address_2": null, "address_3": null, "city": "Cincinnati", "state_province": "Ohio", "postal_code": "45209-1132", "country": "United States", "longitude": "-84.4239715", "latitude": "39.1563725", "phone": "5138368733", "website_url": "http://www.madtreebrewing.com", "state": "Ohio", "street": "3301 Madison Rd"}, {"id": "b54b16e1-ac3b-4bff-a11f-f7ae9ddc27e0", "name": "MadTree Brewing 2.0", "brewery_type": "regional", "address_1": "5164 Kennedy Ave", "address_2": null, "address_3": null, "city": "Cincinnati", "state_province": "Ohio", "postal_code": "45213", "country": "United States", "longitude": "-84.4137736", "latitude": "39.1885752", "phone": "5138368733", "website_url": "http://www.madtreebrewing.com", "state": "Ohio", "street": "5164 Kennedy Ave"}, {"id": "6bbea081-baec-4db3-9647-5a8aeee3e72c", "name": "Maelstrom Brewing Company", "brewery_type": "micro", "address_1": "11014 120th Ave NE", "address_2": null, "address_3": null, "city": "Kirkland", "state_province": "Washington", "postal_code": "98033-5022", "country": "United States", "longitude": "-122.180943", "latitude": "47.6991435", "phone": "2068416071", "website_url": "http://www.maelstrombrewing.com", "state": "Washington", "street": "11014 120th Ave NE"}, {"id": "7f5b3890-2faf-428f-8855-cd1d3c458b4e", "name": "Magic City Brewing Company", "brewery_type": "micro", "address_1": "161 2nd St NW", "address_2": null, "address_3": null, "city": "Barberton", "state_province": "Ohio", "postal_code": "44203", "country": "United States", "longitude": "-81.60738829", "latitude": "41.01444672", "phone": "3307039806", "website_url": "http://Www.magiccitybrewingcompany.com", "state": "Ohio", "street": "161 2nd St NW"}, {"id": "f781db23-6391-4db3-a70e-885517e9a6d8", "name": "Magic Hat Brewing Co/ North American Breweries", "brewery_type": "regional", "address_1": "5 Bartlett Bay Rd", "address_2": null, "address_3": null, "city": "South Burlington", "state_province": "Vermont", "postal_code": "05403-7727", "country": "United States", "longitude": "-73.21616773", "latitude": "44.42808692", "phone": "8026582739", "website_url": null, "state": "Vermont", "street": "5 Bartlett Bay Rd"}, {"id": "a2fb1f14-334a-4195-b2a5-9c816c5196af", "name": "Magic Valley Brewing", "brewery_type": "brewpub", "address_1": "208 Broadway Ave N", "address_2": null, "address_3": null, "city": "Buhl", "state_province": "Idaho", "postal_code": "83316-1625", "country": "United States", "longitude": "-114.7610528", "latitude": "42.60009514", "phone": "2085952679", "website_url": "https://magicvalleybrewing.com", "state": "Idaho", "street": "208 Broadway Ave N"}, {"id": "74cf30d7-f450-444c-a50e-fa6a8aa43c49", "name": "Magnify Brewing Company", "brewery_type": "micro", "address_1": "1275 Bloomfield Ave Ste 7 Unit 40C", "address_2": null, "address_3": null, "city": "Fairfield", "state_province": "New Jersey", "postal_code": "07004-2736", "country": "United States", "longitude": null, "latitude": null, "phone": "9732876099", "website_url": "http://www.magnifybrewing.com", "state": "New Jersey", "street": "1275 Bloomfield Ave Ste 7 Unit 40C"}, {"id": "7e32b8ba-f0d6-4e22-9b07-0e6cfe279235", "name": "Magnolia Brewing Company", "brewery_type": "brewpub", "address_1": "1398 Haight St", "address_2": null, "address_3": null, "city": "San Francisco", "state_province": "California", "postal_code": "94117-2909", "country": "United States", "longitude": "-122.4452044", "latitude": "37.7703537", "phone": null, "website_url": null, "state": "California", "street": "1398 Haight St"}, {"id": "a42086a7-b358-498a-ad7e-44948cc75ed0", "name": "Magnolia Dogpatch", "brewery_type": "micro", "address_1": "2505 3rd St", "address_2": null, "address_3": null, "city": "San Francisco", "state_province": "California", "postal_code": "94107-3112", "country": "United States", "longitude": "-122.3880818", "latitude": "37.7577437", "phone": "4158647468", "website_url": "http://www.magnoliasmokestack.com", "state": "California", "street": "2505 3rd St"}, {"id": "959be3f8-4cc7-4342-b430-9111b5a3d036", "name": "Magnuson Cafe and Brewery", "brewery_type": "brewpub", "address_1": "7801 62nd Ave NE", "address_2": null, "address_3": null, "city": "Seattle", "state_province": "Washington", "postal_code": "98115", "country": "United States", "longitude": "-122.2647516", "latitude": "47.68882925", "phone": "2065250669", "website_url": "https://magnusonbrewery.com", "state": "Washington", "street": "7801 62nd Ave NE"}, {"id": "5d702444-3683-463e-abfe-1f587d63a7bc", "name": "Mahogany Ridge Brewery & Grill", "brewery_type": "brewpub", "address_1": "435 Lincoln Ave", "address_2": null, "address_3": null, "city": "Steamboat Springs", "state_province": "Colorado", "postal_code": "80477-5084", "country": "United States", "longitude": "-106.8306883", "latitude": "40.48389236", "phone": "9708793773", "website_url": null, "state": "Colorado", "street": "435 Lincoln Ave"}, {"id": "bad259d6-ce30-4252-8b30-30e2a74934fb", "name": "Maiden City Brewing Company, LLC", "brewery_type": "micro", "address_1": "123 E Pike St", "address_2": null, "address_3": null, "city": "Cynthiana", "state_province": "Kentucky", "postal_code": "41031-1527", "country": "United States", "longitude": "-84.288072", "latitude": "38.388396", "phone": "8599545151", "website_url": "http://www.maidencitybrewing.com", "state": "Kentucky", "street": "123 E Pike St"}, {"id": "b7825867-5c07-4e12-a1f2-dbf533deb48b", "name": "Maidens Brewery", "brewery_type": "brewpub", "address_1": "209 North Wabash Avenue of Flags", "address_2": null, "address_3": null, "city": "Evansville", "state_province": "Indiana", "postal_code": "47712", "country": "United States", "longitude": null, "latitude": null, "phone": "8124312836", "website_url": "http://www.maidensbrewery.com", "state": "Indiana", "street": "209 North Wabash Avenue of Flags"}, {"id": "19800ec6-9709-45e5-a934-cd0b322a0649", "name": "Main & Six Brewing Company", "brewery_type": "micro", "address_1": "1636 N Main St", "address_2": null, "address_3": null, "city": "Jacksonville", "state_province": "Florida", "postal_code": "32206-4402", "country": "United States", "longitude": null, "latitude": null, "phone": "9046730144", "website_url": null, "state": "Florida", "street": "1636 N Main St"}, {"id": "70ff7200-901e-4279-afa4-41f0ae57fdd2", "name": "Main And Mill Brewing Company", "brewery_type": "brewpub", "address_1": "240 E Main St", "address_2": null, "address_3": null, "city": "Festus", "state_province": "Missouri", "postal_code": "63028-1907", "country": "United States", "longitude": "-90.39265217", "latitude": "38.21974885", "phone": "6365433031", "website_url": "http://www.mainandmill.com", "state": "Missouri", "street": "240 E Main St"}, {"id": "9ac5be0c-c048-4566-b831-7fb7e8d76b0f", "name": "Main Channel Brewing Company", "brewery_type": "micro", "address_1": "2090 Gunter Ave", "address_2": null, "address_3": null, "city": "Guntersville", "state_province": "Alabama", "postal_code": "35976-2113", "country": "United States", "longitude": "-86.31216035", "latitude": "34.33873684", "phone": "2569605070", "website_url": "http://www.mainchannelbeer.com", "state": "Alabama", "street": "2090 Gunter Ave"}, {"id": "80d50e64-d6ac-4056-a170-42144fa4f9cd", "name": "Main Line Brewery", "brewery_type": "micro", "address_1": "1603 Ownby Ln", "address_2": null, "address_3": null, "city": "Richmond", "state_province": "Virginia", "postal_code": "23220", "country": "United States", "longitude": null, "latitude": null, "phone": "8043879670", "website_url": "https://mainlinerva.com/", "state": "Virginia", "street": "1603 Ownby Ln"}, {"id": "bc35bec8-bdb0-405a-be1f-6c19a3d805a6", "name": "Main Sail Brewery / Atwood Yacht Club", "brewery_type": "micro", "address_1": "2637 Lodge Rd SW", "address_2": null, "address_3": null, "city": "Sherrodsville", "state_province": "Ohio", "postal_code": "44675-9719", "country": "United States", "longitude": null, "latitude": null, "phone": "3307352135", "website_url": "http://www.atwoodyachtclub.com", "state": "Ohio", "street": "2637 Lodge Rd SW"}, {"id": "c979cb39-7e7f-4bdf-89ef-f45bebd906d7", "name": "Main St Brewery", "brewery_type": "brewpub", "address_1": "830 Main St Frnt", "address_2": null, "address_3": null, "city": "Pleasanton", "state_province": "California", "postal_code": "94566-6652", "country": "United States", "longitude": "-121.8738245", "latitude": "37.66475013", "phone": "9254628218", "website_url": "http://www.mainstbrewery.com", "state": "California", "street": "830 Main St Frnt"}, {"id": "02dcafad-191a-47ed-82d6-d1a7a4ee8ccc", "name": "Main Street Brewery", "brewery_type": "brewpub", "address_1": "493 N Main St", "address_2": null, "address_3": null, "city": "Corona", "state_province": "California", "postal_code": "92880-2042", "country": "United States", "longitude": "-117.5636924", "latitude": "33.8925168", "phone": "9513711471", "website_url": "http://www.mainstreetbrewery.com", "state": "California", "street": "493 N Main St"}, {"id": "269ae6fe-0f4b-4b1e-bac1-1eedc1332929", "name": "Main Street Brewery/Four Corners", "brewery_type": "brewpub", "address_1": "21 E Main St", "address_2": null, "address_3": null, "city": "Cortez", "state_province": "Colorado", "postal_code": "81321-3240", "country": "United States", "longitude": "-108.5846644", "latitude": "37.3484244", "phone": "9705649112", "website_url": null, "state": "Colorado", "street": "21 E Main St"}, {"id": "d8ebbd1e-ee4b-4230-89df-9d40c208e013", "name": "Main Street Brewing Inc/Turonis Pizza", "brewery_type": "brewpub", "address_1": "408 N Main St", "address_2": null, "address_3": null, "city": "Evansville", "state_province": "Indiana", "postal_code": "47711-5418", "country": "United States", "longitude": "-87.56399527", "latitude": "37.98122094", "phone": "8124249871", "website_url": null, "state": "Indiana", "street": "408 N Main St"}, {"id": "85e606f3-cfcc-44de-b8e5-9c29c873c532", "name": "Maine Beer Co", "brewery_type": "micro", "address_1": "525 US Route 1", "address_2": null, "address_3": null, "city": "Freeport", "state_province": "Maine", "postal_code": "04032-7009", "country": "United States", "longitude": null, "latitude": null, "phone": "2072215711", "website_url": "http://www.mainebeercompany.com", "state": "Maine", "street": "525 US Route 1"}, {"id": "532b6171-7a1e-4caa-9e28-75cc148ce369", "name": "Mainely Brews Restaurant and Brewhouse", "brewery_type": "contract", "address_1": "1 Post Office Sq Ste 302", "address_2": null, "address_3": null, "city": "Waterville", "state_province": "Maine", "postal_code": "04901-6651", "country": "United States", "longitude": null, "latitude": null, "phone": "2078732457", "website_url": "http://www.mainelybrews.com", "state": "Maine", "street": "1 Post Office Sq Ste 302"}, {"id": "4dcaeb97-edb6-4930-bf22-b27d434900f2", "name": "Mainstreet Brewing Company", "brewery_type": "micro", "address_1": "4204 W Main St", "address_2": null, "address_3": null, "city": "Belleville", "state_province": "Illinois", "postal_code": "62226", "country": "United States", "longitude": "-90.02053343", "latitude": "38.53796122", "phone": "6184167261", "website_url": "http://www.mainstreetbrewingco.com", "state": "Illinois", "street": "4204 W Main St"}, {"id": "b35ddbfe-490e-4eaf-aeca-fb041e06c7aa", "name": "Maize Valley Craft Brewery", "brewery_type": "brewpub", "address_1": "6193 Edison St NE", "address_2": null, "address_3": null, "city": "Hartville", "state_province": "Ohio", "postal_code": "44632-9326", "country": "United States", "longitude": "-81.27813638", "latitude": "40.95340888", "phone": "3308778344", "website_url": "http://www.maizevalley.com", "state": "Ohio", "street": "6193 Edison St NE"}, {"id": "686b5441-1a16-4bef-abc2-889de7800102", "name": "Makai Brewing Company", "brewery_type": "micro", "address_1": "5850 Ocean Hwy W", "address_2": null, "address_3": null, "city": "Ocean Isle Beach", "state_province": "North Carolina", "postal_code": "28469-3510", "country": "United States", "longitude": null, "latitude": null, "phone": "9105792739", "website_url": "http://www.MakaiBrewingCompany.com", "state": "North Carolina", "street": "5850 Ocean Hwy W"}, {"id": "f01c6462-20da-4cb6-ac2b-40996eb27016", "name": "Makers Craft Brewery", "brewery_type": "planning", "address_1": null, "address_2": null, "address_3": null, "city": "Norfolk", "state_province": "Virginia", "postal_code": "23504-1905", "country": "United States", "longitude": null, "latitude": null, "phone": "7576249024", "website_url": "http://www.makers.beer", "state": "Virginia", "street": null}, {"id": "dce22bec-12d1-4aa6-a355-5780190abffe", "name": "Malai Fort Worth", "brewery_type": "brewpub", "address_1": "5289 Monahans Ave", "address_2": null, "address_3": null, "city": "Fort Worth", "state_province": "Texas", "postal_code": "76109", "country": "United States", "longitude": null, "latitude": null, "phone": "6827073959", "website_url": null, "state": "Texas", "street": "5289 Monahans Ave"}, {"id": "90b5b8ad-037c-4372-96f4-5566dec973a2", "name": "Mallory Brewing", "brewery_type": "planning", "address_1": null, "address_2": null, "address_3": null, "city": "Houston", "state_province": "Texas", "postal_code": "77018", "country": "United States", "longitude": null, "latitude": null, "phone": null, "website_url": "https://www.facebook.com/profile.php?id=100063450295613", "state": "Texas", "street": null}, {"id": "67b9f26e-f7f1-4744-b44c-f04c776d5063", "name": "Maltese Brewing Company", "brewery_type": "micro", "address_1": "11047 Pierson Dr Ste B", "address_2": null, "address_3": null, "city": "Fredericksburg", "state_province": "Virginia", "postal_code": "22408-2062", "country": "United States", "longitude": null, "latitude": null, "phone": "5406424512", "website_url": "http://www.maltesebrewing.com", "state": "Virginia", "street": "11047 Pierson Dr Ste B"}, {"id": "b6e3b8af-2f93-4520-8daa-5c0c9dc4e3c1", "name": "Mammoth Brewing Company", "brewery_type": "micro", "address_1": "18 Lake Mary Rd", "address_2": null, "address_3": null, "city": "Mammoth Lakes", "state_province": "California", "postal_code": "93546", "country": "United States", "longitude": "-118.9835694", "latitude": "37.64888165", "phone": "7609347141", "website_url": "http://www.mammothbrewingco.com", "state": "California", "street": "18 Lake Mary Rd"}, {"id": "ecd253a8-292a-4233-908f-4141491d0d32", "name": "Man Skirt Brewing", "brewery_type": "micro", "address_1": "144 Main St", "address_2": null, "address_3": null, "city": "Hackettstown", "state_province": "New Jersey", "postal_code": "07840-1930", "country": "United States", "longitude": "-74.8299453", "latitude": "40.85378205", "phone": "9089890286", "website_url": "http://www.manskirtbrewing.com", "state": "New Jersey", "street": "144 Main St"}, {"id": "a9c4d58a-f01d-4bec-9ebf-4ad61e8a6bcd", "name": "ManaFirkin", "brewery_type": "micro", "address_1": "450 East Bay Ave Ste 2", "address_2": null, "address_3": null, "city": "Manahawkin", "state_province": "New Jersey", "postal_code": "08050", "country": "United States", "longitude": null, "latitude": null, "phone": "6097564798", "website_url": null, "state": "New Jersey", "street": "450 East Bay Ave Ste 2"}, {"id": "38040138-55a0-4f87-9601-0a5744186600", "name": "Manayunk Brewing Co & Restaurant", "brewery_type": "brewpub", "address_1": "4120 Main St", "address_2": null, "address_3": null, "city": "Philadelphia", "state_province": "Pennsylvania", "postal_code": "19127-1618", "country": "United States", "longitude": "-75.2189308", "latitude": "40.0223235", "phone": "2154828220", "website_url": "http://www.manayunkbrewery.com", "state": "Pennsylvania", "street": "4120 Main St"}, {"id": "274b3acf-4f2c-40f0-8ac7-29506f2e8f5c", "name": "Mancos Brewing Company", "brewery_type": "brewpub", "address_1": "484 E. Frontage Rd", "address_2": null, "address_3": null, "city": "Mancos", "state_province": "Colorado", "postal_code": "81328-9079", "country": "United States", "longitude": null, "latitude": null, "phone": "9705339761", "website_url": "http://www.mancosbrewingcompany.com", "state": "Colorado", "street": "484 E. Frontage Rd"}, {"id": "7d87f747-3b19-4648-9f34-6c0f2ff07b34", "name": "Mandatory Fun Brewing", "brewery_type": "planning", "address_1": null, "address_2": null, "address_3": null, "city": "Marietta", "state_province": "Georgia", "postal_code": "30064", "country": "United States", "longitude": null, "latitude": null, "phone": "9517955337", "website_url": "http://www.vikingalchemist.com", "state": "Georgia", "street": null}, {"id": "29f8aa88-0252-488b-9c6d-3bdfafbbf455", "name": "Manfish Brewing", "brewery_type": "micro", "address_1": "19611 276th Ave SE", "address_2": null, "address_3": null, "city": "Issaquah", "state_province": "Washington", "postal_code": "98027-8292", "country": "United States", "longitude": "-121.9732919", "latitude": "47.42561663", "phone": "4255847264", "website_url": "http://www.manfishbrewing.com", "state": "Washington", "street": "19611 276th Ave SE"}, {"id": "1bd5d598-c751-4438-bc01-7a7adf6cdb92", "name": "Manifest Beer Company", "brewery_type": "micro", "address_1": "740 Willamette St", "address_2": null, "address_3": null, "city": "Eugene", "state_province": "Oregon", "postal_code": "97401-2934", "country": "United States", "longitude": "-123.0928507", "latitude": "44.05174833", "phone": "5412067232", "website_url": "http://www.manifestbeer.com", "state": "Oregon", "street": "740 Willamette St"}, {"id": "b8af95f3-2057-40d5-ac94-c388f2f639e6", "name": "Manitou Brewing Company", "brewery_type": "brewpub", "address_1": "725 Manitou Ave", "address_2": null, "address_3": null, "city": "Manitou Springs", "state_province": "Colorado", "postal_code": "80829-1809", "country": "United States", "longitude": "-104.9157413", "latitude": "38.8569869", "phone": "7192827709", "website_url": "http://www.manitou-brewing.com", "state": "Colorado", "street": "725 Manitou Ave"}, {"id": "03f6dd60-d50e-4053-94db-1e83d087333f", "name": "Mankato Brewery", "brewery_type": "micro", "address_1": "1119 Center St", "address_2": null, "address_3": null, "city": "North Mankato", "state_province": "Minnesota", "postal_code": "56003-2108", "country": "United States", "longitude": "-94.013784", "latitude": "44.18144279", "phone": "5073862337", "website_url": "http://www.mankatobrewery.com", "state": "Minnesota", "street": "1119 Center St"}, {"id": "7167267a-7a89-448d-8586-9caad8d72bdb", "name": "Manor Hill Brewing", "brewery_type": "micro", "address_1": "4411 Manor Ln", "address_2": null, "address_3": null, "city": "Ellicott City", "state_province": "Maryland", "postal_code": "21042-6111", "country": "United States", "longitude": null, "latitude": null, "phone": "4109977771", "website_url": "http://www.manorhillbrewing.com", "state": "Maryland", "street": "4411 Manor Ln"}, {"id": "2b21af13-3882-4ded-9acd-340b81cb5a70", "name": "ManRock Brewing", "brewery_type": "brewpub", "address_1": "1750 El Camino Real Ste A", "address_2": null, "address_3": null, "city": "Grover Beach", "state_province": "California", "postal_code": "93433-1416", "country": "United States", "longitude": "-120.6082797", "latitude": "35.12963742", "phone": "7022172826", "website_url": "http://www.manrockbrewing.com", "state": "California", "street": "1750 El Camino Real Ste A"}, {"id": "129dfd95-492b-443d-af67-dd03bef8a157", "name": "Mantorville Brewing Co LLC", "brewery_type": "contract", "address_1": "101 5th St E", "address_2": null, "address_3": null, "city": "Mantorville", "state_province": "Minnesota", "postal_code": "55955-8087", "country": "United States", "longitude": "-92.753035", "latitude": "44.067031", "phone": "6513870708", "website_url": "http://www.mantorvillebeer.com", "state": "Minnesota", "street": "101 5th St E"}, {"id": "8f13ef71-9339-4aec-9bc7-b9e8e2d5d806", "name": "Mantra Artisan Ales", "brewery_type": "micro", "address_1": "216 Noah Dr Ste 140", "address_2": null, "address_3": null, "city": "Franklin", "state_province": "Tennessee", "postal_code": "37064-4024", "country": "United States", "longitude": "-86.866949", "latitude": "35.893554", "phone": "6156288776", "website_url": "http://www.mantrabrewing.com", "state": "Tennessee", "street": "216 Noah Dr Ste 140"}, {"id": "a0637ba4-fc85-4dd3-b1f2-e23e5ad5c862", "name": "Manufaktura Piwowarska Z\u0142ota Woda", "brewery_type": "micro", "address_1": "Sudecka", "address_2": null, "address_3": null, "city": "\u0141omnica", "state_province": "dolno\u015bl\u0105skie", "postal_code": "58-340", "country": "Poland", "longitude": "16.3447144", "latitude": "50.6793293", "phone": null, "website_url": null, "state": "dolno\u015bl\u0105skie", "street": "Sudecka"}, {"id": "fc9e541f-a40c-4e2c-bc42-561194e654d7", "name": "MAP Brewing Company", "brewery_type": "brewpub", "address_1": "510 Manley Rd", "address_2": null, "address_3": null, "city": "Bozeman", "state_province": "Montana", "postal_code": "59715-8784", "country": "United States", "longitude": "-111.0400807", "latitude": "45.7033199", "phone": "4065874070", "website_url": "http://www.mapbrewing.com", "state": "Montana", "street": "510 Manley Rd"}, {"id": "d140a6a7-8618-4302-b7ca-d55880904a84", "name": "Maple Branch Craft Brewery", "brewery_type": "planning", "address_1": null, "address_2": null, "address_3": null, "city": "Fort Worth", "state_province": "Texas", "postal_code": "76133-1226", "country": "United States", "longitude": null, "latitude": null, "phone": "3149108854", "website_url": "https://www.maplebranchbrew.com/", "state": "Texas", "street": null}, {"id": "c806e91b-2179-46f1-ab2c-390291ed7cba", "name": "Maple Island Brewing", "brewery_type": "micro", "address_1": "225 Main St N", "address_2": null, "address_3": null, "city": "Stillwater", "state_province": "Minnesota", "postal_code": "55082-5021", "country": "United States", "longitude": "-92.80653912", "latitude": "45.0577993", "phone": "6514300044", "website_url": "http://www.mapleislandbrewing.com", "state": "Minnesota", "street": "225 Main St N"}, {"id": "2b99e526-9f10-4e4d-bbfc-5890c7e4e69c", "name": "Maple Lawn Brewery", "brewery_type": "micro", "address_1": "110 Mulberry Ave", "address_2": null, "address_3": null, "city": "Pomeroy", "state_province": "Ohio", "postal_code": "45769-1004", "country": "United States", "longitude": "-82.034268", "latitude": "39.027513", "phone": "7406915018", "website_url": "http://www.maplelawnbrew.com", "state": "Ohio", "street": "110 Mulberry Ave"}, {"id": "a1a02e31-20d5-47dc-8a57-607f4b6d77e4", "name": "Maplewood Brewing Company", "brewery_type": "micro", "address_1": "2717 N Maplewood Ave", "address_2": null, "address_3": null, "city": "Chicago", "state_province": "Illinois", "postal_code": "60647-1930", "country": "United States", "longitude": "-87.69106414", "latitude": "41.93075205", "phone": "7732701061", "website_url": "http://www.maplewoodbrew.com", "state": "Illinois", "street": "2717 N Maplewood Ave"}, {"id": "45a4d916-2bc4-4e46-8d7a-d7e994f0d3fb", "name": "Marble Brewery - Mav Lab", "brewery_type": "micro", "address_1": "9904 Montgomery Blvd NE", "address_2": null, "address_3": null, "city": "Albuquerque", "state_province": "New Mexico", "postal_code": "87111-3554", "country": "United States", "longitude": "-106.5308452", "latitude": "35.13056812", "phone": "5053234030", "website_url": null, "state": "New Mexico", "street": "9904 Montgomery Blvd NE"}, {"id": "90ecf47b-00b7-4b34-8ce3-2a704d6eddd6", "name": "Marble Brewery - Production", "brewery_type": "regional", "address_1": "111 Marble Ave NW", "address_2": null, "address_3": null, "city": "Albuquerque", "state_province": "New Mexico", "postal_code": "87102-2315", "country": "United States", "longitude": "-106.6467287", "latitude": "35.0928224", "phone": "5052432739", "website_url": "http://www.marblebrewery.com", "state": "New Mexico", "street": "111 Marble Ave NW"}, {"id": "2f2409c0-09db-4b7b-b68d-4eb5076226bc", "name": "Marblehead Brewing Company", "brewery_type": "micro", "address_1": "124 Pleasant St", "address_2": null, "address_3": null, "city": "Marblehead", "state_province": "Massachusetts", "postal_code": "01945", "country": "United States", "longitude": "-70.8573661", "latitude": "42.50125386", "phone": "7817970211", "website_url": "http://www.marbleheadbrewing.co", "state": "Massachusetts", "street": "124 Pleasant St"}, {"id": "8acae3ab-9840-4619-9f8b-873d262ff38e", "name": "March First Brewing", "brewery_type": "brewpub", "address_1": "7885 E Kemper Rd", "address_2": null, "address_3": null, "city": "Cincinnati", "state_province": "Ohio", "postal_code": "45249-1622", "country": "United States", "longitude": null, "latitude": null, "phone": "5135620759", "website_url": "http://www.marchfirstbrewing.com", "state": "Ohio", "street": "7885 E Kemper Rd"}, {"id": "efb2d5d8-8c2c-4e53-adec-156c22f79eed", "name": "March Hare Brewing", "brewery_type": "planning", "address_1": null, "address_2": null, "address_3": null, "city": "Parker", "state_province": "Colorado", "postal_code": "80134-3627", "country": "United States", "longitude": null, "latitude": null, "phone": "3039606020", "website_url": null, "state": "Colorado", "street": null}, {"id": "c440f494-5670-4510-9624-d1707fa1e2b7", "name": "Mare Island Brewing Co.", "brewery_type": "brewpub", "address_1": "289 Mare Island Way", "address_2": null, "address_3": null, "city": "Vallejo", "state_province": "California", "postal_code": "94590-5801", "country": "United States", "longitude": "-122.2631011", "latitude": "38.0998706", "phone": "7075563000", "website_url": "http://www.mareislandbrewingco.com", "state": "California", "street": "289 Mare Island Way"}, {"id": "6ec5c9d0-34df-4a2e-b041-ff956ce3d98a", "name": "Marietta Brewing Co", "brewery_type": "brewpub", "address_1": "167 Front St", "address_2": null, "address_3": null, "city": "Marietta", "state_province": "Ohio", "postal_code": "45750-3125", "country": "United States", "longitude": "-81.45339993", "latitude": "39.41184635", "phone": "7403732739", "website_url": "http://www.mariettabrewingcompany.com", "state": "Ohio", "street": "167 Front St"}, {"id": "36d25eb4-d6b7-4783-bce1-568b5839f402", "name": "Marin Brewing Co", "brewery_type": "brewpub", "address_1": "1809 Larkspur Landing Cir", "address_2": null, "address_3": null, "city": "Larkspur", "state_province": "California", "postal_code": "94939-1801", "country": "United States", "longitude": "-122.5068874", "latitude": "37.9458177", "phone": "4154614677", "website_url": "http://www.marinbrewing.com", "state": "California", "street": "1809 Larkspur Landing Cir"}, {"id": "f2e26a12-0265-4335-91fe-c04f7035ee4b", "name": "Maritime Pacific Brewing Co", "brewery_type": "micro", "address_1": "1111 NW Ballard Way", "address_2": null, "address_3": null, "city": "Seattle", "state_province": "Washington", "postal_code": "98107-4639", "country": "United States", "longitude": "-122.371641", "latitude": "47.66347198", "phone": "2067826181", "website_url": "http://www.maritimebrewery.com", "state": "Washington", "street": "1111 NW Ballard Way"}, {"id": "e9673697-3229-45ee-bab1-6889e63ccffe", "name": "Mark Twain Brewing Company", "brewery_type": "brewpub", "address_1": "422 N Main St", "address_2": null, "address_3": null, "city": "Hannibal", "state_province": "Missouri", "postal_code": "63401-3324", "country": "United States", "longitude": "-91.35744225", "latitude": "39.71293685", "phone": "5734061300", "website_url": "http://www.marktwainbrewery.com", "state": "Missouri", "street": "422 N Main St"}, {"id": "1cf8e00c-e42d-428a-8be5-d8fdfeccc21e", "name": "Marker 48 Brewing LLC", "brewery_type": "micro", "address_1": "12147 Cortez Blvd", "address_2": null, "address_3": null, "city": "Brooksville", "state_province": "Florida", "postal_code": "34613-5551", "country": "United States", "longitude": "-82.4012824", "latitude": "28.5396995", "phone": "3526062509", "website_url": "http://www.marker48.com", "state": "Florida", "street": "12147 Cortez Blvd"}, {"id": "c87c9776-065c-4ce0-8042-9113c7995915", "name": "Market Cross Pub & Brewery", "brewery_type": "micro", "address_1": "113 N Hanover St", "address_2": null, "address_3": null, "city": "Carlisle", "state_province": "Pennsylvania", "postal_code": "17013-2422", "country": "United States", "longitude": "-77.18872886", "latitude": "40.20335743", "phone": "7172581234", "website_url": "http://www.marketcrosspub.com", "state": "Pennsylvania", "street": "113 N Hanover St"}, {"id": "cbff0c83-0ea9-4114-bb4c-96d372c21365", "name": "Market Garden Brewery", "brewery_type": "micro", "address_1": "1849 W 24th St", "address_2": null, "address_3": null, "city": "Cleveland", "state_province": "Ohio", "postal_code": "44113", "country": "United States", "longitude": "-81.70272815", "latitude": "41.48573746", "phone": "2166214000", "website_url": null, "state": "Ohio", "street": "1849 W 24th St"}, {"id": "2634ae09-4e13-4aa7-b0f1-dfcecf935a42", "name": "Market Garden Brewery", "brewery_type": "micro", "address_1": "1947 W 25th St", "address_2": null, "address_3": null, "city": "Cleveland", "state_province": "Ohio", "postal_code": "44113-3418", "country": "United States", "longitude": "-81.7036495", "latitude": "41.4848964", "phone": "2166214000", "website_url": "http://www.marketgardenbrewery.com", "state": "Ohio", "street": "1947 W 25th St"}, {"id": "d14e2dee-999d-4983-a9cd-5d74d35af35b", "name": "Market Street Brewing Co", "brewery_type": "brewpub", "address_1": "63 W Market St # 65", "address_2": null, "address_3": null, "city": "Corning", "state_province": "New York", "postal_code": "14830-2526", "country": "United States", "longitude": "-77.0571571", "latitude": "42.143984", "phone": "6079362337", "website_url": "http://www.936-beer.com", "state": "New York", "street": "63 W Market St # 65"}, {"id": "db1b4d4d-31e9-468d-8fae-2c033f6fcbe4", "name": "Market Street Public House", "brewery_type": "brewpub", "address_1": "200 Market St", "address_2": null, "address_3": null, "city": "Denton", "state_province": "Maryland", "postal_code": "21629-1037", "country": "United States", "longitude": "-75.831804", "latitude": "38.886037", "phone": "4104794720", "website_url": "http://www.marketstreet.pub", "state": "Maryland", "street": "200 Market St"}, {"id": "e8c1c4c5-6835-418a-af97-d85a7e73335f", "name": "Marley's Brewery", "brewery_type": "brewpub", "address_1": "1323 Columbia Blvd", "address_2": null, "address_3": null, "city": "Bloomsburg", "state_province": "Pennsylvania", "postal_code": "17815-8860", "country": "United States", "longitude": "-76.4477386", "latitude": "41.0013964", "phone": "5707849600", "website_url": "http://www.marleysbrewery.com", "state": "Pennsylvania", "street": "1323 Columbia Blvd"}, {"id": "05330622-853a-411b-8e86-a8c167bf58ae", "name": "Marsh Island Brewing Company", "brewery_type": "micro", "address_1": "2 Main St", "address_2": null, "address_3": null, "city": "Orono", "state_province": "Maine", "postal_code": "04473-4004", "country": "United States", "longitude": "-68.671416", "latitude": "44.884496", "phone": "2078661277", "website_url": "http://www.marshislandbrewing.com", "state": "Maine", "street": "2 Main St"}, {"id": "3abc62ca-39c8-4fb3-a9bd-9bc343bf5ea2", "name": "Marshall Brewing Co, LLC", "brewery_type": "micro", "address_1": "1742 E 6th St", "address_2": null, "address_3": null, "city": "Tulsa", "state_province": "Oklahoma", "postal_code": "74104", "country": "United States", "longitude": "-95.9650788", "latitude": "36.1516146", "phone": "9182928781", "website_url": "http://www.marshallbrewing.com", "state": "Oklahoma", "street": "1742 E 6th St"}, {"id": "f4fee96e-e540-44f0-9e7a-177758d1f2ec", "name": "Marshall Wharf Brewing Co", "brewery_type": "micro", "address_1": "40 Marshall Wharf", "address_2": null, "address_3": null, "city": "Belfast", "state_province": "Maine", "postal_code": "04915-6835", "country": "United States", "longitude": null, "latitude": null, "phone": "2073381707", "website_url": "http://www.marshallwharf.com", "state": "Maine", "street": "40 Marshall Wharf"}, {"id": "40add606-afd1-430a-b274-2af693e0e5aa", "name": "Martha's Exchange Restaurant and Brewery", "brewery_type": "brewpub", "address_1": "185 Main St", "address_2": null, "address_3": null, "city": "Nashua", "state_province": "New Hampshire", "postal_code": "03060-2701", "country": "United States", "longitude": "-71.46548181", "latitude": "42.7604446", "phone": "6038838781", "website_url": "http://www.marthas-exchange.com", "state": "New Hampshire", "street": "185 Main St"}, {"id": "1c357f75-dc18-43cf-bcc4-45e1089b6086", "name": "Martin City Brewing Company", "brewery_type": "micro", "address_1": "500 E 135th St", "address_2": null, "address_3": null, "city": "Kansas City", "state_province": "Missouri", "postal_code": "64145-1672", "country": "United States", "longitude": "-94.590214", "latitude": "38.882691", "phone": "8162682222", "website_url": "http://www.martincitybrewing.com", "state": "Missouri", "street": "500 E 135th St"}, {"id": "e64276ac-2aa7-404a-a538-212734a0eb84", "name": "Martin City Brewing Company Pizza and Taproom", "brewery_type": "brewpub", "address_1": "354 SW Blue Pkwy", "address_2": null, "address_3": null, "city": "Lees Summit", "state_province": "Missouri", "postal_code": "64063", "country": "United States", "longitude": "-94.388546", "latitude": "38.916883", "phone": "8164345100", "website_url": "http://www.martincitybrewingcompany.com", "state": "Missouri", "street": "354 SW Blue Pkwy"}, {"id": "90ea9a74-74a3-46b7-bada-c336227ef480", "name": "Martin House Brewing Company", "brewery_type": "micro", "address_1": "220 S Sylvania Ave Ste 209", "address_2": null, "address_3": null, "city": "Fort Worth", "state_province": "Texas", "postal_code": "76111-2232", "country": "United States", "longitude": null, "latitude": null, "phone": "8172220177", "website_url": "http://www.martinhousebrewing.com", "state": "Texas", "street": "220 S Sylvania Ave Ste 209"}]