[{"id": "ef663619-6faa-4478-b754-c54f6f5cc823", "name": "Beaver Creek Brewery", "brewery_type": "micro", "address_1": "104 W Oregon Ave", "address_2": null, "address_3": null, "city": "Wibaux", "state_province": "Montana", "postal_code": "59353-8001", "country": "United States", "longitude": null, "latitude": null, "phone": "4067952337", "website_url": "http://www.beavercreekbrewery.com", "state": "Montana", "street": "104 W Oregon Ave"}, {"id": "2ca3add8-8d9b-4195-a269-5cc0d4afcc07", "name": "Beaver Island Brewing Company", "brewery_type": "micro", "address_1": "216 6th Ave S", "address_2": null, "address_3": null, "city": "Saint Cloud", "state_province": "Minnesota", "postal_code": "56301-4304", "country": "United States", "longitude": "-94.15733312", "latitude": "45.5585455", "phone": "3202535907", "website_url": "http://www.beaverislandbrew.com", "state": "Minnesota", "street": "216 6th Ave S"}, {"id": "92089237-a5bc-40cc-b7c8-b666f1db822a", "name": "Beaver Street Brewery", "brewery_type": "brewpub", "address_1": "11 S Beaver St Ste 1", "address_2": null, "address_3": null, "city": "Flagstaff", "state_province": "Arizona", "postal_code": "86001-5500", "country": "United States", "longitude": null, "latitude": null, "phone": "9287790079", "website_url": "http://www.beaverstreetbrewery.com", "state": "Arizona", "street": "11 S Beaver St Ste 1"}, {"id": "4fc62fdf-21cf-4b30-9f08-f40ee4ffac46", "name": "Beaverhead Brewing Co", "brewery_type": "micro", "address_1": "218 S Montana St", "address_2": null, "address_3": null, "city": "Dillon", "state_province": "Montana", "postal_code": "59725-2438", "country": "United States", "longitude": "-112.6396875", "latitude": "45.21575351", "phone": "4069880011", "website_url": "http://www.beaverheadbeer.com", "state": "Montana", "street": "218 S Montana St"}, {"id": "40b45277-e99b-4068-894b-b4fb9fbf987f", "name": "Beavers Bend Brewery", "brewery_type": "micro", "address_1": "46 Coho Rd", "address_2": null, "address_3": null, "city": "Broken Bow", "state_province": "Oklahoma", "postal_code": "74728-6765", "country": "United States", "longitude": "-94.7595504", "latitude": "34.1658072", "phone": "5804943455", "website_url": "http://www.beaversbendbrewery.com", "state": "Oklahoma", "street": "46 Coho Rd"}, {"id": "0b77f859-3790-499b-9d8a-13cb628363d8", "name": "Bedlam Brewery Ltd", "brewery_type": "micro", "address_1": "Plumpton Green", "address_2": null, "address_3": null, "city": "Lewes", "state_province": "East Sussex", "postal_code": "BN7 3DH", "country": "England", "longitude": "-0.068698", "latitude": "50.948125", "phone": "1273978015", "website_url": "https://bedlambrewery.co.uk/", "state": "East Sussex", "street": "Plumpton Green"}, {"id": "047d4126-a132-4123-8e9a-aba351f31031", "name": "Bedlam Brewing LLC", "brewery_type": "brewpub", "address_1": "2303 N Augusta St", "address_2": null, "address_3": null, "city": "Staunton", "state_province": "Virginia", "postal_code": "24401-2597", "country": "United States", "longitude": "-79.05582568", "latitude": "38.16800319", "phone": "5402211305", "website_url": "http://www.facebook.com/Bedlam-Brewing-536957559822021", "state": "Virginia", "street": "2303 N Augusta St"}, {"id": "53d076da-4ee2-491f-9513-f2bee77c3688", "name": "Bee's Knees Ale House", "brewery_type": "brewpub", "address_1": "106 W Jasper St", "address_2": null, "address_3": null, "city": "Versailles", "state_province": "Missouri", "postal_code": "65084", "country": "United States", "longitude": "-92.835774", "latitude": "38.479374", "phone": "5735392525", "website_url": null, "state": "Missouri", "street": "106 W Jasper St"}, {"id": "4e43ccbc-bc47-405d-a48b-1d928c5ca462", "name": "Beech Mountain Brewing Company", "brewery_type": "micro", "address_1": "1007 Beech Mountain Pkwy", "address_2": null, "address_3": null, "city": "Beech Mountain", "state_province": "North Carolina", "postal_code": "28604-8018", "country": "United States", "longitude": "-81.873356", "latitude": "36.16819584", "phone": "8283872011", "website_url": "http://www.beechmountainresort.com", "state": "North Carolina", "street": "1007 Beech Mountain Pkwy"}, {"id": "a0adf1e8-ce6a-4c06-a605-434032d6fa18", "name": "Beehive Basin Brewery", "brewery_type": "micro", "address_1": "245 Town Center Ave", "address_2": null, "address_3": null, "city": "Big Sky", "state_province": "Montana", "postal_code": "59716", "country": "United States", "longitude": "-111.3037009", "latitude": "45.259632", "phone": "4069957444", "website_url": "http://www.beehivebasinbrewery.com", "state": "Montana", "street": "245 Town Center Ave"}, {"id": "98b4c7f1-cdf7-465b-a41c-ab456bfd6a61", "name": "Beer Army", "brewery_type": "brewpub", "address_1": null, "address_2": null, "address_3": null, "city": "New Bern", "state_province": "North Carolina", "postal_code": "28564-3051", "country": "United States", "longitude": null, "latitude": null, "phone": "2522885814", "website_url": null, "state": "North Carolina", "street": null}, {"id": "d5fd0450-160c-444f-a9b3-e027aed21cf4", "name": "Beer By Design Brewery", "brewery_type": "contract", "address_1": "11490 Jackson St", "address_2": null, "address_3": null, "city": "Thornton", "state_province": "Colorado", "postal_code": "80233-2533", "country": "United States", "longitude": "-104.9417886", "latitude": "39.9285623", "phone": "3035172202", "website_url": "http://www.beerbydesign.com", "state": "Colorado", "street": "11490 Jackson St"}, {"id": "4d71267a-d27f-4322-afc6-403e860fc107", "name": "Beer Church Brewing Company", "brewery_type": "contract", "address_1": "24 S Whittaker St", "address_2": null, "address_3": null, "city": "New Buffalo", "state_province": "Michigan", "postal_code": "49117-1820", "country": "United States", "longitude": "-86.74311848", "latitude": "41.79322148", "phone": "2192413876", "website_url": "http://www.beerchurchbrewing.com", "state": "Michigan", "street": "24 S Whittaker St"}, {"id": "d137a8cd-c65a-42c7-b537-b6e98b46c7af", "name": "Beer Engine", "brewery_type": "micro", "address_1": "107 Larrimore Ln", "address_2": null, "address_3": null, "city": "Danville", "state_province": "Kentucky", "postal_code": "40422-1674", "country": "United States", "longitude": "-84.771328", "latitude": "37.6481", "phone": "5024035680", "website_url": "http://www.kybeerengine.com", "state": "Kentucky", "street": "107 Larrimore Ln"}, {"id": "ccad31bf-f381-4f58-a204-993f59e3029f", "name": "Beer Hound Brewery", "brewery_type": "contract", "address_1": "201 Waters Pl Apt 102", "address_2": null, "address_3": null, "city": "Culpeper", "state_province": "Virginia", "postal_code": "22701-3102", "country": "United States", "longitude": null, "latitude": null, "phone": "5403175327", "website_url": null, "state": "Virginia", "street": "201 Waters Pl Apt 102"}, {"id": "1bfba23f-2815-4f28-9d5d-37bca2306903", "name": "Beer Is Good Brewing Company", "brewery_type": "micro", "address_1": "216 E Main", "address_2": null, "address_3": null, "city": "Norman", "state_province": "Oklahoma", "postal_code": "73069", "country": "United States", "longitude": "-97.4411294", "latitude": "35.2216069", "phone": "4058577080", "website_url": "http://bigbrew.co", "state": "Oklahoma", "street": "216 E Main"}, {"id": "bf244193-89cd-4321-906c-abda26f7199d", "name": "Beer Lab HI", "brewery_type": "micro", "address_1": "1010 University Ave Ste B1", "address_2": null, "address_3": null, "city": "Honolulu", "state_province": "Hawaii", "postal_code": "96826-1537", "country": "United States", "longitude": "-157.8218784", "latitude": "21.29214406", "phone": "8088880913", "website_url": "http://www.beerlabhi.com", "state": "Hawaii", "street": "1010 University Ave Ste B1"}, {"id": "bb4ba62d-f718-46d1-929b-3a8b4e96b80c", "name": "Beer Me Brewery", "brewery_type": "brewpub", "address_1": "Grand Parade", "address_2": null, "address_3": null, "city": "Eastbourne", "state_province": "East Sussex", "postal_code": "BN21 3YN", "country": "England", "longitude": "0.291598", "latitude": "50.767006", "phone": "1323729967", "website_url": "https://beermebrewery.co.uk/", "state": "East Sussex", "street": "Grand Parade"}, {"id": "3c2c022b-b5c3-438e-b7fc-67b76b715f86", "name": "Beer Naked Brewery", "brewery_type": "brewpub", "address_1": "7678 VT-RTE 9", "address_2": null, "address_3": null, "city": "Marlboro", "state_province": "Vermont", "postal_code": "05344", "country": "United States", "longitude": null, "latitude": null, "phone": "8024647702", "website_url": "http://www.beernakedbrewery.com", "state": "Vermont", "street": "7678 VT-RTE 9"}, {"id": "a8a27ab9-3403-4fa9-a852-ceb6fe938af4", "name": "Beer On Earth", "brewery_type": "micro", "address_1": "425 W Fountain St #104", "address_2": null, "address_3": null, "city": "Providence", "state_province": "Rhode Island", "postal_code": "02903", "country": "United States", "longitude": "-71.4238514", "latitude": "41.8189698", "phone": "4018850580", "website_url": "http://www.beeronearth.com", "state": "Rhode Island", "street": "425 W Fountain St #104"}, {"id": "7aa429f1-a3c8-4ff8-b2c3-18a451dee621", "name": "Beer Religion", "brewery_type": "planning", "address_1": null, "address_2": null, "address_3": null, "city": "Winter Park", "state_province": "Florida", "postal_code": "32792-5111", "country": "United States", "longitude": null, "latitude": null, "phone": null, "website_url": null, "state": "Florida", "street": null}, {"id": "2d71ef89-cdf4-4e5a-b862-14aca5e47c93", "name": "Beer Research Institute, The", "brewery_type": "brewpub", "address_1": "1641 S Stateley Dr Ste 104", "address_2": null, "address_3": null, "city": "Mesa", "state_province": "Arizona", "postal_code": "85204", "country": "United States", "longitude": null, "latitude": null, "phone": "4808922020", "website_url": "http://www.bri.beer", "state": "Arizona", "street": "1641 S Stateley Dr Ste 104"}, {"id": "36e42b14-6bb0-4bba-b9d4-662def2778a6", "name": "Beer Tree Brew Co", "brewery_type": "micro", "address_1": "197 Rte 369", "address_2": null, "address_3": null, "city": "Port Crane", "state_province": "New York", "postal_code": "13833", "country": "United States", "longitude": null, "latitude": null, "phone": null, "website_url": "http://www.beertreebrew.com", "state": "New York", "street": "197 Rte 369"}, {"id": "b2acd8dd-3606-4794-bddb-db8e476f5ef2", "name": "Beer Valley Brewing Co", "brewery_type": "micro", "address_1": "937 SE 12th Ave", "address_2": null, "address_3": null, "city": "Ontario", "state_province": "Oregon", "postal_code": "97914-4473", "country": "United States", "longitude": "-116.9539806", "latitude": "44.01504307", "phone": "5418819088", "website_url": "http://www.beervalleybrewing.com", "state": "Oregon", "street": "937 SE 12th Ave"}, {"id": "cbce47ad-2da8-4de9-806f-9c8e3fb39f76", "name": "Beerded Brothers Brewing", "brewery_type": "closed", "address_1": "106 W 6th St", "address_2": null, "address_3": null, "city": "Vancouver", "state_province": "Washington", "postal_code": "98660", "country": "United States", "longitude": "-122.6718911", "latitude": "45.62576802", "phone": "3606065806", "website_url": "http://www.beerdedbrothers.net", "state": "Washington", "street": "106 W 6th St"}, {"id": "09c40072-dae9-445b-a8e5-574ac4c9371a", "name": "Beerfoot Beach Bar", "brewery_type": "micro", "address_1": "2816 Avenue R 1/2", "address_2": null, "address_3": null, "city": "Galveston", "state_province": "Texas", "postal_code": "77550-7742", "country": "United States", "longitude": null, "latitude": null, "phone": "4097622337", "website_url": "http://www.yagaspresents.com/beerfoot/index.html", "state": "Texas", "street": "2816 Avenue R 1/2"}, {"id": "01883283-4a13-4857-9aad-e06298863ff3", "name": "Begyle Brewing", "brewery_type": "micro", "address_1": "1800 W Cuyler Ave Ste 1E", "address_2": null, "address_3": null, "city": "Chicago", "state_province": "Illinois", "postal_code": "60613-3892", "country": "United States", "longitude": null, "latitude": null, "phone": "7736616963", "website_url": "http://www.begylebrewing.com", "state": "Illinois", "street": "1800 W Cuyler Ave Ste 1E"}, {"id": "8617a78e-e352-479d-adfd-8c1cb2aef36a", "name": "Belching Beaver Brewery", "brewery_type": "regional", "address_1": "1334 Rocky Point Dr", "address_2": null, "address_3": null, "city": "Oceanside", "state_province": "California", "postal_code": "92056-5864", "country": "United States", "longitude": "-117.292416", "latitude": "33.2139275", "phone": "7607321415", "website_url": null, "state": "California", "street": "1334 Rocky Point Dr"}, {"id": "a349e5e8-16d6-47e1-8c62-4403a2709927", "name": "Belching Beaver Brewery Tavern & Grill", "brewery_type": "brewpub", "address_1": "302 E Broadway", "address_2": null, "address_3": null, "city": "Vista", "state_province": "California", "postal_code": "92084-6020", "country": "United States", "longitude": "-117.241029", "latitude": "33.2021182", "phone": "7605995832", "website_url": null, "state": "California", "street": "302 E Broadway"}, {"id": "93cacbb3-3e6b-47a9-a446-43ad639e6762", "name": "Belching Beaver Brewery Vista", "brewery_type": "micro", "address_1": "980 Park Center Dr Ste A", "address_2": null, "address_3": null, "city": "Vista", "state_province": "California", "postal_code": "92081-8351", "country": "United States", "longitude": "-117.2410328", "latitude": "33.20215305", "phone": "7605995832", "website_url": "http://www.belchingbeaver.com", "state": "California", "street": "980 Park Center Dr Ste A"}, {"id": "c351a7a3-6003-4573-962c-16d51a56bd53", "name": "Belding Brewing Company", "brewery_type": "planning", "address_1": null, "address_2": null, "address_3": null, "city": "Belding", "state_province": "Michigan", "postal_code": "48809-1678", "country": "United States", "longitude": null, "latitude": null, "phone": "6163086285", "website_url": null, "state": "Michigan", "street": null}, {"id": "ebb8c392-eddb-44c8-9561-44f9186b8518", "name": "Belfast Bay Brewing Co", "brewery_type": "contract", "address_1": "100 Searsport Ave", "address_2": null, "address_3": null, "city": "Belfast", "state_province": "Maine", "postal_code": "04915-7221", "country": "United States", "longitude": "-68.9880177", "latitude": "44.4309432", "phone": "2074608654", "website_url": "http://www.belfastbaybrewing.com", "state": "Maine", "street": "100 Searsport Ave"}, {"id": "20ebe2cc-2803-4085-aada-cc38ea1a1f74", "name": "Belford Brewing Company", "brewery_type": "micro", "address_1": "84 Leonardville Rd", "address_2": null, "address_3": null, "city": "Belford", "state_province": "New Jersey", "postal_code": "07718-1144", "country": "United States", "longitude": null, "latitude": null, "phone": "7327697168", "website_url": "http://www.belfordbrewing.com", "state": "New Jersey", "street": "84 Leonardville Rd"}, {"id": "43fd7230-116c-4c72-a9d3-5bd96411c362", "name": "Belgian Mare Brewery", "brewery_type": "micro", "address_1": "207 Gilsum Mine Rd", "address_2": null, "address_3": null, "city": "Alstead", "state_province": "New Hampshire", "postal_code": "03602-3915", "country": "United States", "longitude": "-72.28542213", "latitude": "43.10984838", "phone": "6038357801", "website_url": "http://www.belgianmare.com", "state": "New Hampshire", "street": "207 Gilsum Mine Rd"}, {"id": "753c642c-4239-427f-a7e1-7c8d2d4f28e3", "name": "Bell's Brewery, Inc", "brewery_type": "regional", "address_1": "8938 Krum Ave", "address_2": null, "address_3": null, "city": "Galesburg", "state_province": "Michigan", "postal_code": "49053-9558", "country": "United States", "longitude": null, "latitude": null, "phone": "2693822338", "website_url": "http://www.bellsbeer.com", "state": "Michigan", "street": "8938 Krum Ave"}, {"id": "ddb10d3b-41f8-4a89-a91a-5e751230f8ec", "name": "Bell's Eccentric Cafe", "brewery_type": "brewpub", "address_1": "355 E Kalamazoo Ave", "address_2": null, "address_3": null, "city": "Kalamazoo", "state_province": "Michigan", "postal_code": "49007-3807", "country": "United States", "longitude": "-85.57887292", "latitude": "42.29491555", "phone": "2693822332", "website_url": "http://www.bellsbeer.com", "state": "Michigan", "street": "355 E Kalamazoo Ave"}, {"id": "767cf890-0184-4c32-afd8-0260ce1a0f0b", "name": "Bella Casa Di Vino", "brewery_type": "brewpub", "address_1": "201 N Riverside Ave", "address_2": null, "address_3": null, "city": "Saint Clair", "state_province": "Michigan", "postal_code": "48079-5491", "country": "United States", "longitude": "-82.48591", "latitude": "42.823895", "phone": "8103261212", "website_url": "http://www.suescoffeehouse.com", "state": "Michigan", "street": "201 N Riverside Ave"}, {"id": "5ce26e95-3deb-4b79-be7d-3d7962abc3f3", "name": "Belle Isle Restaurant and Brewing Co", "brewery_type": "brewpub", "address_1": "1900 NW Expressway Ste 44", "address_2": null, "address_3": null, "city": "Oklahoma City", "state_province": "Oklahoma", "postal_code": "73118-1832", "country": "United States", "longitude": "-97.545912", "latitude": "35.522258", "phone": "4058401911", "website_url": "http://www.belleislerestaurant.com", "state": "Oklahoma", "street": "1900 NW Expressway Ste 44"}, {"id": "262a1ab1-6ea6-445e-bd22-5d56d3877287", "name": "Bellefonte Brewing Co", "brewery_type": "micro", "address_1": "3605 Old Capitol Trl Unit C7/C8", "address_2": null, "address_3": null, "city": "Wilmington", "state_province": "Delaware", "postal_code": "19808-6043", "country": "United States", "longitude": null, "latitude": null, "phone": "3025401055", "website_url": "http://www.bellefontebrewingco.com", "state": "Delaware", "street": "3605 Old Capitol Trl Unit C7/C8"}, {"id": "098131e3-d4fb-4b66-b969-525867ea43e8", "name": "Bellevue Brewing Co", "brewery_type": "brewpub", "address_1": "1820 130th Ave NE # 2", "address_2": null, "address_3": null, "city": "Bellevue", "state_province": "Washington", "postal_code": "98005-2205", "country": "United States", "longitude": "-122.1669306", "latitude": "47.62658069", "phone": "4257850171", "website_url": "http://www.bellevuebrewing.com", "state": "Washington", "street": "1820 130th Ave NE # 2"}, {"id": "d91eef0b-b1b1-40f8-9895-b92c6e865027", "name": "Bellport Brewing Company", "brewery_type": "proprietor", "address_1": null, "address_2": null, "address_3": null, "city": "Rocky Point", "state_province": "New York", "postal_code": "11778-8986", "country": "United States", "longitude": null, "latitude": null, "phone": "6319094457", "website_url": "http://www.bellportbrewing.com", "state": "New York", "street": null}, {"id": "6c1b68ee-5a2c-4572-9412-aa97f5c174f6", "name": "Belltown Brewery", "brewery_type": "closed", "address_1": "200 Bell St", "address_2": null, "address_3": null, "city": "Seattle", "state_province": "Washington", "postal_code": "98121-1716", "country": "United States", "longitude": "-122.3456669", "latitude": "47.6142953", "phone": "2064857233", "website_url": "http://www.belltownbrewingseattle.com", "state": "Washington", "street": "200 Bell St"}, {"id": "7258dd32-e31a-42a1-ad47-68b29e59bfef", "name": "Bellwether Brewing Co", "brewery_type": "micro", "address_1": "2019 N Monroe St", "address_2": null, "address_3": null, "city": "Spokane", "state_province": "Washington", "postal_code": "99205-4542", "country": "United States", "longitude": "-117.4265497", "latitude": "47.67645574", "phone": "5092808345", "website_url": "http://www.bellwetherbrewing.net", "state": "Washington", "street": "2019 N Monroe St"}, {"id": "3a6fa1f2-5baa-48b0-ab62-17580ee59c80", "name": "Belly Love Brewing Company", "brewery_type": "brewpub", "address_1": "725 E Main St", "address_2": null, "address_3": null, "city": "Purcellville", "state_province": "Virginia", "postal_code": "20132-3178", "country": "United States", "longitude": "-77.7015903", "latitude": "39.1364247", "phone": "5404413159", "website_url": "http://www.bellylovebrewing.com", "state": "Virginia", "street": "725 E Main St"}, {"id": "1fcbc3b2-91be-4668-9519-e0ec141e1ec6", "name": "Belly Up Beer Company", "brewery_type": "micro", "address_1": null, "address_2": null, "address_3": null, "city": "Western Springs", "state_province": "Illinois", "postal_code": "60558", "country": "United States", "longitude": null, "latitude": null, "phone": "7088379762", "website_url": "http://www.bellyupbeer.com", "state": "Illinois", "street": null}, {"id": "b5c1920a-6015-4f9e-9ba6-58e654fe2138", "name": "Belmont Brewing Co", "brewery_type": "brewpub", "address_1": "25 39th Pl", "address_2": null, "address_3": null, "city": "Long Beach", "state_province": "California", "postal_code": "90803-2806", "country": "United States", "longitude": "-118.1480454", "latitude": "33.759551", "phone": "5624333891", "website_url": "http://www.belmontbrewing.com", "state": "California", "street": "25 39th Pl"}, {"id": "0825c760-b25e-4d4d-ac6f-67498bffe8f6", "name": "Below the Radar Brewing Co", "brewery_type": "brewpub", "address_1": "220 Holmes Ave NE", "address_2": null, "address_3": null, "city": "Huntsville", "state_province": "Alabama", "postal_code": "35801-4837", "country": "United States", "longitude": "-86.58583931", "latitude": "34.73272365", "phone": "2564696617", "website_url": "http://www.btrbrew.com", "state": "Alabama", "street": "220 Holmes Ave NE"}, {"id": "3e8bc011-fde9-480c-aed4-b1aa9a99fa57", "name": "Beltway Brewing Company", "brewery_type": "micro", "address_1": "22620 Davis Dr Ste 110", "address_2": null, "address_3": null, "city": "Sterling", "state_province": "Virginia", "postal_code": "20164-4470", "country": "United States", "longitude": "-77.4172876", "latitude": "38.9914289", "phone": "5719892739", "website_url": "http://www.beltwaybrewco.com", "state": "Virginia", "street": "22620 Davis Dr Ste 110"}, {"id": "e99c9fda-b861-4dc4-99bb-58b685654f4f", "name": "Bemidji Brewing Company", "brewery_type": "brewpub", "address_1": "211 America Ave NW", "address_2": null, "address_3": null, "city": "Bemidji", "state_province": "Minnesota", "postal_code": "56601-3176", "country": "United States", "longitude": "-94.88482747", "latitude": "47.4699022", "phone": "2184447011", "website_url": "http://www.bemidjibeer.com", "state": "Minnesota", "street": "211 America Ave NW"}, {"id": "80fb35c8-eef8-49f7-8d97-ed0a432d52c3", "name": "Ben's Brewing Station", "brewery_type": "micro", "address_1": "719 Walnut Street", "address_2": null, "address_3": null, "city": "Yankton", "state_province": "South Dakota", "postal_code": "57078-3542", "country": "United States", "longitude": "-97.39428007", "latitude": "42.8771861", "phone": "6056619090", "website_url": "http://www.bensbrewing.shop", "state": "South Dakota", "street": "719 Walnut Street"}, {"id": "db8a8a89-3084-4632-8215-36c9446426b5", "name": "Ben's Tune-Up / Ben's Beer", "brewery_type": "brewpub", "address_1": "195 Hilliard Ave", "address_2": null, "address_3": null, "city": "Asheville", "state_province": "North Carolina", "postal_code": "28801-3616", "country": "United States", "longitude": "-82.5557931", "latitude": "35.5912756", "phone": "8284247580", "website_url": "http://www.benstuneup.com", "state": "North Carolina", "street": "195 Hilliard Ave"}, {"id": "ef1075c7-0384-4bfe-8034-2ba2e99a5a0c", "name": "Benchmark Brewing Co", "brewery_type": "closed", "address_1": "6190 Fairmount Ave Ste G", "address_2": null, "address_3": null, "city": "San Diego", "state_province": "California", "postal_code": "92120-3428", "country": "United States", "longitude": "-117.1020694", "latitude": "32.78737066", "phone": "6197952911", "website_url": "http://www.benchmarkbrewing.com", "state": "California", "street": "6190 Fairmount Ave Ste G"}, {"id": "b644eedc-dda5-49a4-b05f-8baed4791d41", "name": "Benchtop Brewing Company", "brewery_type": "micro", "address_1": "1129 Boissevain Ave", "address_2": null, "address_3": null, "city": "Norfolk", "state_province": "Virginia", "postal_code": "23507-1401", "country": "United States", "longitude": "-76.30742245", "latitude": "36.86493389", "phone": "7573219482", "website_url": "http://www.benchtopbrewing.com", "state": "Virginia", "street": "1129 Boissevain Ave"}, {"id": "66d441d7-df24-4f32-83be-9a80d9d63951", "name": "Bend Brewing Co", "brewery_type": "brewpub", "address_1": "1019 NW Brooks St", "address_2": null, "address_3": null, "city": "Bend", "state_province": "Oregon", "postal_code": "97703-2018", "country": "United States", "longitude": "-121.3139312", "latitude": "44.06051115", "phone": "5413831599", "website_url": "http://www.bendbrewingco.com", "state": "Oregon", "street": "1019 NW Brooks St"}, {"id": "58d75aca-9aef-48d1-b81a-0d085c4f4da5", "name": "Bend Brewing High Desert", "brewery_type": "closed", "address_1": "20650 NE High Desert Lane", "address_2": null, "address_3": null, "city": "Bend", "state_province": "Oregon", "postal_code": "97701", "country": "United States", "longitude": "-121.2914842", "latitude": "44.08727607", "phone": "5413831599", "website_url": null, "state": "Oregon", "street": "20650 NE High Desert Lane"}, {"id": "2740427b-cb76-4b45-bb8d-364e82541041", "name": "Benford Brewing Co.", "brewery_type": "micro", "address_1": "2271 Boxcar Rd", "address_2": null, "address_3": null, "city": "Lancaster", "state_province": "South Carolina", "postal_code": "29720-9443", "country": "United States", "longitude": null, "latitude": null, "phone": null, "website_url": null, "state": "South Carolina", "street": "2271 Boxcar Rd"}, {"id": "71531995-c5a9-42fc-8e1e-04b3b57f13b5", "name": "Bengal Brewing, LLC.", "brewery_type": "planning", "address_1": null, "address_2": null, "address_3": null, "city": "Spring Lake Park", "state_province": "Minnesota", "postal_code": "55432-2802", "country": "United States", "longitude": null, "latitude": null, "phone": "6125188146", "website_url": "http://www.BengalBrewingLLC.com", "state": "Minnesota", "street": null}, {"id": "903f91f9-2c57-4909-87f7-fa268e44d454", "name": "Benjamin Beer Co", "brewery_type": "micro", "address_1": "507 6th St", "address_2": null, "address_3": null, "city": "Racine", "state_province": "Wisconsin", "postal_code": "53403-1117", "country": "United States", "longitude": "-87.78630172", "latitude": "42.72641512", "phone": "2625832034", "website_url": "http://www.benjaminbeer.com", "state": "Wisconsin", "street": "507 6th St"}, {"id": "74266e58-c60c-4eed-bb2a-e582ac87c18c", "name": "Bennidito's Brewpub", "brewery_type": "brewpub", "address_1": "1909 E Sprague Ave", "address_2": null, "address_3": null, "city": "Spokane", "state_province": "Washington", "postal_code": "99202-3120", "country": "United States", "longitude": "-117.2178526", "latitude": "47.6571208", "phone": "5092905018", "website_url": "http://www.benniditosbrewpub.com", "state": "Washington", "street": "1909 E Sprague Ave"}, {"id": "709f000d-826d-45e8-ab4f-c89137a58790", "name": "Benny Brewing Co.", "brewery_type": "micro", "address_1": "1429 Sans Souci Pkwy", "address_2": null, "address_3": null, "city": "Wilkes Barre", "state_province": "Pennsylvania", "postal_code": "18706-6025", "country": "United States", "longitude": null, "latitude": null, "phone": "5702356995", "website_url": "http://www.martysblueroom.com", "state": "Pennsylvania", "street": "1429 Sans Souci Pkwy"}, {"id": "d19a5bc3-75b2-4119-b18d-fec643a1a3bc", "name": "Benoit-Casper Brewing", "brewery_type": "micro", "address_1": "1201 Pennsylvania Ave Ste E", "address_2": null, "address_3": null, "city": "Richmond", "state_province": "California", "postal_code": "94801-2300", "country": "United States", "longitude": "-122.3578637", "latitude": "37.94244029", "phone": "4086953449", "website_url": "http://www.bcbrewing.com", "state": "California", "street": "1201 Pennsylvania Ave Ste E"}, {"id": "c74f06ec-3978-451b-88b4-92d813b11903", "name": "Benson Brewery", "brewery_type": "brewpub", "address_1": "6059 Maple St", "address_2": null, "address_3": null, "city": "Omaha", "state_province": "Nebraska", "postal_code": "68104-4050", "country": "United States", "longitude": "-96.00634511", "latitude": "41.28489756", "phone": "4029348668", "website_url": "http://www.bensonbrewery.com", "state": "Nebraska", "street": "6059 Maple St"}, {"id": "d246dbd2-5991-48f5-9e47-3bca8b6027f0", "name": "Bent Bine Brew Co. LLC", "brewery_type": "brewpub", "address_1": "23297 WA-3", "address_2": null, "address_3": null, "city": "Belfair", "state_province": "Washington", "postal_code": "98394", "country": "United States", "longitude": "-122.83223", "latitude": "47.445115", "phone": "8142739379", "website_url": "http://www.bentbine.com", "state": "Washington", "street": "23297 WA-3"}, {"id": "449a1e99-45aa-40d0-a3a8-d825919641d6", "name": "Bent Brewstillery", "brewery_type": "micro", "address_1": "1744 Terrace Dr", "address_2": null, "address_3": null, "city": "Roseville", "state_province": "Minnesota", "postal_code": "55113-1315", "country": "United States", "longitude": "-93.17364906", "latitude": "45.02557829", "phone": "8448792368", "website_url": "http://www.bentbrewstillery.com", "state": "Minnesota", "street": "1744 Terrace Dr"}, {"id": "f4431225-2c10-4479-9ece-0090a958c1c1", "name": "Bent Hill Brewery", "brewery_type": "micro", "address_1": "1972 Bent Hill Rd", "address_2": null, "address_3": null, "city": "Randolph", "state_province": "Vermont", "postal_code": "05060-8833", "country": "United States", "longitude": null, "latitude": null, "phone": "8022491125", "website_url": "http://www.benthilbrewery.com", "state": "Vermont", "street": "1972 Bent Hill Rd"}, {"id": "bdd49c54-8f0c-4e5f-8757-802bed30d8c9", "name": "Bent Kettle Brewing Company", "brewery_type": "micro", "address_1": "1507 Montclair Pl", "address_2": null, "address_3": null, "city": "Fort Atkinson", "state_province": "Wisconsin", "postal_code": "53538-3102", "country": "United States", "longitude": "-88.861232", "latitude": "42.9348495", "phone": "9203909038", "website_url": "http://www.bentkettle.com", "state": "Wisconsin", "street": "1507 Montclair Pl"}, {"id": "8b43bd7c-41f0-4865-a9cf-0d82a7b53dcb", "name": "Bent Paddle Brewing Co", "brewery_type": "regional", "address_1": "1912 W Michigan St", "address_2": null, "address_3": null, "city": "Duluth", "state_province": "Minnesota", "postal_code": "55806-2135", "country": "United States", "longitude": "-92.1219171", "latitude": "46.7676912", "phone": "2182792722", "website_url": "http://www.bentpaddlebrewing.com", "state": "Minnesota", "street": "1912 W Michigan St"}, {"id": "457f03ac-e315-4d9a-9a66-f091e90698da", "name": "Bent River Brewing Co", "brewery_type": "brewpub", "address_1": "1413 5th Ave", "address_2": null, "address_3": null, "city": "Moline", "state_province": "Illinois", "postal_code": "61265-1335", "country": "United States", "longitude": "-90.51736337", "latitude": "41.50590516", "phone": "3097972722", "website_url": "http://www.bentriverbrewing.com", "state": "Illinois", "street": "1413 5th Ave"}, {"id": "5e6cbfb1-f958-47d5-9a19-d8a639216888", "name": "Bent River Brewing Co", "brewery_type": "brewpub", "address_1": "500 Jefferson St", "address_2": null, "address_3": null, "city": "Burlington", "state_province": "Iowa", "postal_code": "52601", "country": "United States", "longitude": "-91.1052085", "latitude": "40.8106128", "phone": "3192092773", "website_url": "http://www.burlingtonbentriver.com", "state": "Iowa", "street": "500 Jefferson St"}, {"id": "c542eae9-6b85-4583-84c4-cba24c0cd68c", "name": "Bent River Brewing Co Production & Tasting Room", "brewery_type": "micro", "address_1": "512 24th St", "address_2": null, "address_3": null, "city": "Rock Island", "state_province": "Illinois", "postal_code": "61201-8928", "country": "United States", "longitude": "-90.5669283", "latitude": "41.5076339", "phone": "3092834811", "website_url": "http://www.bentriverbrewery.com", "state": "Illinois", "street": "512 24th St"}, {"id": "eeabc125-dc98-49cf-a9da-969ee820c348", "name": "Bent Run Brewing Co", "brewery_type": "brewpub", "address_1": "5607 SR 957", "address_2": null, "address_3": null, "city": "Lander", "state_province": "Pennsylvania", "postal_code": "16345", "country": "United States", "longitude": null, "latitude": null, "phone": "8147578269", "website_url": "http://www.bentrunbrewing.com", "state": "Pennsylvania", "street": "5607 SR 957"}, {"id": "2daabc96-c1c4-4bbc-a784-a0720a5c96c3", "name": "Bent Shovel Brewing", "brewery_type": "micro", "address_1": "21678 S Latourette Rd", "address_2": null, "address_3": null, "city": "Oregon City", "state_province": "Oregon", "postal_code": "97045-9453", "country": "United States", "longitude": "-122.421183", "latitude": "45.37878928", "phone": "5038980220", "website_url": "http://www.bentshovelbrewing.com", "state": "Oregon", "street": "21678 S Latourette Rd"}, {"id": "ec45b763-05a4-490d-8a78-956939c38c6e", "name": "Bent Shovel Brewing", "brewery_type": "micro", "address_1": "20179 S Springwater Rd", "address_2": "Estacada", "address_3": null, "city": "Oregon City", "state_province": "Oregon", "postal_code": "97023", "country": "United States", "longitude": "-122.3922913", "latitude": "45.31388797", "phone": "5038980220", "website_url": "http://www.bentshovelbrewing.com", "state": "Oregon", "street": "20179 S Springwater Rd"}, {"id": "05d4fc7f-58bc-4cc0-b5f8-c6829b0f6d86", "name": "Bent Water Brewing Company", "brewery_type": "micro", "address_1": "180 Commercial St Ste 18", "address_2": null, "address_3": null, "city": "Lynn", "state_province": "Massachusetts", "postal_code": "01905-3058", "country": "United States", "longitude": null, "latitude": null, "phone": null, "website_url": "http://www.bentwaterbrewing.com", "state": "Massachusetts", "street": "180 Commercial St Ste 18"}, {"id": "247d83f9-7df3-4842-afd7-4104946fb455", "name": "Bentonville Brewing Co", "brewery_type": "micro", "address_1": "1700 S 1st St", "address_2": null, "address_3": null, "city": "Rogers", "state_province": "Arkansas", "postal_code": "72756-5923", "country": "United States", "longitude": "-94.1178372", "latitude": "36.3168272", "phone": "4799037330", "website_url": "http://www.bentonvillebrewing.com", "state": "Arkansas", "street": "1700 S 1st St"}, {"id": "97ad3cff-f0ad-4ba3-94cd-f150d79c788d", "name": "Berchman's Brewing Company", "brewery_type": "closed", "address_1": "25 N Front St Ste 2", "address_2": null, "address_3": null, "city": "Yakima", "state_province": "Washington", "postal_code": "98901-2648", "country": "United States", "longitude": null, "latitude": null, "phone": "5099521058", "website_url": "http://berchmansbrewingcompany.com", "state": "Washington", "street": "25 N Front St Ste 2"}, {"id": "dcf991c9-6692-4346-a52a-b6e9ff25520e", "name": "Berkeley Springs Brewing Co", "brewery_type": "brewpub", "address_1": "110 Michigan Ln", "address_2": null, "address_3": null, "city": "Berkeley Springs", "state_province": "West Virginia", "postal_code": "25411-3008", "country": "United States", "longitude": "-78.271156", "latitude": "39.576782", "phone": "3042583369", "website_url": "http://www.berkeleyspringsbrewingcompany.com", "state": "West Virginia", "street": "110 Michigan Ln"}, {"id": "fdc796fe-ad16-4995-ad31-c7e896422d47", "name": "Berkley Beer Company", "brewery_type": "micro", "address_1": null, "address_2": null, "address_3": null, "city": "Berkley", "state_province": "Massachusetts", "postal_code": "02779-1101", "country": "United States", "longitude": null, "latitude": null, "phone": "5083269954", "website_url": "http://www.berkleybeer.com", "state": "Massachusetts", "street": null}, {"id": "3cbbbfeb-a69b-4cea-be92-f7ae2808a1eb", "name": "Berkshire Brewing Co Inc", "brewery_type": "regional", "address_1": "12 Railroad St", "address_2": null, "address_3": null, "city": "South Deerfield", "state_province": "Massachusetts", "postal_code": "01373-0096", "country": "United States", "longitude": "-72.61025086", "latitude": "42.47779797", "phone": "4136656600", "website_url": "http://www.Berkshire-Brewing.com", "state": "Massachusetts", "street": "12 Railroad St"}, {"id": "41962a71-dd2f-4aa8-9ec2-fd99dc0e684d", "name": "Berlin Brewing Company", "brewery_type": "micro", "address_1": "220 S White Horse Pike", "address_2": null, "address_3": null, "city": "Berlin", "state_province": "New Jersey", "postal_code": "08009-1902", "country": "United States", "longitude": "-74.92998973", "latitude": "39.79199228", "phone": "8563362038", "website_url": "http://www.berlinbrewco.com", "state": "New Jersey", "street": "220 S White Horse Pike"}, {"id": "6540698e-cf27-41e2-8175-c810b172160e", "name": "Berryessa Brewing Co", "brewery_type": "micro", "address_1": "27260 State Highway 128", "address_2": null, "address_3": null, "city": "Winters", "state_province": "California", "postal_code": "95694-9066", "country": "United States", "longitude": "-122.0032197", "latitude": "38.51383288", "phone": "5303042202", "website_url": "http://www.berryessabrewingco.com", "state": "California", "street": "27260 State Highway 128"}, {"id": "9e7c32bd-ac46-4e84-bfec-20a3be839c8e", "name": "Berthoud Brewing Company", "brewery_type": "micro", "address_1": "450 S 8th St Unit B", "address_2": null, "address_3": null, "city": "Berthoud", "state_province": "Colorado", "postal_code": "80513", "country": "United States", "longitude": null, "latitude": null, "phone": "9705329850", "website_url": "http://www.berthoudbrewing.com", "state": "Colorado", "street": "450 S 8th St Unit B"}, {"id": "c495b454-6bbb-4f13-adb9-05d88e03136a", "name": "Bertrams Salmon Valley Brewery", "brewery_type": "brewpub", "address_1": "535 Main St", "address_2": null, "address_3": null, "city": "Salmon", "state_province": "Idaho", "postal_code": "83467-4246", "country": "United States", "longitude": "-113.8932079", "latitude": "45.1751978", "phone": "2087563391", "website_url": "http://salmonvalleybrewery.com", "state": "Idaho", "street": "535 Main St"}, {"id": "6c10e5ba-1ebd-47b8-a4ce-c41603a6c662", "name": "Berts Brewing Co.", "brewery_type": "planning", "address_1": null, "address_2": null, "address_3": null, "city": "Orange", "state_province": "California", "postal_code": "92867-6942", "country": "United States", "longitude": "-117.8704931", "latitude": "33.7500378", "phone": "2069139711", "website_url": null, "state": "California", "street": null}, {"id": "8b33dd81-0c75-4be9-90c0-72d5ed79f436", "name": "Berwick Brewing Co", "brewery_type": "brewpub", "address_1": "328 W Front St", "address_2": null, "address_3": null, "city": "Berwick", "state_province": "Pennsylvania", "postal_code": "18603-4757", "country": "United States", "longitude": "-76.2381632", "latitude": "41.05243327", "phone": "5707524313", "website_url": "http://www.berwickbrewing.com", "state": "Pennsylvania", "street": "328 W Front St"}, {"id": "b635b07f-9dba-4619-ac00-f17ca8313c43", "name": "Bespoke Brewing Company", "brewery_type": "brewpub", "address_1": "242 Gap Rd", "address_2": null, "address_3": null, "city": "Ronks", "state_province": "Pennsylvania", "postal_code": "17572", "country": "United States", "longitude": null, "latitude": null, "phone": "7172882255", "website_url": "https://www.bespokebrewingco.com", "state": "Pennsylvania", "street": "242 Gap Rd"}, {"id": "6f148564-9296-4d6c-ac6b-44bad3765fd2", "name": "Best of Hands Barrelhouse", "brewery_type": "micro", "address_1": "7500 35th Ave SW", "address_2": null, "address_3": null, "city": "Seattle", "state_province": "Washington", "postal_code": "98126", "country": "United States", "longitude": "-122.3763875", "latitude": "47.53628883", "phone": "2067081166", "website_url": "https://www.bestofhandsbarrelhouse.com", "state": "Washington", "street": "7500 35th Ave SW"}, {"id": "45e5c569-1abb-496c-a961-9d2f2686b2d3", "name": "Bestens Brewery Ltd", "brewery_type": "taproom", "address_1": "Church Lane", "address_2": null, "address_3": null, "city": "Horsham", "state_province": "West Sussex", "postal_code": "RH13 6LU", "country": "England", "longitude": "-0.26049", "latitude": "51.041848", "phone": "1403892556", "website_url": "https://www.bestensbrewery.co.uk/", "state": "West Sussex", "street": "Church Lane"}, {"id": "8dcd6f88-53ee-4962-8558-bdaadade0da8", "name": "Better Half Brewing", "brewery_type": "closed", "address_1": "59 North Main St", "address_2": null, "address_3": null, "city": "Bristol", "state_province": "Connecticut", "postal_code": "06010", "country": "United States", "longitude": null, "latitude": null, "phone": "8602617062", "website_url": "https://www.betterhalfbrewing.com/", "state": "Connecticut", "street": "59 North Main St"}, {"id": "c86f788e-63b2-44e6-a469-4b2e3a04ba22", "name": "Bevel Craft Brewing", "brewery_type": "planning", "address_1": null, "address_2": null, "address_3": null, "city": "Bend", "state_province": "Oregon", "postal_code": "97701-4924", "country": "United States", "longitude": "-121.2917516", "latitude": "44.04614868", "phone": "8313451922", "website_url": "http://www.bevelbeer.com", "state": "Oregon", "street": null}, {"id": "957afb07-a6ff-4ba3-9288-820bf0e7b107", "name": "Bewilder Brewing Co", "brewery_type": "brewpub", "address_1": "445 S 400 W", "address_2": null, "address_3": null, "city": "Salt Lake City", "state_province": "Utah", "postal_code": "84101-2202", "country": "United States", "longitude": "-111.9017072", "latitude": "40.7594039", "phone": "3855283840", "website_url": "https://bewilderbrewing.com", "state": "Utah", "street": "445 S 400 W"}, {"id": "01e79aac-e955-4846-826e-1936e03bfd13", "name": "Beyond The Mountain Brewing Company", "brewery_type": "micro", "address_1": "6035 Longbow Dr Unit 109", "address_2": null, "address_3": null, "city": "Boulder", "state_province": "Colorado", "postal_code": "80301-3203", "country": "United States", "longitude": null, "latitude": null, "phone": "7574072346", "website_url": "http://www.btmbrewing.com", "state": "Colorado", "street": "6035 Longbow Dr Unit 109"}, {"id": "e5fc6a44-a2f0-4c19-82a7-cb160e3a7a86", "name": "Bhramari Brewhouse", "brewery_type": "micro", "address_1": "101 S Lexington Ave", "address_2": null, "address_3": null, "city": "Asheville", "state_province": "North Carolina", "postal_code": "28801-3309", "country": "United States", "longitude": "-82.55191879", "latitude": "35.59166763", "phone": "8282147981", "website_url": "http://www.bhramaribrewing.com", "state": "North Carolina", "street": "101 S Lexington Ave"}, {"id": "e29bb9cb-e459-4aab-b24d-390bc235f4b7", "name": "Bias Brewing", "brewery_type": "micro", "address_1": "409 1st Ave E Ste B", "address_2": null, "address_3": null, "city": "Kalispell", "state_province": "Montana", "postal_code": "59901", "country": "United States", "longitude": null, "latitude": null, "phone": "4067303020", "website_url": "http://www.biasbrewing.com", "state": "Montana", "street": "409 1st Ave E Ste B"}, {"id": "0f7cb775-114f-4c6f-ad6b-4a3552568d91", "name": "Bickerson's Brewhouse", "brewery_type": "micro", "address_1": "4710 NE 4th St #C105", "address_2": null, "address_3": null, "city": "Renton", "state_province": "Washington", "postal_code": "98059", "country": "United States", "longitude": "-122.1555405", "latitude": "47.48904979", "phone": "4254422347", "website_url": "https://www.bickersonsbrewhouse.com", "state": "Washington", "street": "4710 NE 4th St #C105"}, {"id": "11737bcc-a377-45ea-a0fd-8e2295429015", "name": "Bier Brewery and Taproom", "brewery_type": "micro", "address_1": "5133 E 65th St", "address_2": null, "address_3": null, "city": "Indianapolis", "state_province": "Indiana", "postal_code": "46220-4816", "country": "United States", "longitude": null, "latitude": null, "phone": "3176960200", "website_url": "http://www.bierbrewery.com", "state": "Indiana", "street": "5133 E 65th St"}, {"id": "6b5ae555-89e4-4363-baac-a21e3e93a5d1", "name": "Bier Distillery", "brewery_type": "micro", "address_1": "5295 West River Dr NE Ste 100", "address_2": null, "address_3": null, "city": "Comstock Park", "state_province": "Michigan", "postal_code": "49321-8030", "country": "United States", "longitude": null, "latitude": null, "phone": "6168889746", "website_url": "http://bierdistillery.com", "state": "Michigan", "street": "5295 West River Dr NE Ste 100"}, {"id": "c6f9f271-cdbd-4342-b2dd-8399a3cd6670", "name": "Bier One Brewing", "brewery_type": "brewpub", "address_1": "424 SW Coast Hwy", "address_2": null, "address_3": null, "city": "Newport", "state_province": "Oregon", "postal_code": "97365-4930", "country": "United States", "longitude": "-124.0572864", "latitude": "44.6330765", "phone": "5412654630", "website_url": "http://www.bier-one.com", "state": "Oregon", "street": "424 SW Coast Hwy"}, {"id": "4af8972b-a42f-43c7-a871-c28ba96f378a", "name": "Biercamp", "brewery_type": "brewpub", "address_1": "1643 S State St", "address_2": null, "address_3": null, "city": "Ann Arbor", "state_province": "Michigan", "postal_code": "48104-4302", "country": "United States", "longitude": "-83.740111", "latitude": "42.2586786", "phone": "7349952437", "website_url": "http://www.bier-camp.com", "state": "Michigan", "street": "1643 S State St"}, {"id": "701239cb-5319-4d2e-92c1-129ab0b3b440", "name": "Bi\u00e8re de la Plaine", "brewery_type": "micro", "address_1": "16 Rue Saint Pierre", "address_2": null, "address_3": null, "city": "Marseille", "state_province": "Bouche du Rh\u00f4ne", "postal_code": "13006", "country": "France", "longitude": "5.38767154", "latitude": "43.29366192", "phone": "491473254", "website_url": "https://brasseriedelaplaine.fr/", "state": "Bouche du Rh\u00f4ne", "street": "16 Rue Saint Pierre"}, {"id": "71ed116d-2a0c-405f-9595-66b00f37030d", "name": "Biere De Mac Brew Works", "brewery_type": "micro", "address_1": "14277 N Mackinaw Hwy", "address_2": null, "address_3": null, "city": "Mackinaw City", "state_province": "Michigan", "postal_code": "49701-8622", "country": "United States", "longitude": null, "latitude": null, "phone": "2314277007", "website_url": "http://www.bieredemac.com", "state": "Michigan", "street": "14277 N Mackinaw Hwy"}, {"id": "a7ea14a8-dc7d-4cd5-8314-7632451807fe", "name": "Bierly Brewing @ Eats and Treats", "brewery_type": "brewpub", "address_1": "1644 Main St", "address_2": null, "address_3": null, "city": "Philomath", "state_province": "Oregon", "postal_code": "97370-9237", "country": "United States", "longitude": "-123.3625416", "latitude": "44.539936", "phone": "5412575126", "website_url": null, "state": "Oregon", "street": "1644 Main St"}, {"id": "c3d41248-80ed-4c14-8078-c100308e5450", "name": "Bierstadt Lagerhaus", "brewery_type": "brewpub", "address_1": "2875 Blake St", "address_2": null, "address_3": null, "city": "Denver", "state_province": "Colorado", "postal_code": "80205-2210", "country": "United States", "longitude": "-104.9838084", "latitude": "39.7630094", "phone": "7205707824", "website_url": "http://www.bierstadtlager.com", "state": "Colorado", "street": "2875 Blake St"}, {"id": "58bbeef3-65a9-4cdf-b2f3-0acb2c53f1f8", "name": "BierWerks", "brewery_type": "brewpub", "address_1": "121 E. Midland Ave", "address_2": null, "address_3": null, "city": "Woodland Park", "state_province": "Colorado", "postal_code": "80863", "country": "United States", "longitude": "-105.0519462", "latitude": "38.9941414", "phone": "7196868100", "website_url": "http://www.bierwerks.com", "state": "Colorado", "street": "121 E. Midland Ave"}, {"id": "6baafd1a-3faf-41f6-bce8-7f9c223b2d1c", "name": "Big Alice Brewing Company", "brewery_type": "micro", "address_1": "808 43rd Rd", "address_2": null, "address_3": null, "city": "Long Island City", "state_province": "New York", "postal_code": "11101-6820", "country": "United States", "longitude": null, "latitude": null, "phone": "3476882337", "website_url": "http://www.bigalicebrewing.com", "state": "New York", "street": "808 43rd Rd"}, {"id": "97bb99d6-94da-4f54-8fe7-9d7d7f102556", "name": "Big Ash Brewing Company", "brewery_type": "planning", "address_1": null, "address_2": null, "address_3": null, "city": "Cincinnati", "state_province": "Ohio", "postal_code": "45244-3244", "country": "United States", "longitude": null, "latitude": null, "phone": "5133079688", "website_url": "http://www.BigAshBrewing.com", "state": "Ohio", "street": null}, {"id": "03fe4348-0e01-446b-81af-dda8167284e8", "name": "Big Axe Brewing Company", "brewery_type": "brewpub", "address_1": "25435 Main St", "address_2": null, "address_3": null, "city": "Nisswa", "state_province": "Minnesota", "postal_code": "56468-5001", "country": "United States", "longitude": "-94.2891095", "latitude": "46.5199477", "phone": "2189612337", "website_url": "http://www.bigaxebrewing.com", "state": "Minnesota", "street": "25435 Main St"}, {"id": "b9237ad4-42fd-43e1-a953-19fc451f9601", "name": "Big Barn Brewing Co / Bodacious Berries Fruits and Brews", "brewery_type": "micro", "address_1": "16004 N Applewood Ln", "address_2": null, "address_3": null, "city": "Mead", "state_province": "Washington", "postal_code": "99021-7818", "country": "United States", "longitude": "-117.266079", "latitude": "47.80652793", "phone": "5097102961", "website_url": "http://www.bigbarnbrewing.com", "state": "Washington", "street": "16004 N Applewood Ln"}, {"id": "1dc47da7-faa4-498f-8e97-e83e74d1c79d", "name": "Big Beach Brewing Company", "brewery_type": "micro", "address_1": "300 E 24th Ave", "address_2": null, "address_3": null, "city": "Gulf Shores", "state_province": "Alabama", "postal_code": "36542-3104", "country": "United States", "longitude": "-87.683039", "latitude": "30.278051", "phone": "2519482337", "website_url": "http://www.bigbeachbrewing.com", "state": "Alabama", "street": "300 E 24th Ave"}, {"id": "1a67833a-71e7-482e-9f85-9726583aceb7", "name": "Big Bear Brewing Co", "brewery_type": "brewpub", "address_1": "1800 N University Dr", "address_2": null, "address_3": null, "city": "Coral Springs", "state_province": "Florida", "postal_code": "33071-6031", "country": "United States", "longitude": "-80.2505088", "latitude": "26.2992083", "phone": "9543415545", "website_url": "http://www.bigbearbrewingco.com", "state": "Florida", "street": "1800 N University Dr"}, {"id": "6ce0f40e-a10e-4dde-82a6-c51662b2fe09", "name": "Big Bear Lake Brewing Co", "brewery_type": "brewpub", "address_1": "40827 Stone Rd", "address_2": null, "address_3": null, "city": "Big Bear Lake", "state_province": "California", "postal_code": "92315", "country": "United States", "longitude": "-116.9110287", "latitude": "34.2425583", "phone": "9098780283", "website_url": "http://www.bblbc.com", "state": "California", "street": "40827 Stone Rd"}, {"id": "08d14e79-430e-448f-a264-7bc200af83d5", "name": "Big Bear Mountain Brewery", "brewery_type": "brewpub", "address_1": "40260 Big Bear Blvd", "address_2": null, "address_3": null, "city": "Big Bear Lake", "state_province": "California", "postal_code": "92315", "country": "United States", "longitude": "-116.923042", "latitude": "34.23876062", "phone": "9098662337", "website_url": "http://www.mountainbrewery.com", "state": "California", "street": "40260 Big Bear Blvd"}, {"id": "1b8be5f6-7f57-4a6e-830a-3d565e2e03d7", "name": "Big Beaver Brewing Co", "brewery_type": "micro", "address_1": "2707 W Eisenhower Blvd Ste 9", "address_2": null, "address_3": null, "city": "Loveland", "state_province": "Colorado", "postal_code": "80537-3141", "country": "United States", "longitude": null, "latitude": null, "phone": "9708186064", "website_url": "http://www.bigbeaverbrew.com", "state": "Colorado", "street": "2707 W Eisenhower Blvd Ste 9"}, {"id": "5fe8f212-8c52-4183-85ff-687307298047", "name": "Big Bend Brewing Co", "brewery_type": "micro", "address_1": "3401 W Highway 90", "address_2": null, "address_3": null, "city": "Alpine", "state_province": "Texas", "postal_code": "79830-4127", "country": "United States", "longitude": null, "latitude": null, "phone": "4328373700", "website_url": "http://www.bigbendbrewing.com", "state": "Texas", "street": "3401 W Highway 90"}, {"id": "d05957b0-56af-4e14-8e32-326fa3769253", "name": "Big Block Brewing", "brewery_type": "micro", "address_1": "3310 E Lake Sammamish Pkwy SE", "address_2": null, "address_3": null, "city": "Sammamish", "state_province": "Washington", "postal_code": "98075", "country": "United States", "longitude": "-122.07474", "latitude": "47.57926212", "phone": "4254570515", "website_url": "https://www.bigblockbrewery.com/sammamish-taproom", "state": "Washington", "street": "3310 E Lake Sammamish Pkwy SE"}, {"id": "e4631ae5-8fbe-4576-8d03-cd284bec84cd", "name": "Big Block Brewing - Redmond Taproom", "brewery_type": "micro", "address_1": "14950 NE 95th St", "address_2": null, "address_3": null, "city": "Redmond", "state_province": "Washington", "postal_code": "98052", "country": "United States", "longitude": "-122.1410868", "latitude": "47.68654123", "phone": "4256583644", "website_url": "https://www.bigblockbrewery.com/redmond-taproom", "state": "Washington", "street": "14950 NE 95th St"}, {"id": "b9f816db-8d71-4be2-9370-5100c2b1257a", "name": "Big Blue Brewing", "brewery_type": "brewpub", "address_1": "4721 SE 10th Pl", "address_2": null, "address_3": null, "city": "Cape Coral", "state_province": "Florida", "postal_code": "33904-9168", "country": "United States", "longitude": "-81.95242639", "latitude": "26.56445895", "phone": "9737693294", "website_url": "http://www.bigbluebrewing.com", "state": "Florida", "street": "4721 SE 10th Pl"}, {"id": "5071d551-c086-4480-a57f-d2dbfcd7fbcc", "name": "Big Boiler Brewing", "brewery_type": "brewpub", "address_1": "318 E Main St", "address_2": null, "address_3": null, "city": "Lowell", "state_province": "Michigan", "postal_code": "49331-1714", "country": "United States", "longitude": "-85.33655351", "latitude": "42.93462931", "phone": "6169873155", "website_url": "http://bigboilerbrewing.com", "state": "Michigan", "street": "318 E Main St"}, {"id": "b1813df6-ffad-4604-b909-874bfb56e41b", "name": "Big Boss Brewing Co", "brewery_type": "micro", "address_1": "1249 Wicker Dr Ste A", "address_2": null, "address_3": null, "city": "Raleigh", "state_province": "North Carolina", "postal_code": "27604-1683", "country": "United States", "longitude": null, "latitude": null, "phone": "9198340045", "website_url": "http://www.bigbossbrewing.com", "state": "North Carolina", "street": "1249 Wicker Dr Ste A"}, {"id": "4dd9752b-954d-41fa-b899-c3e26aef7812", "name": "Big Bottom Brewery", "brewery_type": "micro", "address_1": "6 Tristan Dr", "address_2": null, "address_3": null, "city": "Dillsburg", "state_province": "Pennsylvania", "postal_code": "17019-1627", "country": "United States", "longitude": null, "latitude": null, "phone": "7175028800", "website_url": "http://www.facebook.com/bigbottombrewery", "state": "Pennsylvania", "street": "6 Tristan Dr"}, {"id": "b203b9a5-a84a-461f-a64a-938adf44a7d4", "name": "Big Cat Brewing Company", "brewery_type": "brewpub", "address_1": "8699 S Good Harbor Trl", "address_2": null, "address_3": null, "city": "Cedar", "state_province": "Michigan", "postal_code": "49621-8580", "country": "United States", "longitude": "-85.79311511", "latitude": "44.85319287", "phone": "2312282282", "website_url": "http://www.bigcatbrewingco.com", "state": "Michigan", "street": "8699 S Good Harbor Trl"}, {"id": "b2ad6e2c-1bdc-45df-a0bc-c8e075949e75", "name": "Big Choice Brewing Co", "brewery_type": "micro", "address_1": "21 S 1st Ave", "address_2": null, "address_3": null, "city": "Brighton", "state_province": "Colorado", "postal_code": "80601-1603", "country": "United States", "longitude": "-104.822433", "latitude": "39.98642943", "phone": "3034692616", "website_url": "http://www.bigchoicebrewing.com", "state": "Colorado", "street": "21 S 1st Ave"}, {"id": "8c42a9fc-a6c9-4c26-a0d3-0bf8c94be918", "name": "Big Data Brewing Company LLC", "brewery_type": "planning", "address_1": null, "address_2": null, "address_3": null, "city": "Sterling", "state_province": "Virginia", "postal_code": "20165-7227", "country": "United States", "longitude": null, "latitude": null, "phone": "5713088293", "website_url": "http://www.bigdatabrewco.com/", "state": "Virginia", "street": null}, {"id": "5db014b6-be92-4c4d-b95e-f5156550ad05", "name": "Big Ditch Brewing Company", "brewery_type": "micro", "address_1": "55 E Huron St", "address_2": null, "address_3": null, "city": "Buffalo", "state_province": "New York", "postal_code": "14203-1632", "country": "United States", "longitude": "-78.8709352", "latitude": "42.888031", "phone": "7168545050", "website_url": "http://www.bigditchbrewing.com", "state": "New York", "street": "55 E Huron St"}, {"id": "2c048f27-d9fc-4117-ae9a-c3c79ea2470e", "name": "Big Dog's Brewing Co", "brewery_type": "brewpub", "address_1": "4547 N Rancho Dr Ste A", "address_2": null, "address_3": null, "city": "Las Vegas", "state_province": "Nevada", "postal_code": "89130-3432", "country": "United States", "longitude": null, "latitude": null, "phone": "7023683715", "website_url": "http://www.bigdogsbrews.com", "state": "Nevada", "street": "4547 N Rancho Dr Ste A"}, {"id": "36840152-444d-4615-b422-752e0e0bf044", "name": "Big Draft Brewing", "brewery_type": "micro", "address_1": "697 Main St E", "address_2": null, "address_3": null, "city": "White Sulphur Springs", "state_province": "West Virginia", "postal_code": "24986-3003", "country": "United States", "longitude": "-80.3001175", "latitude": "37.7945598", "phone": "3049152442", "website_url": "https://bigdraftbrewing.com/", "state": "West Virginia", "street": "697 Main St E"}, {"id": "0aff7bc2-29eb-4127-b80c-d5fc3e05274a", "name": "Big Elm Brewing", "brewery_type": "micro", "address_1": "65 Silver St", "address_2": null, "address_3": null, "city": "Sheffield", "state_province": "Massachusetts", "postal_code": "01257", "country": "United States", "longitude": "-73.351236", "latitude": "42.093595", "phone": "4132292348", "website_url": "http://www.bigelmbrewery.com", "state": "Massachusetts", "street": "65 Silver St"}, {"id": "4e558cde-490f-4c49-b0c0-28d3abb9458b", "name": "Big Frog Brewing Company", "brewery_type": "micro", "address_1": "2122 Dayton Blvd", "address_2": null, "address_3": null, "city": "Red Bank", "state_province": "Tennessee", "postal_code": "37415-6414", "country": "United States", "longitude": "-85.31017603", "latitude": "35.0916037", "phone": "4238039046", "website_url": "http://www.bigfrogbrewery.com", "state": "Tennessee", "street": "2122 Dayton Blvd"}, {"id": "b1040378-9992-4329-90d8-989fabdf5097", "name": "Big Grove Brewery", "brewery_type": "micro", "address_1": "1225 S Gilbert St", "address_2": null, "address_3": null, "city": "Iowa City", "state_province": "Iowa", "postal_code": "52240-4507", "country": "United States", "longitude": "-91.53189828", "latitude": "41.64713299", "phone": "3195941891", "website_url": "http://www.biggrovebrewery.com", "state": "Iowa", "street": "1225 S Gilbert St"}, {"id": "7541c361-f556-481e-905f-172dab289cce", "name": "Big Grove Brewery & Tap Room", "brewery_type": "brewpub", "address_1": "1225 S Gilbert St", "address_2": null, "address_3": null, "city": "Iowa City", "state_province": "Iowa", "postal_code": "52240-4507", "country": "United States", "longitude": "-91.53189828", "latitude": "41.64713299", "phone": "3196242337", "website_url": null, "state": "Iowa", "street": "1225 S Gilbert St"}, {"id": "f59742d0-8848-414d-a1e1-59b428315374", "name": "Big Hart Brewing Company", "brewery_type": "brewpub", "address_1": "4086 W Polk Rd", "address_2": null, "address_3": null, "city": "Hart", "state_province": "Michigan", "postal_code": "49420-8172", "country": "United States", "longitude": null, "latitude": null, "phone": "2313018226", "website_url": "http://www.bighartbrewing.com", "state": "Michigan", "street": "4086 W Polk Rd"}, {"id": "eefcf946-59e2-4ad0-ac41-955cffa9f701", "name": "Big Head Brewing Co.", "brewery_type": "micro", "address_1": "6204 W State St", "address_2": null, "address_3": null, "city": "Milwaukee", "state_province": "Wisconsin", "postal_code": "53213-2906", "country": "United States", "longitude": "-87.9201437", "latitude": "43.0429687", "phone": "6082359636", "website_url": "http://www.bigheadbrewingco.com", "state": "Wisconsin", "street": "6204 W State St"}, {"id": "f5a551d7-6af0-418e-bec2-0f16044bb3f2", "name": "Big Horse Brewpub", "brewery_type": "brewpub", "address_1": "115 State St", "address_2": null, "address_3": null, "city": "Hood River", "state_province": "Oregon", "postal_code": "97031-2315", "country": "United States", "longitude": "-121.5120956", "latitude": "45.7079528", "phone": "5413864411", "website_url": "http://www.bighorsebrewpub.com", "state": "Oregon", "street": "115 State St"}, {"id": "dcc9cdb6-415f-4783-aa42-c5cfb7664dc6", "name": "Big Inlet Brewing", "brewery_type": "planning", "address_1": null, "address_2": null, "address_3": null, "city": "Mayville", "state_province": "New York", "postal_code": "14757-9730", "country": "United States", "longitude": null, "latitude": null, "phone": "7165737564", "website_url": "http://www.biginletbrewing.com", "state": "New York", "street": null}, {"id": "d2699492-6d8c-492d-a52d-e71342e717ca", "name": "Big Island Brewhaus", "brewery_type": "brewpub", "address_1": "64-1066 Mamalahoa Hwy Unit 5", "address_2": null, "address_3": null, "city": "Kamuela", "state_province": "Hawaii", "postal_code": "96743-7309", "country": "United States", "longitude": "-155.661471", "latitude": "20.025552", "phone": "8088871717", "website_url": "http://www.bigislandbrewhaus.com", "state": "Hawaii", "street": "64-1066 Mamalahoa Hwy Unit 5"}, {"id": "4383b079-c8fe-49c0-9999-9ff23a8f4f8e", "name": "Big Lake Brewing", "brewery_type": "micro", "address_1": "13 W 7th St", "address_2": null, "address_3": null, "city": "Holland", "state_province": "Michigan", "postal_code": "49423-2821", "country": "United States", "longitude": "-86.10791587", "latitude": "42.79149405", "phone": "6167968888", "website_url": "http://www.biglakebrewing.com", "state": "Michigan", "street": "13 W 7th St"}, {"id": "0a229c47-5c8f-46e8-bf5c-e9866e006341", "name": "Big Lake Brewing Production Facility", "brewery_type": "micro", "address_1": "166 E 19th St", "address_2": null, "address_3": null, "city": "Holland", "state_province": "Michigan", "postal_code": "49423-4230", "country": "United States", "longitude": "-86.09988824", "latitude": "42.78029471", "phone": null, "website_url": null, "state": "Michigan", "street": "166 E 19th St"}, {"id": "4445772e-e9d6-41c3-80cd-d5f4b70e7825", "name": "Big Leaf Brewing", "brewery_type": "micro", "address_1": "1320 Durkees Ferry Rd", "address_2": null, "address_3": null, "city": "West Terre Haute", "state_province": "Indiana", "postal_code": "47885-9626", "country": "United States", "longitude": null, "latitude": null, "phone": "8122812187", "website_url": null, "state": "Indiana", "street": "1320 Durkees Ferry Rd"}, {"id": "eccf5719-1dea-4661-b675-e862c8f3d475", "name": "Big Lick Brewing Company", "brewery_type": "micro", "address_1": "409 Salem Ave SW", "address_2": null, "address_3": null, "city": "Roanoke", "state_province": "Virginia", "postal_code": "24016", "country": "United States", "longitude": "-79.94873144", "latitude": "37.2724144", "phone": "5405628383", "website_url": "http://www.biglickbrewingco.com", "state": "Virginia", "street": "409 Salem Ave SW"}, {"id": "36215801-9e64-49fa-9ad8-b80649d7de07", "name": "Big Lost Meadery and Brewery", "brewery_type": "micro", "address_1": "106 S Gillette Ave", "address_2": null, "address_3": null, "city": "Gillette", "state_province": "Wyoming", "postal_code": "82716", "country": "United States", "longitude": "-105.5046114", "latitude": "44.2866583", "phone": "3076603199", "website_url": "http://www.biglostmeadery.com", "state": "Wyoming", "street": "106 S Gillette Ave"}, {"id": "f00adb8d-12dc-45ef-852e-57d10d79f7ff", "name": "Big Lug Canteen", "brewery_type": "brewpub", "address_1": "1435 E 86th St", "address_2": null, "address_3": null, "city": "Indianapolis", "state_province": "Indiana", "postal_code": "46240-1911", "country": "United States", "longitude": "-86.079957", "latitude": "39.912628", "phone": null, "website_url": null, "state": "Indiana", "street": "1435 E 86th St"}, {"id": "13508268-325c-40ae-b1da-c7a4a295c6cb", "name": "Big Muddy Brewing Co", "brewery_type": "micro", "address_1": "1430 N 7th St", "address_2": null, "address_3": null, "city": "Murphysboro", "state_province": "Illinois", "postal_code": "62966-3938", "country": "United States", "longitude": "-89.33204055", "latitude": "37.78182292", "phone": "6186848833", "website_url": "http://www.bigmuddybrewing.com", "state": "Illinois", "street": "1430 N 7th St"}, {"id": "62b7e476-a41e-4d17-a57a-e3658fc9224c", "name": "Big Rack Brew Haus", "brewery_type": "micro", "address_1": "2475 Hiatt Apple Trl", "address_2": null, "address_3": null, "city": "Winterset", "state_province": "Iowa", "postal_code": "50273-8113", "country": "United States", "longitude": "-93.923386", "latitude": "41.286503", "phone": null, "website_url": "http://www.bigrackbrewhaus.com", "state": "Iowa", "street": "2475 Hiatt Apple Trl"}, {"id": "068bdaad-c6e9-47b2-a3f8-fbdf24c059b6", "name": "Big Rip Brewing Company", "brewery_type": "micro", "address_1": "216 E 9th Ave", "address_2": null, "address_3": null, "city": "North Kansas City", "state_province": "Missouri", "postal_code": "64116-4315", "country": "United States", "longitude": "-94.57786", "latitude": "39.1261133", "phone": "8168660747", "website_url": "http://www.bigripbrewing.com", "state": "Missouri", "street": "216 E 9th Ave"}, {"id": "8db35211-a4ca-44d7-a6dd-a31c3e2ead66", "name": "Big River Brewery, LLC", "brewery_type": "micro", "address_1": "505 W Nolana Loop", "address_2": null, "address_3": null, "city": "Pharr", "state_province": "Texas", "postal_code": "78577-8345", "country": "United States", "longitude": null, "latitude": null, "phone": "9565661455", "website_url": null, "state": "Texas", "street": "505 W Nolana Loop"}, {"id": "002012b4-afef-4e35-95bf-56930dbc599e", "name": "Big River Grille & Brewing Works - Chattanooga", "brewery_type": "brewpub", "address_1": "222 Broad St", "address_2": null, "address_3": null, "city": "Chattanooga", "state_province": "Tennessee", "postal_code": "37402-1009", "country": "United States", "longitude": "-85.31070875", "latitude": "35.05387554", "phone": "4232672739", "website_url": "http://www.craftworksrestaurants.com", "state": "Tennessee", "street": "222 Broad St"}, {"id": "077585a3-1bbb-46fa-90ac-6494765afc75", "name": "Big River Grille & Brewing Works - Disney", "brewery_type": "brewpub", "address_1": "2101 Epcot Resorts Blvd", "address_2": null, "address_3": null, "city": "Lake Buena Vista", "state_province": "Florida", "postal_code": "32830-8442", "country": "United States", "longitude": null, "latitude": null, "phone": "4075600253", "website_url": "http://www.craftworksrestaurants.com", "state": "Florida", "street": "2101 Epcot Resorts Blvd"}, {"id": "f0570db4-92b3-4b86-8b98-9628d917ffcc", "name": "Big Rock Chop House & Brewery", "brewery_type": "contract", "address_1": "245 S Eton St", "address_2": null, "address_3": null, "city": "Birmingham", "state_province": "Michigan", "postal_code": "48009-6577", "country": "United States", "longitude": "-83.19603911", "latitude": "42.54693868", "phone": "2486477774", "website_url": "http://www.bigrockchophouse.com", "state": "Michigan", "street": "245 S Eton St"}, {"id": "6f458334-b27f-4637-bbef-08902a118637", "name": "Big Sexy Brewing Company", "brewery_type": "micro", "address_1": "5861 88th St Ste 800", "address_2": null, "address_3": null, "city": "Sacramento", "state_province": "California", "postal_code": "95828-1131", "country": "United States", "longitude": "-121.3757237", "latitude": "38.52149864", "phone": "9163747332", "website_url": "http://www.bigsexybrewing.com", "state": "California", "street": "5861 88th St Ste 800"}, {"id": "96e9ab03-28cd-4240-9ad6-5e49f716d1a0", "name": "Big Sioux Brewing Company", "brewery_type": "planning", "address_1": null, "address_2": null, "address_3": null, "city": "Humboldt", "state_province": "South Dakota", "postal_code": "57035-6106", "country": "United States", "longitude": null, "latitude": null, "phone": null, "website_url": null, "state": "South Dakota", "street": null}]