[{"id": "e5992621-3c91-4968-b913-85972aa66fbb", "name": "6 Bears & A Goat Brewing Company, LLC", "brewery_type": "brewpub", "address_1": "1140 International Pkwy", "address_2": null, "address_3": null, "city": "Fredericksburg", "state_province": "Virginia", "postal_code": "22406-1126", "country": "United States", "longitude": null, "latitude": null, "phone": "54035690562", "website_url": "http://www.6bgbrewingco.com", "state": "Virginia", "street": "1140 International Pkwy"}, {"id": "76ee21a3-d4bd-4526-9ef8-5a23a4507566", "name": "6 Bridges Brewing", "brewery_type": "planning", "address_1": null, "address_2": null, "address_3": null, "city": "Johns Creek", "state_province": "Georgia", "postal_code": "30097", "country": "United States", "longitude": null, "latitude": null, "phone": "7708460292", "website_url": "http://www.sixbridgesbrewing.com", "state": "Georgia", "street": null}, {"id": "6f431fe7-b136-444b-84e3-3a2042903d93", "name": "6 Degrees of Separation", "brewery_type": "brewpub", "address_1": "35 Main St", "address_2": null, "address_3": null, "city": "Ossining", "state_province": "New York", "postal_code": "10562-4662", "country": "United States", "longitude": "-73.86768188", "latitude": "41.15866213", "phone": "9144325969", "website_url": "http://www.6degreesbp.com", "state": "New York", "street": "35 Main St"}, {"id": "ddf69cff-978e-47b6-b42e-75f102418bd0", "name": "603 Brewery", "brewery_type": "micro", "address_1": "12 Liberty Dr Unit 7", "address_2": null, "address_3": null, "city": "Londonderry", "state_province": "New Hampshire", "postal_code": "03053-2286", "country": "United States", "longitude": null, "latitude": null, "phone": "6036307745", "website_url": "http://www.603brewery.com", "state": "New Hampshire", "street": "12 Liberty Dr Unit 7"}, {"id": "62871bbc-a963-4c09-9eff-eb36ade49fd7", "name": "608 Brewing Company", "brewery_type": "planning", "address_1": null, "address_2": null, "address_3": null, "city": "La Crosse", "state_province": "Wisconsin", "postal_code": "54603", "country": "United States", "longitude": null, "latitude": null, "phone": null, "website_url": "http://www.608brewingcompany.com", "state": "Wisconsin", "street": null}, {"id": "f3e9ba4b-0246-44ac-9170-f095d19e8d64", "name": "612 Brew", "brewery_type": "micro", "address_1": "945 Broadway St NE", "address_2": null, "address_3": null, "city": "Minneapolis", "state_province": "Minnesota", "postal_code": "55413-1471", "country": "United States", "longitude": "-93.2062058", "latitude": "45.000631", "phone": "6129648939", "website_url": "http://www.612brew.com", "state": "Minnesota", "street": "945 Broadway St NE"}, {"id": "af6cb069-b61a-4c69-8fd2-0a5f87c11a17", "name": "6th and La Brea", "brewery_type": "brewpub", "address_1": "600 South La Brea Ave", "address_2": null, "address_3": null, "city": "Los Angeles", "state_province": "California", "postal_code": "90036", "country": "United States", "longitude": "-118.3440213", "latitude": "34.0730485", "phone": null, "website_url": "http://www.6thlabrea.com", "state": "California", "street": "600 South La Brea Ave"}, {"id": "6a928a00-bf8e-4481-ae27-a2a5b14f56e2", "name": "7 Devils Brewing Co", "brewery_type": "brewpub", "address_1": "247 S 2nd St", "address_2": null, "address_3": null, "city": "Coos Bay", "state_province": "Oregon", "postal_code": "97420-1642", "country": "United States", "longitude": "-124.2147508", "latitude": "43.36654751", "phone": "5418083738", "website_url": "http://www.7devilsbrewery.com", "state": "Oregon", "street": "247 S 2nd St"}, {"id": "8824022a-0fd9-4727-b6fa-b7aaf65eb043", "name": "7 Hermits Brewing Company", "brewery_type": "brewpub", "address_1": "PO Box 3186", "address_2": null, "address_3": null, "city": "Eagle", "state_province": "Colorado", "postal_code": "81631-3186", "country": "United States", "longitude": null, "latitude": null, "phone": "9704714979", "website_url": "http://www.7hermitsbrewing.com", "state": "Colorado", "street": "PO Box 3186"}, {"id": "e861ea88-9815-48a0-84ba-d2a1929178e7", "name": "7 Hills Brewing Company", "brewery_type": "brewpub", "address_1": "1085 Washington St", "address_2": null, "address_3": null, "city": "Dubuque", "state_province": "Iowa", "postal_code": "52001-4932", "country": "United States", "longitude": "-90.6635263", "latitude": "42.5045556", "phone": "5635878306", "website_url": "http://www.7hillsbrew.com", "state": "Iowa", "street": "1085 Washington St"}, {"id": "4e84a8d0-0d52-431e-a57a-da8977625bd2", "name": "7 Locks Brewing", "brewery_type": "micro", "address_1": "12227 Wilkins Ave", "address_2": null, "address_3": null, "city": "Rockville", "state_province": "Maryland", "postal_code": "20852-1833", "country": "United States", "longitude": null, "latitude": null, "phone": "3018417123", "website_url": "http://www.7locksbrewing.com", "state": "Maryland", "street": "12227 Wilkins Ave"}, {"id": "84c84db6-1120-4106-a5d3-fd65b9d7303d", "name": "7 Mile Brewery", "brewery_type": "micro", "address_1": "3156 Route 9 South Ste 1-2", "address_2": null, "address_3": null, "city": "Rio Grande", "state_province": "New Jersey", "postal_code": "08242", "country": "United States", "longitude": null, "latitude": null, "phone": "6093657777", "website_url": "http://www.7milebrew.com", "state": "New Jersey", "street": "3156 Route 9 South Ste 1-2"}, {"id": "745b65a8-d682-465c-a418-0188ce5878c2", "name": "7 Seas Brewing Co", "brewery_type": "micro", "address_1": "2101 Jefferson Ave", "address_2": null, "address_3": null, "city": "Tacoma", "state_province": "Washington", "postal_code": "98402-1519", "country": "United States", "longitude": "-122.4390379", "latitude": "47.242614", "phone": "2535727771", "website_url": "http://www.7seasbrewing.com", "state": "Washington", "street": "2101 Jefferson Ave"}, {"id": "a1199657-e4a9-496b-88c3-999f9e7e97e9", "name": "7 Sins Brewery", "brewery_type": "micro", "address_1": "10593 W Main Rd", "address_2": null, "address_3": null, "city": "Ripley", "state_province": "New York", "postal_code": "14775-9746", "country": "United States", "longitude": "-79.7497349", "latitude": "42.24869073", "phone": "7165812090", "website_url": "http://www.7sinsbrewery.com", "state": "New York", "street": "10593 W Main Rd"}, {"id": "a3a1eac7-b858-4bdd-81ac-c2099b717da2", "name": "7 Sisters Brewing Co", "brewery_type": "brewpub", "address_1": "181 Tank Farm Rd Ste 110", "address_2": null, "address_3": null, "city": "San Luis Obispo", "state_province": "California", "postal_code": "93401-7082", "country": "United States", "longitude": "-120.6706375", "latitude": "35.2467278", "phone": "8058687133", "website_url": "http://www.7sistersbrewing.com", "state": "California", "street": "181 Tank Farm Rd Ste 110"}, {"id": "3f3220f8-75f8-4fea-a5a4-289aa3267f11", "name": "718BrewCafe, LLP", "brewery_type": "brewpub", "address_1": "718 Market St", "address_2": null, "address_3": null, "city": "Metropolis", "state_province": "Illinois", "postal_code": "62960-1634", "country": "United States", "longitude": "-88.73129158", "latitude": "37.15373334", "phone": "6185247180", "website_url": "http://www.718BrewCafe.com", "state": "Illinois", "street": "718 Market St"}, {"id": "c00f57cf-acdd-46da-9269-d182cb87a7e4", "name": "734 Brewing Company", "brewery_type": "micro", "address_1": "15 E Cross St", "address_2": null, "address_3": null, "city": "Ypsilanti", "state_province": "Michigan", "postal_code": "48198", "country": "United States", "longitude": "-83.61103475", "latitude": "42.24586784", "phone": "7346496453", "website_url": null, "state": "Michigan", "street": "15 E Cross St"}, {"id": "66a91db6-7d2a-4d67-a720-7f924cae3571", "name": "7th Settlement Brewery", "brewery_type": "brewpub", "address_1": "47 Washington St", "address_2": null, "address_3": null, "city": "Dover", "state_province": "New Hampshire", "postal_code": "03820-3877", "country": "United States", "longitude": "-70.8728379", "latitude": "43.1953787", "phone": "6033731001", "website_url": "http://www.7thsettlement.com", "state": "New Hampshire", "street": "47 Washington St"}, {"id": "c7b3260a-b441-4dc8-958f-34c045e26f22", "name": "7th Wave Brewing", "brewery_type": "micro", "address_1": "120 N Meadows Rd Ste 8", "address_2": null, "address_3": null, "city": "Medfield", "state_province": "Massachusetts", "postal_code": "02052-1594", "country": "United States", "longitude": null, "latitude": null, "phone": "6176453397", "website_url": "http://www.7thwavebrewing.com", "state": "Massachusetts", "street": "120 N Meadows Rd Ste 8"}, {"id": "c179a049-9988-4640-821d-ddf349cdd87e", "name": "7venth Sun Brewery", "brewery_type": "micro", "address_1": "1012 Broadway", "address_2": null, "address_3": null, "city": "Dunedin", "state_province": "Florida", "postal_code": "34698-5762", "country": "United States", "longitude": null, "latitude": null, "phone": "7277333013", "website_url": "http://www.7venthsun.com", "state": "Florida", "street": "1012 Broadway"}, {"id": "f1b9daa7-cb17-498a-b784-e2ff41b4257f", "name": "BLUE RIDGE BREWING", "brewery_type": "planning", "address_1": null, "address_2": null, "address_3": null, "city": "Malta", "state_province": "Montana", "postal_code": "59538", "country": "United States", "longitude": null, "latitude": null, "phone": "4066542855", "website_url": null, "state": "Montana", "street": null}, {"id": "c6a766f9-a187-4e5b-9519-6c737ce0cde5", "name": "8 Bit Brewing Company", "brewery_type": "brewpub", "address_1": "26755 Jefferson Ave Ste F", "address_2": null, "address_3": null, "city": "Murrieta", "state_province": "California", "postal_code": "92562-6941", "country": "United States", "longitude": "-117.1762542", "latitude": "33.53033448", "phone": "9516772322", "website_url": "http://www.8bitbrewerycompany.com", "state": "California", "street": "26755 Jefferson Ave Ste F"}, {"id": "eef94d73-65e8-4d94-b1de-0d4b45efe090", "name": "8-Bit Aleworks", "brewery_type": "micro", "address_1": "1050 N Fairway Dr Bldg F Ste 10", "address_2": null, "address_3": null, "city": "Avondale", "state_province": "Arizona", "postal_code": "85323-5206", "country": "United States", "longitude": null, "latitude": null, "phone": "6239251650", "website_url": "http://www.8-bitaleworks.com", "state": "Arizona", "street": "1050 N Fairway Dr Bldg F Ste 10"}, {"id": "745272b9-5d04-4468-b1f7-e76a75c22de9", "name": "81 Artisan", "brewery_type": "micro", "address_1": "Chilgrove Road", "address_2": "Lavant", "address_3": null, "city": "Chichester", "state_province": "West Sussex", "postal_code": "PO18 9HP", "country": "England", "longitude": "-0.81111", "latitude": "50.89212", "phone": "7990035736", "website_url": "https://81artisan.com/", "state": "West Sussex", "street": "Chilgrove Road"}, {"id": "783c5daa-ea5c-4462-836e-c2846ad3ff4e", "name": "81Bay Brewing Company", "brewery_type": "micro", "address_1": "4465 W Gandy Blvd Ste 600", "address_2": null, "address_3": null, "city": "Tampa", "state_province": "Florida", "postal_code": "33611-3379", "country": "United States", "longitude": null, "latitude": null, "phone": "8133722739", "website_url": "http://81baybrewco.com", "state": "Florida", "street": "4465 W Gandy Blvd Ste 600"}, {"id": "187f0cfc-1433-4d8c-89c0-5b4151504a71", "name": "841 Brewhouse", "brewery_type": "brewpub", "address_1": "841 E Milwaukee St", "address_2": null, "address_3": null, "city": "Whitewater", "state_province": "Wisconsin", "postal_code": "53190-2126", "country": "United States", "longitude": "-88.71427344", "latitude": "42.8323014", "phone": "2624738000", "website_url": null, "state": "Wisconsin", "street": "841 E Milwaukee St"}, {"id": "3055793c-9330-4fe1-958b-fef6d2a0e057", "name": "8one8 Brewing Company", "brewery_type": "micro", "address_1": "8951 de Soto Ave", "address_2": null, "address_3": null, "city": "Canoga Park", "state_province": "California", "postal_code": "91304-5901", "country": "United States", "longitude": "-118.5885323", "latitude": "34.2218019", "phone": "8188352286", "website_url": "http://www.818brewing.com", "state": "California", "street": "8951 de Soto Ave"}, {"id": "2d880e85-5b0f-447b-b1b2-5bcae8a4b130", "name": "8th Street Ale Haus", "brewery_type": "brewpub", "address_1": "1132 N 8th St", "address_2": null, "address_3": null, "city": "Sheboygan", "state_province": "Wisconsin", "postal_code": "53081-3402", "country": "United States", "longitude": "-87.71305702", "latitude": "43.75674392", "phone": "9202087540", "website_url": "http://www.sheboyganalehaus.com", "state": "Wisconsin", "street": "1132 N 8th St"}, {"id": "1682e94f-73ba-4035-93be-1fb28bb2cee7", "name": "8th Ward Brewing Company", "brewery_type": "planning", "address_1": null, "address_2": null, "address_3": null, "city": "Poughkeepsie", "state_province": "New York", "postal_code": "12603-3401", "country": "United States", "longitude": null, "latitude": null, "phone": null, "website_url": null, "state": "New York", "street": null}, {"id": "c2bc693f-906a-46a0-a5f9-82eab2d2845b", "name": "8th Wonder Brewery", "brewery_type": "micro", "address_1": "2202 Dallas St", "address_2": null, "address_3": null, "city": "Houston", "state_province": "Texas", "postal_code": "77003-3519", "country": "United States", "longitude": "-95.3559402", "latitude": "29.7487783", "phone": "7133970072", "website_url": "http://www.8thwonderbrew.com", "state": "Texas", "street": "2202 Dallas St"}, {"id": "a0a230f6-17b2-4460-8eca-61e57be53ed5", "name": "9 White Deer Brewery", "brewery_type": "micro", "address_1": "Ballymakeera", "address_2": null, "address_3": null, "city": "Macroom", "state_province": "Cork", "postal_code": "P12 E277", "country": "Ireland", "longitude": "-9.146507143", "latitude": "51.936249", "phone": "35302627110", "website_url": "http://www.9whitedeer.ie/", "state": "Cork", "street": "Ballymakeera"}, {"id": "2b067eab-e0b0-46b6-aaea-e40a62cf632f", "name": "903 Brewers", "brewery_type": "micro", "address_1": "1718 S Elm St", "address_2": null, "address_3": null, "city": "Sherman", "state_province": "Texas", "postal_code": "75090-8725", "country": "United States", "longitude": "-96.60698055", "latitude": "33.61788732", "phone": "2142438090", "website_url": "http://www.903brewers.com", "state": "Texas", "street": "1718 S Elm St"}, {"id": "de6341a8-881b-4d9f-9335-5e9203e8a2c3", "name": "927 Beer Company", "brewery_type": "micro", "address_1": "821 Cornwall St", "address_2": null, "address_3": null, "city": "Cambria", "state_province": "California", "postal_code": "93428-2434", "country": "United States", "longitude": "-121.0985408", "latitude": "35.5666725", "phone": "8052035265", "website_url": "http://www.cambriabeerco.com", "state": "California", "street": "821 Cornwall St"}, {"id": "b4e012c5-0f36-4d0a-a40b-cbcb29c7ceed", "name": "95ate5 Brewpub", "brewery_type": "brewpub", "address_1": "9585 N Industrial Dr", "address_2": null, "address_3": null, "city": "Saint John", "state_province": "Indiana", "postal_code": "46373", "country": "United States", "longitude": "-87.46380305", "latitude": "41.44400246", "phone": "2193656506", "website_url": "http://www.95ate5.com", "state": "Indiana", "street": "9585 N Industrial Dr"}, {"id": "42598f85-f02e-474c-9154-0aa4f1d932be", "name": "9th Hour Brewing Company LLC", "brewery_type": "planning", "address_1": null, "address_2": null, "address_3": null, "city": "Spring Grove", "state_province": "Illinois", "postal_code": "60081-9459", "country": "United States", "longitude": null, "latitude": null, "phone": null, "website_url": null, "state": "Illinois", "street": null}, {"id": "9aeccd09-8884-4f0e-93f4-c44dacd246aa", "name": "A Homestead Brew", "brewery_type": "micro", "address_1": "26685 486th Ave", "address_2": null, "address_3": null, "city": "Valley Springs", "state_province": "South Dakota", "postal_code": "57068-7309", "country": "United States", "longitude": "-96.49421923", "latitude": "43.51733014", "phone": "6055535015", "website_url": "http://www.ahomesteadbrew.com", "state": "South Dakota", "street": "26685 486th Ave"}, {"id": "88a7ac77-a52b-4496-91df-b41e5831a568", "name": "A Little Madness Brewing Company", "brewery_type": "planning", "address_1": null, "address_2": null, "address_3": null, "city": "Pensacola", "state_province": "Florida", "postal_code": "32514-8122", "country": "United States", "longitude": null, "latitude": null, "phone": null, "website_url": "http://www.ALittleMadnessBrewingCompany.com", "state": "Florida", "street": null}, {"id": "5b627789-ff7e-4890-a7cf-24572bf547a2", "name": "Aardwolf Brewing Company", "brewery_type": "micro", "address_1": "1461 Hendricks Ave", "address_2": null, "address_3": null, "city": "Jacksonville", "state_province": "Florida", "postal_code": "32207-8622", "country": "United States", "longitude": "-81.6545197", "latitude": "30.3108962", "phone": "9043010755", "website_url": "http://www.aardwolfbrewing.com", "state": "Florida", "street": "1461 Hendricks Ave"}, {"id": "7918a6dd-08d0-4157-a841-01b20a9a7a4c", "name": "Abandon Brewing", "brewery_type": "micro", "address_1": "2994 Merritt Hill Rd", "address_2": null, "address_3": null, "city": "Penn Yan", "state_province": "New York", "postal_code": "14527-8938", "country": "United States", "longitude": null, "latitude": null, "phone": "5852093276", "website_url": "http://www.abandonbrewing.com", "state": "New York", "street": "2994 Merritt Hill Rd"}, {"id": "5a7b05f9-bf7b-49a2-a1de-0c1fe01b9374", "name": "Abandoned Building Brewery", "brewery_type": "micro", "address_1": "142 Pleasant St Unit 103A", "address_2": null, "address_3": null, "city": "Easthampton", "state_province": "Massachusetts", "postal_code": "01027-2805", "country": "United States", "longitude": null, "latitude": null, "phone": "4132827062", "website_url": "http://www.abandonedbuildingbrewery.com", "state": "Massachusetts", "street": "142 Pleasant St Unit 103A"}, {"id": "9c7b9f2a-6deb-44a1-9b3e-f83952a4db38", "name": "Abbey Brewing Co", "brewery_type": "contract", "address_1": "1115 16th St", "address_2": null, "address_3": null, "city": "Miami Beach", "state_province": "Florida", "postal_code": "33139-2441", "country": "United States", "longitude": "-80.1402943", "latitude": "25.7890381", "phone": "3055388110", "website_url": null, "state": "Florida", "street": "1115 16th St"}, {"id": "9c5acc37-15fa-4838-91ee-47bf27a94777", "name": "Abbey Brewing Company, LLC", "brewery_type": "micro", "address_1": "215 W. Alicante Rd", "address_2": null, "address_3": null, "city": "Santa Fe", "state_province": "New Mexico", "postal_code": "87505", "country": "United States", "longitude": "-105.9465207", "latitude": "35.66555826", "phone": "5056706802", "website_url": "http://www.abbeybrewing.biz", "state": "New Mexico", "street": "215 W. Alicante Rd"}, {"id": "30d8f77b-aeec-4435-a280-16bacd1b1c97", "name": "Aberrant Ales", "brewery_type": "brewpub", "address_1": "219 W Grand River Ave", "address_2": null, "address_3": null, "city": "Howell", "state_province": "Michigan", "postal_code": "48843", "country": "United States", "longitude": "-83.93094539", "latitude": "42.60773722", "phone": "5175188699", "website_url": "http://www.aberrantales.com", "state": "Michigan", "street": "219 W Grand River Ave"}, {"id": "b161916f-3f69-4f16-8059-eef9eee6877c", "name": "Abide Brewing Company", "brewery_type": "micro", "address_1": "110 Werz Industrial Blvd Ste 130", "address_2": null, "address_3": null, "city": "Newnan", "state_province": "Georgia", "postal_code": "30263-5802", "country": "United States", "longitude": "-84.76356641", "latitude": "33.40257035", "phone": "6789726747", "website_url": "http://www.abidebrewing.com", "state": "Georgia", "street": "110 Werz Industrial Blvd Ste 130"}, {"id": "e2fa853c-ca91-4043-878d-0bcee9900ea3", "name": "Abigaile", "brewery_type": "brewpub", "address_1": "1301 Manhattan Ave", "address_2": null, "address_3": null, "city": "Hermosa Beach", "state_province": "California", "postal_code": "90254-3666", "country": "United States", "longitude": "-118.4048656", "latitude": "33.8734519", "phone": "3107988227", "website_url": "http://abigailrestaurant.com", "state": "California", "street": "1301 Manhattan Ave"}, {"id": "c074ba4c-0b31-4344-a85a-7930df7fb410", "name": "Abita Brewing Co", "brewery_type": "regional", "address_1": "166 Barbee Rd", "address_2": null, "address_3": null, "city": "Covington", "state_province": "Louisiana", "postal_code": "70433-8651", "country": "United States", "longitude": null, "latitude": null, "phone": "9858933143", "website_url": "http://www.abita.com", "state": "Louisiana", "street": "166 Barbee Rd"}, {"id": "f8ab9530-289b-4684-89f1-474e89f4c5ae", "name": "Abjuration Brewing", "brewery_type": "micro", "address_1": "644 Broadway Ave", "address_2": null, "address_3": null, "city": "Mc Kees Rocks", "state_province": "Pennsylvania", "postal_code": "15136-3008", "country": "United States", "longitude": null, "latitude": null, "phone": "4127661668", "website_url": "http://www.abjurationbrewing.com", "state": "Pennsylvania", "street": "644 Broadway Ave"}, {"id": "c5f6426e-f894-4bfc-9ffb-43bc0baa0881", "name": "Able Baker Brewing", "brewery_type": "micro", "address_1": "1051 Mary Crest Rd #K", "address_2": null, "address_3": null, "city": "Henderson", "state_province": "Nevada", "postal_code": "89104", "country": "United States", "longitude": null, "latitude": null, "phone": "7025817742", "website_url": "http://www.ablebakerbrewing.com", "state": "Nevada", "street": "1051 Mary Crest Rd #K"}, {"id": "e6780612-ff74-4289-8718-a229529e3ee1", "name": "Able Ebenezer Brewing Company", "brewery_type": "micro", "address_1": "31 Columbia Cir", "address_2": null, "address_3": null, "city": "Merrimack", "state_province": "New Hampshire", "postal_code": "03054-4161", "country": "United States", "longitude": "-71.493705", "latitude": "42.851742", "phone": "8442232253", "website_url": "http://www.ableebenezer.com", "state": "New Hampshire", "street": "31 Columbia Cir"}, {"id": "31678502-edf6-4eb0-bc10-4ede5ac279b6", "name": "Able Seedhouse and Brewery", "brewery_type": "micro", "address_1": "1121 Quincy St NE", "address_2": null, "address_3": null, "city": "Minneapolis", "state_province": "Minnesota", "postal_code": "55413-2773", "country": "United States", "longitude": "-93.2510686", "latitude": "44.9993934", "phone": "6124054642", "website_url": "http://www.ablebeer.com", "state": "Minnesota", "street": "1121 Quincy St NE"}, {"id": "00221d0f-2ed7-41d1-95b8-d8b1bfbc8b0e", "name": "Abner's Restaurant Inc / Northern Michigan Beer", "brewery_type": "brewpub", "address_1": "7528 N Woodbridge (M37)", "address_2": null, "address_3": null, "city": "Brohman", "state_province": "Michigan", "postal_code": "49312", "country": "United States", "longitude": null, "latitude": null, "phone": "2316892295", "website_url": null, "state": "Michigan", "street": "7528 N Woodbridge (M37)"}, {"id": "4db32843-26ff-4e73-9e24-1cb874109b24", "name": "Abnormal Beer Company", "brewery_type": "micro", "address_1": "16990 Via Tazon Ste 123", "address_2": null, "address_3": null, "city": "San Diego", "state_province": "California", "postal_code": "92127-1649", "country": "United States", "longitude": "-117.08575", "latitude": "33.02391", "phone": "8586182463", "website_url": "http://abnormalbeer.co", "state": "California", "street": "16990 Via Tazon Ste 123"}, {"id": "28e05fda-77a4-4a5a-9f8a-08169ec07ce5", "name": "Abolitionist Ale Works", "brewery_type": "brewpub", "address_1": "129 W Washington St", "address_2": null, "address_3": null, "city": "Charles Town", "state_province": "West Virginia", "postal_code": "25414-1529", "country": "United States", "longitude": "-77.8607888", "latitude": "39.28867207", "phone": "6812521548", "website_url": "http://www.abolitionistaleworks.com", "state": "West Virginia", "street": "129 W Washington St"}, {"id": "bec6adc5-3a3b-4793-8364-c58f16e88cc8", "name": "Abridged Beer Company", "brewery_type": "brewpub", "address_1": "100 Lockett Rd", "address_2": null, "address_3": null, "city": "Knoxville", "state_province": "Tennessee", "postal_code": "37919-4807", "country": "United States", "longitude": "-84.016459", "latitude": "35.932287", "phone": "8658989438", "website_url": "http://www.abridgedbeer.com", "state": "Tennessee", "street": "100 Lockett Rd"}, {"id": "67525d30-1f18-4f03-a8ba-28a1153955eb", "name": "Absolution Brewing Co", "brewery_type": "micro", "address_1": "2878 Columbia St", "address_2": null, "address_3": null, "city": "Torrance", "state_province": "California", "postal_code": "90503-3808", "country": "United States", "longitude": "-118.3378601", "latitude": "33.8431391", "phone": "3104904860", "website_url": "http://www.absolutionbrewingcompany.com", "state": "California", "street": "2878 Columbia St"}, {"id": "600f88e5-9dc9-4a41-b54e-909c292ba4bb", "name": "Absolution By the Sea", "brewery_type": "brewpub", "address_1": "7536 Fay Ave", "address_2": null, "address_3": null, "city": "La Jolla", "state_province": "California", "postal_code": "92037-4839", "country": "United States", "longitude": "-117.2740167", "latitude": "32.84083388", "phone": "6192024152", "website_url": null, "state": "California", "street": "7536 Fay Ave"}, {"id": "98b6e0ab-22ba-4864-80b0-a967ca61e536", "name": "Abyss Brewing Ltd", "brewery_type": "micro", "address_1": "Palehouse Common", "address_2": null, "address_3": null, "city": "Uckfield", "state_province": "East Sussex", "postal_code": "TN22 5RB", "country": "England", "longitude": "0.14604", "latitude": "50.945743", "phone": "1825840561", "website_url": "https://abyssbrewing.co.uk/", "state": "East Sussex", "street": "Palehouse Common"}, {"id": "829f7243-78f3-4282-b0e8-1a5fcb10a229", "name": "Accomplice Beer Company", "brewery_type": "brewpub", "address_1": "115 W 15th St", "address_2": null, "address_3": null, "city": "Cheyenne", "state_province": "Wyoming", "postal_code": "82001-4564", "country": "United States", "longitude": "-104.819296", "latitude": "41.130063", "phone": "3076322337", "website_url": "http://www.accomplicebeer.com", "state": "Wyoming", "street": "115 W 15th St"}, {"id": "b52bfb27-345f-4add-bfc3-1b6fc67ab55b", "name": "Acidulous Brewing Company", "brewery_type": "contract", "address_1": "6712 S Independence St", "address_2": null, "address_3": null, "city": "Littleton", "state_province": "Colorado", "postal_code": "80128-4046", "country": "United States", "longitude": "-105.1059543", "latitude": "39.5383949", "phone": "3039952895", "website_url": null, "state": "Colorado", "street": "6712 S Independence St"}, {"id": "7fa5779e-88df-42ab-895b-412b635498ae", "name": "Acopon Brewing Co", "brewery_type": "micro", "address_1": "211 W Mercer St", "address_2": null, "address_3": null, "city": "Dripping Springs", "state_province": "Texas", "postal_code": "78620-5363", "country": "United States", "longitude": "-98.09006208", "latitude": "30.19269957", "phone": "5128294723", "website_url": "http://www.acoponbrewing.com", "state": "Texas", "street": "211 W Mercer St"}, {"id": "1a6206ad-e34b-421d-92d9-ba409cfedf82", "name": "Acorn Brewing", "brewery_type": "micro", "address_1": "2105 Meridian Ave E", "address_2": null, "address_3": null, "city": "Edgewood", "state_province": "Washington", "postal_code": "98371", "country": "United States", "longitude": "-122.2934912", "latitude": "47.23859752", "phone": "2535178899", "website_url": "https://www.acornbeer.com/", "state": "Washington", "street": "2105 Meridian Ave E"}, {"id": "2fe1e670-d832-4ba5-b957-f86a09ee062d", "name": "Acoustic Ales Brewing Experiment", "brewery_type": "closed", "address_1": "1795 Hancock St Ste P1", "address_2": null, "address_3": null, "city": "San Diego", "state_province": "California", "postal_code": "92110-2006", "country": "United States", "longitude": "-117.1840465", "latitude": "32.74219079", "phone": "6192992537", "website_url": "http://www.acousticales.com", "state": "California", "street": "1795 Hancock St Ste P1"}, {"id": "ea7f7091-5e37-4762-bbcc-9a51702c99c1", "name": "Actual Brewing Company, LLC", "brewery_type": "micro", "address_1": "655 N James Rd", "address_2": null, "address_3": null, "city": "Columbus", "state_province": "Ohio", "postal_code": "43219-1837", "country": "United States", "longitude": "-82.9080986", "latitude": "39.9868523", "phone": "6146363825", "website_url": "http://wwww.actualbeer.com", "state": "Ohio", "street": "655 N James Rd"}, {"id": "0d0f85e7-bc2d-44fc-bf27-4f14e5d6136a", "name": "Adam's Northwest Bistro / Twin Rivers Brewing", "brewery_type": "brewpub", "address_1": "104 N Lewis St", "address_2": null, "address_3": null, "city": "Monroe", "state_province": "Washington", "postal_code": "98272-1502", "country": "United States", "longitude": "-121.970887", "latitude": "47.85588471", "phone": "3607944056", "website_url": "http://www.adamsnwbistro.com", "state": "Washington", "street": "104 N Lewis St"}, {"id": "9ff5f718-dee7-4e69-b79c-6250de87e840", "name": "Adelbert's Brewery LLC", "brewery_type": "micro", "address_1": "2314 Rutland Dr Ste 100", "address_2": null, "address_3": null, "city": "Austin", "state_province": "Texas", "postal_code": "78758-5273", "country": "United States", "longitude": "-97.7201589", "latitude": "30.3826286", "phone": "5126621462", "website_url": "http://www.adelbertsbeer.com", "state": "Texas", "street": "2314 Rutland Dr Ste 100"}, {"id": "a180c4e0-77cc-4088-951c-62192abd99d4", "name": "Adirondack Pub and Brewery", "brewery_type": "micro", "address_1": "33 Canada St", "address_2": null, "address_3": null, "city": "Lake George", "state_province": "New York", "postal_code": "12845-1603", "country": "United States", "longitude": "-73.71407763", "latitude": "43.41850655", "phone": "5186680002", "website_url": "http://www.adkpub.com", "state": "New York", "street": "33 Canada St"}, {"id": "1b7f0552-3b1a-4737-8cb4-eb8d7134d903", "name": "Adirondack Toboggan Company Microbrewery", "brewery_type": "micro", "address_1": "202A W Main St", "address_2": null, "address_3": null, "city": "Gouverneur", "state_province": "New York", "postal_code": "13642-1334", "country": "United States", "longitude": "-75.47489238", "latitude": "44.33237311", "phone": "3157716313", "website_url": "http://www.adktoboggan.net", "state": "New York", "street": "202A W Main St"}, {"id": "49e805d3-70e3-4c21-81d6-d21e290ffefe", "name": "AdMerk Corp. Inc.", "brewery_type": "contract", "address_1": "20 F St NW", "address_2": null, "address_3": null, "city": "Washington", "state_province": "District of Columbia", "postal_code": "20001-6700", "country": "United States", "longitude": "-77.0094205", "latitude": "38.89742205", "phone": "6172028069", "website_url": "http://www.paugustin.com", "state": "District of Columbia", "street": "20 F St NW"}, {"id": "2861f9b7-ebe4-49a5-a047-8aa0c142dbf3", "name": "Adobe Creek Brewing Company", "brewery_type": "micro", "address_1": "67 Galli Dr Ste E", "address_2": null, "address_3": null, "city": "Novato", "state_province": "California", "postal_code": "94949-5718", "country": "United States", "longitude": "-122.5358157", "latitude": "38.07349982", "phone": "4155064565", "website_url": "http://www.adobecreekbrewing.com", "state": "California", "street": "67 Galli Dr Ste E"}, {"id": "a0111777-1fe6-4c8c-864e-c2518f5d5670", "name": "Adroit Theory Brewing Company", "brewery_type": "micro", "address_1": "404 Browning Ct Unit C", "address_2": null, "address_3": null, "city": "Purcellville", "state_province": "Virginia", "postal_code": "20132-6171", "country": "United States", "longitude": null, "latitude": null, "phone": "7034340553", "website_url": "http://www.adroit-theory.com", "state": "Virginia", "street": "404 Browning Ct Unit C"}, {"id": "ef2e3826-f9b5-44d2-b901-331aa728a8cd", "name": "Adur Brewery", "brewery_type": "micro", "address_1": "Mouse Lane", "address_2": null, "address_3": null, "city": "Steyning", "state_province": "West Sussex", "postal_code": "BN44 3DG", "country": "England", "longitude": "-0.340173", "latitude": "50.893624", "phone": "1903867614", "website_url": "https://www.adurbrewery.co.uk/", "state": "West Sussex", "street": "Mouse Lane"}, {"id": "73e05bc6-30a9-42f5-917e-08def2fa33fa", "name": "Adventure Brewing Co", "brewery_type": "micro", "address_1": "33 Perchwood Dr Ste 101", "address_2": null, "address_3": null, "city": "Fredericksburg", "state_province": "Virginia", "postal_code": "22405-4552", "country": "United States", "longitude": null, "latitude": null, "phone": "5402428876", "website_url": "http://www.adventurebrewing.com", "state": "Virginia", "street": "33 Perchwood Dr Ste 101"}, {"id": "d4661358-81e2-454d-9fe2-b08ef6fc16fe", "name": "Adventure South", "brewery_type": "brewpub", "address_1": "3300 Dill Smith Dr", "address_2": null, "address_3": null, "city": "Fredericksburg", "state_province": "Virginia", "postal_code": "22408-7319", "country": "United States", "longitude": null, "latitude": null, "phone": "5403717799", "website_url": "http://www.adventurebrewing.com", "state": "Virginia", "street": "3300 Dill Smith Dr"}, {"id": "e77c24b4-8b21-4d28-a9c0-568623b77cd9", "name": "Aero Craft Brewing", "brewery_type": "planning", "address_1": null, "address_2": null, "address_3": null, "city": "Denver", "state_province": "Colorado", "postal_code": "80212-2199", "country": "United States", "longitude": "-104.984696", "latitude": "39.7391428", "phone": "3039185446", "website_url": "http://www.aerocraft.beer", "state": "Colorado", "street": null}, {"id": "6f0bba92-cc4b-49df-ad02-827b08bd7272", "name": "Aero Plains Brewing", "brewery_type": "micro", "address_1": "117 N Handley St", "address_2": null, "address_3": null, "city": "Wichita", "state_province": "Kansas", "postal_code": "67203-6114", "country": "United States", "longitude": "-97.35071131", "latitude": "37.68455054", "phone": "3164482811", "website_url": "http://www.aeroplainsbrewing.com", "state": "Kansas", "street": "117 N Handley St"}, {"id": "59b8c8b8-6850-4b24-81f0-a16a9cd87773", "name": "Aeronaut Brewing Company", "brewery_type": "micro", "address_1": "14 Tyler St", "address_2": null, "address_3": null, "city": "Somerville", "state_province": "Massachusetts", "postal_code": "02143-3224", "country": "United States", "longitude": "-71.1062676", "latitude": "42.3819723", "phone": "6179874236", "website_url": "http://www.aeronautbrewing.com", "state": "Massachusetts", "street": "14 Tyler St"}, {"id": "333c81a4-9bcd-4699-b28a-2c49dd696596", "name": "Aftershock Brewing Co", "brewery_type": "micro", "address_1": "28822 Old Town Front St Ste 107", "address_2": null, "address_3": null, "city": "Temecula", "state_province": "California", "postal_code": "92590-2893", "country": "United States", "longitude": "-117.1485306", "latitude": "33.49310382", "phone": "9519722256", "website_url": "http://www.aftershockbrewingco.com", "state": "California", "street": "28822 Old Town Front St Ste 107"}, {"id": "c185b848-a69a-4d73-8a33-7b6f0db2e3fc", "name": "Afterthought Brewing Company", "brewery_type": "micro", "address_1": "844 N Ridge Ave", "address_2": null, "address_3": null, "city": "Lombard", "state_province": "Illinois", "postal_code": "60148-1215", "country": "United States", "longitude": "-88.02234574", "latitude": "41.90549742", "phone": "6303011615", "website_url": "http://afterthoughtbrewing.com", "state": "Illinois", "street": "844 N Ridge Ave"}, {"id": "1844257e-dab7-421d-9a9e-f594a3943b2f", "name": "Against the Grain Beer Garden", "brewery_type": "planning", "address_1": null, "address_2": null, "address_3": null, "city": "Louisville", "state_province": "Kentucky", "postal_code": "40217", "country": "United States", "longitude": null, "latitude": null, "phone": null, "website_url": null, "state": "Kentucky", "street": null}, {"id": "3d00e6db-0f45-43a5-add5-b9455edfdccb", "name": "Against the Grain Brewery", "brewery_type": "micro", "address_1": "401 E Main St", "address_2": null, "address_3": null, "city": "Louisville", "state_province": "Kentucky", "postal_code": "40202-1110", "country": "United States", "longitude": "-85.7440377", "latitude": "38.2554568", "phone": "5025150174", "website_url": "http://atgbrewery.com", "state": "Kentucky", "street": "401 E Main St"}, {"id": "68855f86-415a-44e9-a0ab-53e6c8b10a3d", "name": "Against the Grain Production Facility", "brewery_type": "micro", "address_1": "1800 Northwestern Pkwy", "address_2": null, "address_3": null, "city": "Louisville", "state_province": "Kentucky", "postal_code": "40203", "country": "United States", "longitude": "-85.7767241", "latitude": "38.2658758", "phone": null, "website_url": null, "state": "Kentucky", "street": "1800 Northwestern Pkwy"}, {"id": "85c7bc77-387c-449f-8091-6c694b35077c", "name": "Agonic Brewing Company LLC", "brewery_type": "planning", "address_1": null, "address_2": null, "address_3": null, "city": "Rice Lake", "state_province": "Wisconsin", "postal_code": "54868-8786", "country": "United States", "longitude": null, "latitude": null, "phone": "7153089283", "website_url": "http://www.agonicbrewing.com", "state": "Wisconsin", "street": null}, {"id": "f1ed5260-13cb-4f22-a4ac-0e1f7f676a12", "name": "Agrarian Ales, LLC", "brewery_type": "closed", "address_1": "31115 W Crossroads Ln", "address_2": null, "address_3": null, "city": "Eugene", "state_province": "Oregon", "postal_code": "97408-9220", "country": "United States", "longitude": "-123.1277712", "latitude": "44.18922784", "phone": "5416323803", "website_url": "http://www.agales.com", "state": "Oregon", "street": "31115 W Crossroads Ln"}, {"id": "685be3dc-20b8-434d-880c-d7aabac5bfc0", "name": "Ahnapee Brewery", "brewery_type": "micro", "address_1": "N9153 Cherry Tree Rd Apt 4", "address_2": null, "address_3": null, "city": "Algoma", "state_province": "Wisconsin", "postal_code": "54201-9501", "country": "United States", "longitude": null, "latitude": null, "phone": "9202178527", "website_url": "http://www.ahnapeebrewery.com", "state": "Wisconsin", "street": "N9153 Cherry Tree Rd Apt 4"}, {"id": "b9f4f532-15df-4a50-b15e-e5cd5d41977b", "name": "Aigean Ales", "brewery_type": "micro", "address_1": "250 Commercial St Ste 2001", "address_2": null, "address_3": null, "city": "Manchester", "state_province": "New Hampshire", "postal_code": "03101-1165", "country": "United States", "longitude": "-71.46899187", "latitude": "42.9899594", "phone": "6035188550", "website_url": null, "state": "New Hampshire", "street": "250 Commercial St Ste 2001"}, {"id": "dfec4bba-cfbc-4562-b6be-f0563f51821a", "name": "Aiken Brewing Co", "brewery_type": "brewpub", "address_1": "140 Laurens St SW", "address_2": null, "address_3": null, "city": "Aiken", "state_province": "South Carolina", "postal_code": "29801-3848", "country": "United States", "longitude": "-81.7228141", "latitude": "33.5603084", "phone": "8035020707", "website_url": "http://www.aikenbrewingcompany.com", "state": "South Carolina", "street": "140 Laurens St SW"}, {"id": "f4c592ed-4c20-4b87-bb35-64f894a6cc6b", "name": "Airline Brewing Company", "brewery_type": "micro", "address_1": "22 Mill Ln", "address_2": null, "address_3": null, "city": "Amherst", "state_province": "Maine", "postal_code": "04428", "country": "United States", "longitude": "-68.3677435", "latitude": "44.8329462", "phone": "2075842337", "website_url": "http://www.abcmaine.beer", "state": "Maine", "street": "22 Mill Ln"}, {"id": "9737bf0c-b29e-49d7-9778-3951072eb147", "name": "Airways Brewing Co", "brewery_type": "micro", "address_1": "8611 S 212th St", "address_2": null, "address_3": null, "city": "Kent", "state_province": "Washington", "postal_code": "98031-1910", "country": "United States", "longitude": "-122.2391026", "latitude": "47.4119802", "phone": "2532001707", "website_url": "http://www.airwaysbrewing.com", "state": "Washington", "street": "8611 S 212th St"}, {"id": "d9578437-2aa8-45ab-97f2-cf6f7074d9af", "name": "Airways Brewing Co. Bistro & Beer Garden", "brewery_type": "brewpub", "address_1": "320 W Harrison St", "address_2": null, "address_3": null, "city": "Kent", "state_province": "Washington", "postal_code": "98032", "country": "United States", "longitude": "-122.235649", "latitude": "47.382498", "phone": "2532368632", "website_url": "http://airwaysbrewing.com/bistro-beer-garden/", "state": "Washington", "street": "320 W Harrison St"}, {"id": "828ee507-7142-4c7c-9f0b-82964d4195d0", "name": "Akademia Brewing Company", "brewery_type": "brewpub", "address_1": "150 Crane Dr", "address_2": null, "address_3": null, "city": "Athens", "state_province": "Georgia", "postal_code": "30606-0600", "country": "United States", "longitude": "-83.47153754", "latitude": "33.94270289", "phone": "7064613208", "website_url": "http://www.AkademiaBC.com", "state": "Georgia", "street": "150 Crane Dr"}, {"id": "f767a00f-fbd9-4d31-abe6-902149c0158a", "name": "Akasha Brewing Company", "brewery_type": "micro", "address_1": "909 E Market St Ste 700", "address_2": null, "address_3": null, "city": "Louisville", "state_province": "Kentucky", "postal_code": "40206-1688", "country": "United States", "longitude": null, "latitude": null, "phone": "5027427770", "website_url": "http://www.akashabrewing.com", "state": "Kentucky", "street": "909 E Market St Ste 700"}, {"id": "d4f4e76b-b971-4dcb-8a9b-d6c36a3e8c22", "name": "Akronym Brewing LLC", "brewery_type": "micro", "address_1": "58 E Market St", "address_2": null, "address_3": null, "city": "Akron", "state_province": "Ohio", "postal_code": "44308", "country": "United States", "longitude": "-81.51645882", "latitude": "41.08512193", "phone": "3306208274", "website_url": "http://www.akronymbrewing.com", "state": "Ohio", "street": "58 E Market St"}, {"id": "06ac0316-a30f-40c6-acb7-c08fea0c30b1", "name": "Akwesasne Mohawk Casino Resort", "brewery_type": "planning", "address_1": null, "address_2": null, "address_3": null, "city": "Akwesasne", "state_province": "New York", "postal_code": "13655-1800", "country": "United States", "longitude": null, "latitude": null, "phone": "5183582222", "website_url": "http://mohawkcasino.com", "state": "New York", "street": null}, {"id": "b7db853a-e8aa-430f-84c8-d49b72184d01", "name": "Alameda Brewing Co", "brewery_type": "micro", "address_1": "4736 SE 24th Ave", "address_2": null, "address_3": null, "city": "Portland", "state_province": "Oregon", "postal_code": "97202-4787", "country": "United States", "longitude": "-122.6412495", "latitude": "45.48882655", "phone": "5034609025", "website_url": null, "state": "Oregon", "street": "4736 SE 24th Ave"}, {"id": "07ad4030-fb5b-4eb7-9b28-d7f5556b145d", "name": "Alameda Brewing Co", "brewery_type": "micro", "address_1": "4765 NE Fremont St", "address_2": null, "address_3": null, "city": "Portland", "state_province": "Oregon", "postal_code": "97213-1724", "country": "United States", "longitude": "-122.6136209", "latitude": "45.54849565", "phone": "5034609025", "website_url": "http://www.alamedabrewing.com", "state": "Oregon", "street": "4765 NE Fremont St"}, {"id": "6fbd1118-ceea-4be9-a784-45dd623f16f0", "name": "Alameda Island Brewing Company", "brewery_type": "micro", "address_1": "1716 Park St", "address_2": null, "address_3": null, "city": "Alameda", "state_province": "California", "postal_code": "94501-1416", "country": "United States", "longitude": "-122.2394506", "latitude": "37.76833631", "phone": "5102178885", "website_url": "http://www.alamedaislandbrewingcompany.com", "state": "California", "street": "1716 Park St"}, {"id": "edf1c0fb-cce0-44ec-8d98-dd4778e2d533", "name": "Alamo Beer Co", "brewery_type": "micro", "address_1": "415 Burnet St", "address_2": null, "address_3": null, "city": "San Antonio", "state_province": "Texas", "postal_code": "78202-1909", "country": "United States", "longitude": "-98.4771638", "latitude": "29.42902321", "phone": "2108725589", "website_url": "http://www.alamobeer.com", "state": "Texas", "street": "415 Burnet St"}, {"id": "4f79f427-8214-4048-8636-63cef96b33da", "name": "Alarmist Brewing Co", "brewery_type": "micro", "address_1": "4055 W Peterson Ave Ste REAR", "address_2": null, "address_3": null, "city": "Chicago", "state_province": "Illinois", "postal_code": "60646-6072", "country": "United States", "longitude": null, "latitude": null, "phone": "7739882536", "website_url": "http://alarmistbrewing.com", "state": "Illinois", "street": "4055 W Peterson Ave Ste REAR"}, {"id": "aa3c4d60-4fb2-49e2-980c-6a61672d90cb", "name": "Alaro Craft Brewery", "brewery_type": "brewpub", "address_1": "2004 Capitol Ave", "address_2": null, "address_3": null, "city": "Sacramento", "state_province": "California", "postal_code": "95811", "country": "United States", "longitude": "-121.4811835", "latitude": "38.57323961", "phone": "9164367711", "website_url": "http://www.alarobrewing.com", "state": "California", "street": "2004 Capitol Ave"}, {"id": "d065903f-f9fc-4e4c-a64d-9b69905431b5", "name": "Alaskan Brewing Co.", "brewery_type": "regional", "address_1": "5429 Shaune Dr", "address_2": null, "address_3": null, "city": "Juneau", "state_province": "Alaska", "postal_code": "99801-9540", "country": "United States", "longitude": "-134.4918763", "latitude": "58.35681231", "phone": "9077805866", "website_url": "http://www.alaskanbeer.com", "state": "Alaska", "street": "5429 Shaune Dr"}, {"id": "d188560a-fd0d-4a44-9e4b-11aab9db8205", "name": "Albia Brewing Co", "brewery_type": "brewpub", "address_1": "11 Benton Ave E", "address_2": null, "address_3": null, "city": "Albia", "state_province": "Iowa", "postal_code": "52531-2032", "country": "United States", "longitude": "-92.8073711", "latitude": "41.02718903", "phone": "6419324085", "website_url": "http://www.albiabrewingcompany.blogspot.com", "state": "Iowa", "street": "11 Benton Ave E"}, {"id": "4c8a98d1-1012-4814-82a5-20c68b131442", "name": "Albion Malleable Brewing Company", "brewery_type": "brewpub", "address_1": "420 S Superior St", "address_2": null, "address_3": null, "city": "Albion", "state_province": "Michigan", "postal_code": "49224", "country": "United States", "longitude": "-84.7532755", "latitude": "42.2423188", "phone": "5173432202", "website_url": "http://www.albionmalleable.com", "state": "Michigan", "street": "420 S Superior St"}, {"id": "943f1201-9c0d-4717-95e3-0756a906f527", "name": "Albright Grove Brewing Company", "brewery_type": "planning", "address_1": null, "address_2": null, "address_3": null, "city": "Townsend", "state_province": "Tennessee", "postal_code": "37882", "country": "United States", "longitude": null, "latitude": null, "phone": "8656049898", "website_url": null, "state": "Tennessee", "street": null}, {"id": "ec26cd9a-540f-4f23-b030-670115eed645", "name": "Alcatraz Brewing", "brewery_type": "micro", "address_1": "20 Ocean Vista Ln", "address_2": null, "address_3": null, "city": "Palm Coast", "state_province": "Florida", "postal_code": "32137-2743", "country": "United States", "longitude": "-81.19287028", "latitude": "29.61781196", "phone": "3866278909", "website_url": "http://www.alcatraz.beer", "state": "Florida", "street": "20 Ocean Vista Ln"}, {"id": "b1f7a6c5-a4e0-477b-a380-17f8a0120e2d", "name": "Alcazar Brewery, LLC.", "brewery_type": "planning", "address_1": null, "address_2": null, "address_3": null, "city": "Rio Grande City", "state_province": "Texas", "postal_code": "78582-4450", "country": "United States", "longitude": null, "latitude": null, "phone": null, "website_url": null, "state": "Texas", "street": null}, {"id": "091edbcc-f9fc-484e-9c04-c18ed505e2ac", "name": "Alchemist Cannery", "brewery_type": "regional", "address_1": "35 Crossroad", "address_2": null, "address_3": null, "city": "Waterbury", "state_province": "Vermont", "postal_code": "05676-9003", "country": "United States", "longitude": null, "latitude": null, "phone": "8022447744", "website_url": "http://www.alchemistbeer.com", "state": "Vermont", "street": "35 Crossroad"}, {"id": "8135f18c-0c31-4b4d-bb22-84eccf498e9c", "name": "Aldus Brewing Company", "brewery_type": "micro", "address_1": "555 Centennial Ave", "address_2": null, "address_3": null, "city": "Hanover", "state_province": "Pennsylvania", "postal_code": "17331-3936", "country": "United States", "longitude": "-76.98030009", "latitude": "39.79422185", "phone": "7176342407", "website_url": "http://www.aldusbrewing.com", "state": "Pennsylvania", "street": "555 Centennial Ave"}, {"id": "c812aa3f-208b-49e2-a1e6-96cae8943605", "name": "Ale Asylum", "brewery_type": "regional", "address_1": "2002 Pankratz St", "address_2": null, "address_3": null, "city": "Madison", "state_province": "Wisconsin", "postal_code": "53704-4024", "country": "United States", "longitude": "-89.35416285", "latitude": "43.12046815", "phone": "6086633926", "website_url": "http://www.aleasylum.com", "state": "Wisconsin", "street": "2002 Pankratz St"}, {"id": "e13a5403-3cd7-4dbf-92f1-e48d0f26c750", "name": "Ale House Brewing Co", "brewery_type": "micro", "address_1": null, "address_2": null, "address_3": null, "city": "San Jose", "state_province": "California", "postal_code": "95118-1605", "country": "United States", "longitude": "-121.8905833", "latitude": "37.3361905", "phone": "4083907574", "website_url": null, "state": "California", "street": null}, {"id": "13f19f47-cac4-44df-b4f3-728e4dcde6c5", "name": "Ale Industries", "brewery_type": "micro", "address_1": "3096 E 10th St", "address_2": null, "address_3": null, "city": "Oakland", "state_province": "California", "postal_code": "94601-2960", "country": "United States", "longitude": "-122.2281897", "latitude": "37.7761111", "phone": "9254705280", "website_url": "http://www.aleindustries.com", "state": "California", "street": "3096 E 10th St"}, {"id": "148e8fb4-4977-4ba8-8fa6-1133a56198d4", "name": "Ale Republic", "brewery_type": "micro", "address_1": "28 Arroyo Seco", "address_2": null, "address_3": null, "city": "Cedar Crest", "state_province": "New Mexico", "postal_code": "87008", "country": "United States", "longitude": null, "latitude": null, "phone": "5052812828", "website_url": "http://www.alerepublic.com", "state": "New Mexico", "street": "28 Arroyo Seco"}, {"id": "797c9175-fb51-44d3-ad4b-d46b42367fdc", "name": "Ale Spike", "brewery_type": "closed", "address_1": "9300 271st St NW Ste B-5", "address_2": null, "address_3": null, "city": "Stanwood", "state_province": "Washington", "postal_code": "98292", "country": "United States", "longitude": null, "latitude": null, "phone": null, "website_url": "http://www.alespike.com", "state": "Washington", "street": "9300 271st St NW Ste B-5"}, {"id": "ea06694a-32f8-4026-b22e-aeb880848b4d", "name": "Ale Spike Brewery", "brewery_type": "micro", "address_1": "1244 N Moore Rd Unit I-1", "address_2": null, "address_3": null, "city": "Camano Island", "state_province": "Washington", "postal_code": "98282", "country": "United States", "longitude": "-122.4381311", "latitude": "48.25785496", "phone": "3609392434", "website_url": "http://www.alespike.com", "state": "Washington", "street": "1244 N Moore Rd Unit I-1"}, {"id": "1170049c-c20d-43c8-9475-0a42599f144c", "name": "Aleman Brewing", "brewery_type": "micro", "address_1": "3304 N Knox Ave", "address_2": null, "address_3": null, "city": "Chicago", "state_province": "Illinois", "postal_code": "60641-4434", "country": "United States", "longitude": "-87.74301213", "latitude": "41.94087994", "phone": "8123404198", "website_url": "http://www.alemanchicago.com", "state": "Illinois", "street": "3304 N Knox Ave"}, {"id": "f1e3ff3e-078c-46c3-85ae-62f86d3a3a21", "name": "Alematic Artisan Ales", "brewery_type": "planning", "address_1": null, "address_2": null, "address_3": null, "city": "Huber Heights", "state_province": "Ohio", "postal_code": "45424-3857", "country": "United States", "longitude": null, "latitude": null, "phone": "9376122337", "website_url": "http://www.alematicbrewing.com", "state": "Ohio", "street": null}, {"id": "31746e2a-3704-458f-8235-437f53d5afe1", "name": "Alesatian Brewing Co.", "brewery_type": "brewpub", "address_1": "21 N Loudoun St", "address_2": null, "address_3": null, "city": "Winchester", "state_province": "Virginia", "postal_code": "22601-4715", "country": "United States", "longitude": "-78.16559208", "latitude": "39.18446446", "phone": "5406672743", "website_url": "http://www.alesatianbrewing.com", "state": "Virginia", "street": "21 N Loudoun St"}, {"id": "f8097dbc-c8e6-4068-9540-5c4bd4ac0bcf", "name": "AleSmith Brewing Co", "brewery_type": "regional", "address_1": "9990 Alesmith Ct", "address_2": null, "address_3": null, "city": "San Diego", "state_province": "California", "postal_code": "92126-4200", "country": "United States", "longitude": "-117.1495496", "latitude": "32.88858458", "phone": "8585499888", "website_url": "http://www.alesmith.com", "state": "California", "street": "9990 Alesmith Ct"}, {"id": "40093c50-b89d-443f-9ac7-b24a000d8f48", "name": "Alesong Brewing and Blending", "brewery_type": "micro", "address_1": "1000 Conger St Ste C", "address_2": null, "address_3": null, "city": "Eugene", "state_province": "Oregon", "postal_code": "97402-2950", "country": "United States", "longitude": "-123.2384193", "latitude": "43.85285684", "phone": "5419723303", "website_url": "http://www.alesongbrewing.com", "state": "Oregon", "street": "1000 Conger St Ste C"}, {"id": "f15f6ebf-0d80-4e6b-ad38-fb0ca9f3d3ed", "name": "Alesong Brewing and Tasting Room", "brewery_type": "micro", "address_1": "1000 Conger Unit C", "address_2": null, "address_3": null, "city": "Eugene", "state_province": "Oregon", "postal_code": "97402", "country": "United States", "longitude": "-123.2384193", "latitude": "43.85285684", "phone": "5419723303", "website_url": "http://www.alesongbrewing.com", "state": "Oregon", "street": "1000 Conger Unit C"}, {"id": "e4148f94-4ce9-4fd2-9b05-faabdcca2b09", "name": "Alewerks Brewing Company", "brewery_type": "micro", "address_1": "197 Ewell Rd", "address_2": null, "address_3": null, "city": "Williamsburg", "state_province": "Virginia", "postal_code": "23188-2185", "country": "United States", "longitude": null, "latitude": null, "phone": "7572203670", "website_url": "http://www.alewerks.com", "state": "Virginia", "street": "197 Ewell Rd"}, {"id": "ed3ea3ae-04d3-4356-ab96-a74514992a50", "name": "Alewife Brewing Company", "brewery_type": "brewpub", "address_1": "514 51st Ave", "address_2": null, "address_3": null, "city": "Long Island City", "state_province": "New York", "postal_code": "11101-5879", "country": "United States", "longitude": "-73.95625257", "latitude": "40.74232214", "phone": "7189377494", "website_url": "http://www.alewife.beer", "state": "New York", "street": "514 51st Ave"}, {"id": "5860a6e0-1bf6-4334-8797-e5668fc22db0", "name": "Alexandria Brewing Company", "brewery_type": "micro", "address_1": "7926 Alexandria Pike Ste 1", "address_2": null, "address_3": null, "city": "Alexandria", "state_province": "Kentucky", "postal_code": "41001-1454", "country": "United States", "longitude": null, "latitude": null, "phone": "8596946999", "website_url": "http://www.alexandriabrewingcompany.com", "state": "Kentucky", "street": "7926 Alexandria Pike Ste 1"}, {"id": "9da0a260-5b85-4490-824a-a397446c17dc", "name": "Algarve Rock Brewery", "brewery_type": "micro", "address_1": "Unidade 2B", "address_2": "Parque Vale da Venda", "address_3": null, "city": "Faro", "state_province": "Faro", "postal_code": "8005-412", "country": "Portugal", "longitude": "-7.972956207903116", "latitude": "37.06560087144406", "phone": "+ 351 289 815 218", "website_url": "https://algarverock.com/", "state": "Faro", "street": "Unidade 2B"}, {"id": "083b7953-133d-453f-ada0-2b3541d1931c", "name": "Alibi Ale Works", "brewery_type": "micro", "address_1": "204 E Enterprise St", "address_2": null, "address_3": null, "city": "Incline Village", "state_province": "Nevada", "postal_code": "89451-9456", "country": "United States", "longitude": "-119.9537117", "latitude": "39.24819328", "phone": "7752987001", "website_url": "http://www.alibialeworks.com", "state": "Nevada", "street": "204 E Enterprise St"}, {"id": "e1f999c9-3012-41ab-869b-767125e19b7f", "name": "Alien Brewpub", "brewery_type": "brewpub", "address_1": "6601 Uptown Blvd NE Ste B", "address_2": null, "address_3": null, "city": "Albuquerque", "state_province": "New Mexico", "postal_code": "87110-4207", "country": "United States", "longitude": null, "latitude": null, "phone": "5058841116", "website_url": "http://www.abqbrewpub.com", "state": "New Mexico", "street": "6601 Uptown Blvd NE Ste B"}, {"id": "68b447a3-c65c-459f-8d02-334757bc6f71", "name": "Align Brewing Co", "brewery_type": "micro", "address_1": "8680 Miralani Dr", "address_2": null, "address_3": null, "city": "San Diego", "state_province": "California", "postal_code": "92126-6300", "country": "United States", "longitude": "-117.137429", "latitude": "32.896584", "phone": null, "website_url": "http://www.facebook.com/alignbrewing", "state": "California", "street": "8680 Miralani Dr"}, {"id": "108b8592-3098-42a3-b466-5c60e2e626af", "name": "All Rise Brewing Co", "brewery_type": "brewpub", "address_1": "235 N Ashland Ave", "address_2": null, "address_3": null, "city": "Chicago", "state_province": "Illinois", "postal_code": "60607-1401", "country": "United States", "longitude": "-87.6667328", "latitude": "41.8864021", "phone": "3122266300", "website_url": "http://www.allrisebrewing.com", "state": "Illinois", "street": "235 N Ashland Ave"}, {"id": "61853d49-62af-44bc-b0f7-bbc0faa89d30", "name": "All Saints Brewing Co", "brewery_type": "micro", "address_1": "1602 State Route 119", "address_2": null, "address_3": null, "city": "Greensburg", "state_province": "Pennsylvania", "postal_code": "15601-7317", "country": "United States", "longitude": null, "latitude": null, "phone": "7242891202", "website_url": "http://www.allsaintscraftbrewing.com", "state": "Pennsylvania", "street": "1602 State Route 119"}, {"id": "82ea8f08-2026-43f8-b1a7-cc57ebe8c0bb", "name": "All-American Ale Works", "brewery_type": "micro", "address_1": "5120 E La Palma Ave Ste 103", "address_2": null, "address_3": null, "city": "Anaheim", "state_province": "California", "postal_code": "92807-2082", "country": "United States", "longitude": "-117.8056915", "latitude": "33.85925032", "phone": "9517412771", "website_url": "http://www.all-americanaleworks.com", "state": "California", "street": "5120 E La Palma Ave Ste 103"}, {"id": "8a7a2bc0-0f42-4889-94ef-7f8f647268fa", "name": "Allagash Brewing Co", "brewery_type": "regional", "address_1": "50 Industrial Way", "address_2": null, "address_3": null, "city": "Portland", "state_province": "Maine", "postal_code": "04103-1270", "country": "United States", "longitude": "-70.3179518", "latitude": "43.7030951", "phone": "2078785385", "website_url": "http://www.allagash.com", "state": "Maine", "street": "50 Industrial Way"}, {"id": "0924f3af-e548-446b-baf8-687ea51b02ae", "name": "Allegheny City Brewing", "brewery_type": "micro", "address_1": "507 Foreland St", "address_2": null, "address_3": null, "city": "Pittsburgh", "state_province": "Pennsylvania", "postal_code": "15212-4910", "country": "United States", "longitude": "-80.00061073", "latitude": "40.45424933", "phone": "4129043732", "website_url": "http://www.alleghenycitybrewing.com", "state": "Pennsylvania", "street": "507 Foreland St"}, {"id": "9b4f31d5-61b4-46ed-b501-6acc4d428666", "name": "Allegory Brewing", "brewery_type": "micro", "address_1": "777 NE 4th St", "address_2": null, "address_3": null, "city": "McMinnville", "state_province": "Oregon", "postal_code": "97128-4502", "country": "United States", "longitude": "-123.1917806", "latitude": "45.21081917", "phone": "9713731253", "website_url": "http://www.allegorybrewing.com", "state": "Oregon", "street": "777 NE 4th St"}, {"id": "3f583ab8-71bf-4009-9257-193ef53a1fe1", "name": "Allentown Brew Works", "brewery_type": "brewpub", "address_1": "812 Hamilton St", "address_2": null, "address_3": null, "city": "Allentown", "state_province": "Pennsylvania", "postal_code": "18101-2437", "country": "United States", "longitude": "-75.4575021", "latitude": "40.6060468", "phone": "6104337777", "website_url": "http://www.thebrewworks.com", "state": "Pennsylvania", "street": "812 Hamilton St"}, {"id": "9c3b028c-2949-4216-ba66-fbb098734cde", "name": "Alliance Brewing Company", "brewery_type": "micro", "address_1": "1130 Sevier Ave", "address_2": null, "address_3": null, "city": "Knoxville", "state_province": "Tennessee", "postal_code": "37920", "country": "United States", "longitude": "-83.9035469", "latitude": "35.9593516", "phone": "8652475355", "website_url": "http://www.alliancebrewing.com", "state": "Tennessee", "street": "1130 Sevier Ave"}, {"id": "10795316-cc0d-42d7-80c7-e237aae40a06", "name": "Alligator Brewing / Tall Paul's Brewhouse", "brewery_type": "micro", "address_1": "10 SE 2nd Ave", "address_2": null, "address_3": null, "city": "Gainesville", "state_province": "Florida", "postal_code": "32601-6232", "country": "United States", "longitude": "-82.3222523", "latitude": "29.6502615", "phone": "3525050990", "website_url": null, "state": "Florida", "street": "10 SE 2nd Ave"}, {"id": "1b259770-4334-44ad-be18-8097be571df6", "name": "Alloy Brewing Company", "brewery_type": "micro", "address_1": "2700 Coon Rapids Blvd NW", "address_2": null, "address_3": null, "city": "Coon Rapids", "state_province": "Minnesota", "postal_code": "55433-3955", "country": "United States", "longitude": "-93.33543497", "latitude": "45.16953614", "phone": "7634230939", "website_url": "http://www.alloybrewingcompany.com", "state": "Minnesota", "street": "2700 Coon Rapids Blvd NW"}, {"id": "6889b781-b8f6-4a5a-a1ef-ab3e4c72aed9", "name": "Alltech's Lexington Brewing", "brewery_type": "regional", "address_1": "475 Angliana Ave", "address_2": null, "address_3": null, "city": "Lexington", "state_province": "Kentucky", "postal_code": "40508-3134", "country": "United States", "longitude": "-84.51599645", "latitude": "38.04950651", "phone": "8592552337", "website_url": "http://www.Kentuckyale.com", "state": "Kentucky", "street": "475 Angliana Ave"}, {"id": "6e103afb-f4ad-4fea-bf67-b31d390c269d", "name": "Alluvial Brewing Company", "brewery_type": "micro", "address_1": "3715 W 190th St", "address_2": null, "address_3": null, "city": "Ames", "state_province": "Iowa", "postal_code": "50014-9316", "country": "United States", "longitude": "-93.6370387", "latitude": "41.5831617", "phone": "515337118", "website_url": "http://www.alluvialbrewing.com", "state": "Iowa", "street": "3715 W 190th St"}, {"id": "4d43c467-2e30-4b93-a25c-d1e46998dc07", "name": "Alma Brewing Co", "brewery_type": "brewpub", "address_1": "208 E Superior St", "address_2": null, "address_3": null, "city": "Alma", "state_province": "Michigan", "postal_code": "48801-1819", "country": "United States", "longitude": "-84.6588719", "latitude": "43.37888808", "phone": "9894620208", "website_url": "http://www.almabrewing.com", "state": "Michigan", "street": "208 E Superior St"}, {"id": "085c97d4-5a01-4e28-a1c6-683bf773b062", "name": "Alma Mader Brewing", "brewery_type": "micro", "address_1": "2635 Southwest Blvd", "address_2": null, "address_3": null, "city": "Kansas City", "state_province": "Missouri", "postal_code": "64108", "country": "United States", "longitude": "-94.599389", "latitude": "39.082495", "phone": "8169452589", "website_url": "http://almamaderbrewing.com", "state": "Missouri", "street": "2635 Southwest Blvd"}, {"id": "9a6f84d7-194b-426d-999f-c1be9beb835d", "name": "Almanac Beer Company", "brewery_type": "micro", "address_1": "651B W Tower Ave", "address_2": null, "address_3": null, "city": "Alameda", "state_province": "California", "postal_code": "94501-5047", "country": "United States", "longitude": "-122.3062832", "latitude": "37.78344977", "phone": "4159326531", "website_url": "http://almanacbeer.com", "state": "California", "street": "651B W Tower Ave"}, {"id": "fc0ae4ac-07b5-4df2-a1d2-0785af183a35", "name": "Almost Famous Brewing Company", "brewery_type": "micro", "address_1": "17 Kripes Rd", "address_2": null, "address_3": null, "city": "East Granby", "state_province": "Connecticut", "postal_code": "06026", "country": "United States", "longitude": "-72.4224674", "latitude": "41.9581654", "phone": "8604139401", "website_url": "https://www.almostfamousbrewing.com/", "state": "Connecticut", "street": "17 Kripes Rd"}, {"id": "cc1c18dc-77d7-4ca5-b3b7-8180f77feecd", "name": "Aloha Beer Co", "brewery_type": "brewpub", "address_1": "700 Queen St", "address_2": null, "address_3": null, "city": "Honolulu", "state_province": "Hawaii", "postal_code": "96813-5110", "country": "United States", "longitude": "-157.857248", "latitude": "21.301249", "phone": "8085455959", "website_url": "http://www.alohabeer.com", "state": "Hawaii", "street": "700 Queen St"}, {"id": "30ef2457-11c4-48ef-ae58-37109ceda4c7", "name": "Alosta Brewing Co", "brewery_type": "micro", "address_1": "692 Arrow Grand Cir", "address_2": null, "address_3": null, "city": "Covina", "state_province": "California", "postal_code": "91722-2122", "country": "United States", "longitude": "-117.8781466", "latitude": "34.10365026", "phone": "9094558707", "website_url": "http://www.alostabrewing.com", "state": "California", "street": "692 Arrow Grand Cir"}, {"id": "abe71cdf-8c92-4be2-adac-902d1a14e7bb", "name": "Alpenglow Beer Co", "brewery_type": "contract", "address_1": null, "address_2": null, "address_3": null, "city": "Lafayette", "state_province": "California", "postal_code": "94549-4621", "country": "United States", "longitude": "-122.1180201", "latitude": "37.8857582", "phone": null, "website_url": "http://www.buckwildbrew.com", "state": "California", "street": null}, {"id": "dc9fb80b-fb92-47c2-8b13-9a6f6990f99e", "name": "Alpha Acid Brewing Co", "brewery_type": "micro", "address_1": "121 Industrial Way Ste 12", "address_2": null, "address_3": null, "city": "Belmont", "state_province": "California", "postal_code": "94002-8208", "country": "United States", "longitude": "-122.2655717", "latitude": "37.52125155", "phone": "6503944728", "website_url": null, "state": "California", "street": "121 Industrial Way Ste 12"}, {"id": "0edb8050-2911-4a04-a99a-7927e05cd018", "name": "Alpha Brewing Co.", "brewery_type": "micro", "address_1": "4310 Fyler Ave", "address_2": null, "address_3": null, "city": "Saint Louis", "state_province": "Missouri", "postal_code": "63116", "country": "United States", "longitude": "-90.26236838", "latitude": "38.59861817", "phone": "3146212337", "website_url": "http://www.alphabrewingcompany.com", "state": "Missouri", "street": "4310 Fyler Ave"}, {"id": "810e0e7c-293a-4e3e-a557-13691d30d399", "name": "Alphabet City Brewing Co", "brewery_type": "contract", "address_1": "96 Avenue C Frnt 4", "address_2": null, "address_3": null, "city": "New York", "state_province": "New York", "postal_code": "10009-7055", "country": "United States", "longitude": null, "latitude": null, "phone": "9143566809", "website_url": "http://www.acbnyc.com", "state": "New York", "street": "96 Avenue C Frnt 4"}, {"id": "1d7c2273-8031-40d2-bb50-7f518722e291", "name": "Alpine Beer Company", "brewery_type": "brewpub", "address_1": "6550 Mira Mesa Blvd", "address_2": null, "address_3": null, "city": "San Diego", "state_province": "California", "postal_code": "92121-4100", "country": "United States", "longitude": "-117.113975", "latitude": "32.9167796", "phone": "6194452337", "website_url": "http://www.alpinebrewing.com", "state": "California", "street": "6550 Mira Mesa Blvd"}, {"id": "d8dd6a64-c201-471f-a0a1-0fc8d04b5b49", "name": "Alpine Brewing Co", "brewery_type": "micro", "address_1": "821 14th Ave", "address_2": null, "address_3": null, "city": "Oroville", "state_province": "Washington", "postal_code": "98844", "country": "United States", "longitude": "-119.4305306", "latitude": "48.9365877", "phone": "5094769662", "website_url": "http://www.alpine-brewing.com", "state": "Washington", "street": "821 14th Ave"}]