[{"id": "37adfb0e-f64e-4e66-98d9-9dde6a7df11d", "name": "Cash Brewing Company", "brewery_type": "closed", "address_1": "3388 NW Byron St Ste 100", "address_2": null, "address_3": null, "city": "Silverdale", "state_province": "Washington", "postal_code": "98383-8548", "country": "United States", "longitude": null, "latitude": null, "phone": "3606337852", "website_url": "http://www.cashbrewing.com", "state": "Washington", "street": "3388 NW Byron St Ste 100"}, {"id": "1b1cb9a2-6eeb-4995-9639-86e6b7610fe0", "name": "Castle Brewing Co", "brewery_type": "brewpub", "address_1": "1310 W Washington", "address_2": null, "address_3": null, "city": "Greenville", "state_province": "Michigan", "postal_code": "48838", "country": "United States", "longitude": null, "latitude": null, "phone": "6167126226", "website_url": "http://www.castlebrewingco.com", "state": "Michigan", "street": "1310 W Washington"}, {"id": "51b16993-d99b-4a27-8e00-b9af14c372fa", "name": "Castle Church Brewing Community", "brewery_type": "planning", "address_1": null, "address_2": null, "address_3": null, "city": "Kissimmee", "state_province": "Florida", "postal_code": "34744-3990", "country": "United States", "longitude": null, "latitude": null, "phone": null, "website_url": "http://www.castlechurchbrewing.com", "state": "Florida", "street": null}, {"id": "7440477a-6410-4967-b856-c031ced810b3", "name": "Castle Danger Brewery", "brewery_type": "micro", "address_1": "17 7th St", "address_2": null, "address_3": null, "city": "Two Harbors", "state_province": "Minnesota", "postal_code": "55616-1672", "country": "United States", "longitude": "-91.6731853", "latitude": "47.0194124", "phone": "2188345800", "website_url": "http://www.castledangerbrewery.com", "state": "Minnesota", "street": "17 7th St"}, {"id": "de3d4ee8-375c-4980-8ed1-c053afaf121e", "name": "Castle Island Brewing Co.", "brewery_type": "micro", "address_1": "31 Astor Ave", "address_2": null, "address_3": null, "city": "Norwood", "state_province": "Massachusetts", "postal_code": "02062-5016", "country": "United States", "longitude": "-71.19186438", "latitude": "42.16931297", "phone": "7819512029", "website_url": "http://www.castleislandbeer.com", "state": "Massachusetts", "street": "31 Astor Ave"}, {"id": "fdeb1948-d245-4ab5-986f-5b5e42e5633b", "name": "Castle Point Brewery", "brewery_type": "contract", "address_1": "200 Garden St C/O Red Bridge Homes", "address_2": null, "address_3": null, "city": "Hoboken", "state_province": "New Jersey", "postal_code": "07030-3793", "country": "United States", "longitude": null, "latitude": null, "phone": "9185328525", "website_url": "http://www.castlepointbrewery.com", "state": "New Jersey", "street": "200 Garden St C/O Red Bridge Homes"}, {"id": "51a0b7c1-2250-44a6-a188-7bfd732ef861", "name": "Castle Rock Beer Company", "brewery_type": "micro", "address_1": "514 Perry St Ste C106", "address_2": null, "address_3": null, "city": "Castle Rock", "state_province": "Colorado", "postal_code": "80104-1711", "country": "United States", "longitude": null, "latitude": null, "phone": "7203289008", "website_url": "http://www.castlerockbeerco.com", "state": "Colorado", "street": "514 Perry St Ste C106"}, {"id": "e815c800-2ec4-4008-96be-aef173fbe112", "name": "Castleburg Brewery", "brewery_type": "micro", "address_1": "1626 Ownby Ln", "address_2": null, "address_3": null, "city": "Richmond", "state_province": "Virginia", "postal_code": "23220-1317", "country": "United States", "longitude": null, "latitude": null, "phone": "8043531256", "website_url": "http://www.castleburgbrewery.com", "state": "Virginia", "street": "1626 Ownby Ln"}, {"id": "dd121468-1064-4fab-98b5-8b2044e3a3b4", "name": "Casual Animal", "brewery_type": "micro", "address_1": "1725 McGee St", "address_2": null, "address_3": null, "city": "Kansas City", "state_province": "Missouri", "postal_code": "64108", "country": "United States", "longitude": "-94.57977386", "latitude": "39.0924045", "phone": "8162145388", "website_url": "http://www.casualanimalbrewing.com", "state": "Missouri", "street": "1725 McGee St"}, {"id": "f8d5fa60-f3d6-41b1-8e60-750dc9baf9e4", "name": "Catalina Brewing Company", "brewery_type": "micro", "address_1": "6918 N Camino Martin", "address_2": null, "address_3": null, "city": "Tucson", "state_province": "Arizona", "postal_code": "85741-2281", "country": "United States", "longitude": null, "latitude": null, "phone": "5203293622", "website_url": "http://www.catalinabrewingco.com/", "state": "Arizona", "street": "6918 N Camino Martin"}, {"id": "44c0bc74-7c1a-47d7-8bd5-535c17fef433", "name": "Catalina Island Brew House", "brewery_type": "micro", "address_1": "417 Crescent Ave", "address_2": null, "address_3": null, "city": "Avalon", "state_province": "California", "postal_code": "90704", "country": "United States", "longitude": "-118.3256345", "latitude": "33.3434987", "phone": "3105906905", "website_url": "http://www.catalinaislandbrewhouse.com", "state": "California", "street": "417 Crescent Ave"}, {"id": "3b1a5b42-5517-4da1-b1ee-93b3e3bce99d", "name": "Catawba Brewing Co", "brewery_type": "regional", "address_1": "212 S Green St", "address_2": null, "address_3": null, "city": "Morganton", "state_province": "North Carolina", "postal_code": "28655-3525", "country": "United States", "longitude": "-81.68543695", "latitude": "35.74471934", "phone": "8284306883", "website_url": "http://www.CatawbaBrewing.com", "state": "North Carolina", "street": "212 S Green St"}, {"id": "5d4d326a-dc02-4959-aab7-2d23a36bfc9e", "name": "Catawba Brewing Co - Asheville", "brewery_type": "micro", "address_1": "63 Brook St Ste 1", "address_2": null, "address_3": null, "city": "Asheville", "state_province": "North Carolina", "postal_code": "28803-2685", "country": "United States", "longitude": null, "latitude": null, "phone": "8284247290", "website_url": "http://www.catawbavalleybrewingcompany.com", "state": "North Carolina", "street": "63 Brook St Ste 1"}, {"id": "612795ac-9fca-4569-8b5c-2e4056fdbd8f", "name": "Catawba Brewing Co - Charlotte", "brewery_type": "micro", "address_1": "933 Louise Ave Ste 105", "address_2": null, "address_3": null, "city": "Charlotte", "state_province": "North Carolina", "postal_code": "28204-2299", "country": "United States", "longitude": null, "latitude": null, "phone": "9804986145", "website_url": null, "state": "North Carolina", "street": "933 Louise Ave Ste 105"}, {"id": "476e6a16-b68f-4b13-ac67-b8774e4bfa23", "name": "Catawba Island Brewing Company", "brewery_type": "micro", "address_1": "2330 East Harbor Rd", "address_2": null, "address_3": null, "city": "Port Clinton", "state_province": "Ohio", "postal_code": "43452-1517", "country": "United States", "longitude": null, "latitude": null, "phone": "4199607764", "website_url": "http://catawbaislandbrewing.com", "state": "Ohio", "street": "2330 East Harbor Rd"}, {"id": "c14fb00c-7034-45e9-8581-e5865bc72e0a", "name": "Catfish Charlies / Catfish Creek Brew Pub", "brewery_type": "brewpub", "address_1": "1630 E 16th St", "address_2": null, "address_3": null, "city": "Dubuque", "state_province": "Iowa", "postal_code": "52001-2306", "country": "United States", "longitude": "-90.65372886", "latitude": "42.51225898", "phone": "5635828600", "website_url": "http://www.catfishcharliesdubuque.com", "state": "Iowa", "street": "1630 E 16th St"}, {"id": "946fddaa-7222-4ece-823e-52896e661874", "name": "Cathedral Square Brewery", "brewery_type": "closed", "address_1": "3914 Lindell Blvd", "address_2": null, "address_3": null, "city": "Saint Louis", "state_province": "Missouri", "postal_code": "63108-3204", "country": "United States", "longitude": "-90.2439837", "latitude": "38.6394897", "phone": "3148033605", "website_url": "http://www.cathedralsquarebrewery.com", "state": "Missouri", "street": "3914 Lindell Blvd"}, {"id": "f6695f12-3197-484d-9830-503bc41bfc74", "name": "Catskill Brewery", "brewery_type": "micro", "address_1": "672 Old Route 17", "address_2": null, "address_3": null, "city": "Livingston Manor", "state_province": "New York", "postal_code": "12758-0033", "country": "United States", "longitude": "-74.827173", "latitude": "41.911407", "phone": "8454391232", "website_url": "http://www.catskillbrewery.com", "state": "New York", "street": "672 Old Route 17"}, {"id": "282e53a4-054a-4047-a7ff-bde26dfad708", "name": "Cave Brewing Co", "brewery_type": "micro", "address_1": "1407 Seidersville Rd", "address_2": null, "address_3": null, "city": "Bethlehem", "state_province": "Pennsylvania", "postal_code": "18015-4219", "country": "United States", "longitude": "-75.3464618", "latitude": "40.5910341", "phone": "6107391381", "website_url": "http://www.cavebrewing.com", "state": "Pennsylvania", "street": "1407 Seidersville Rd"}, {"id": "5a4c2070-48c1-4385-8e3b-e9de15514941", "name": "Cave Mountain Brewing Co", "brewery_type": "brewpub", "address_1": "5359 State Route 23", "address_2": null, "address_3": null, "city": "Windham", "state_province": "New York", "postal_code": "12496-5906", "country": "United States", "longitude": null, "latitude": null, "phone": "5187349222", "website_url": "http://www.cavemountainbrewing.com", "state": "New York", "street": "5359 State Route 23"}, {"id": "7cabd85d-217f-49c7-b0eb-3031a9efca4d", "name": "Cavendish Brewing Company", "brewery_type": "micro", "address_1": "207 N Chester St", "address_2": null, "address_3": null, "city": "Gastonia", "state_province": "North Carolina", "postal_code": "28052-2234", "country": "United States", "longitude": "-81.18741223", "latitude": "35.26577507", "phone": "7048300435", "website_url": "http://www.cavendishbrewing.com", "state": "North Carolina", "street": "207 N Chester St"}, {"id": "de78fdc6-98f3-4a6b-b3f7-acce58a94271", "name": "Cavern Brewing At Lowes Foods", "brewery_type": "brewpub", "address_1": "1381 Old Mill Cir Ste 200", "address_2": null, "address_3": null, "city": "Winston Salem", "state_province": "North Carolina", "postal_code": "27103-1497", "country": "United States", "longitude": null, "latitude": null, "phone": "3367753007", "website_url": "http://www.lowesfoods.com", "state": "North Carolina", "street": "1381 Old Mill Cir Ste 200"}, {"id": "a134143f-1c86-4a90-8ded-458aaed9a374", "name": "Cayucos Brewing Co", "brewery_type": "contract", "address_1": "136 Ocean Front Ln", "address_2": null, "address_3": null, "city": "Cayucos", "state_province": "California", "postal_code": "93430-1649", "country": "United States", "longitude": "-120.9021884", "latitude": "35.44711022", "phone": "8059951993", "website_url": "http://www.cayucosbeer.com", "state": "California", "street": "136 Ocean Front Ln"}, {"id": "0ff4c7dc-c0b0-4f25-8a80-effcf912ffe6", "name": "CB Craft Brewers", "brewery_type": "micro", "address_1": "300 Village Square Blvd", "address_2": null, "address_3": null, "city": "Honeoye Falls", "state_province": "New York", "postal_code": "14472-1180", "country": "United States", "longitude": null, "latitude": null, "phone": "5856244386", "website_url": "http://www.cbcraftbrewers.com", "state": "New York", "street": "300 Village Square Blvd"}, {"id": "a702447d-f43b-4aab-80a7-1c3c0f40b1c7", "name": "Cebula Craft Brewing LLC dba GameCraft Brewing", "brewery_type": "planning", "address_1": null, "address_2": null, "address_3": null, "city": "Laguna Hills", "state_province": "California", "postal_code": "92653-1589", "country": "United States", "longitude": "-117.6882067", "latitude": "33.5948758", "phone": "9497340910", "website_url": "http://www.gamecraftbrewing.com", "state": "California", "street": null}, {"id": "5b1e7138-19f6-45fa-a899-70d808b55591", "name": "Cedar Creek Brewery", "brewery_type": "brewpub", "address_1": "336 E Cedar Creek Pkwy", "address_2": null, "address_3": null, "city": "Seven Points", "state_province": "Texas", "postal_code": "75143-8395", "country": "United States", "longitude": null, "latitude": null, "phone": "2145029795", "website_url": "http://www.cedarcreekbrewery.com", "state": "Texas", "street": "336 E Cedar Creek Pkwy"}, {"id": "9560132e-e992-4036-9274-1ba8de498c1e", "name": "Cedar Creek Brewing Co.", "brewery_type": "micro", "address_1": "3820 Leonard Rd", "address_2": null, "address_3": null, "city": "Martinsville", "state_province": "Indiana", "postal_code": "46151-5600", "country": "United States", "longitude": null, "latitude": null, "phone": "7653429000", "website_url": "http://www.drinkatthecreek.com", "state": "Indiana", "street": "3820 Leonard Rd"}, {"id": "50da8137-1da4-4939-932d-50fa93a11ad5", "name": "Cedar Crest Brewing and Wine Bar", "brewery_type": "brewpub", "address_1": "615 Main St", "address_2": null, "address_3": null, "city": "Red Bluff", "state_province": "California", "postal_code": "96080-3343", "country": "United States", "longitude": "-122.2344167", "latitude": "40.17675757", "phone": "5307279016", "website_url": "http://www.facebook.com/enjoythestoreredbluff", "state": "California", "street": "615 Main St"}, {"id": "efecf28c-1f97-43b4-b283-11b8ad902d42", "name": "Cedar Point Brewery", "brewery_type": "planning", "address_1": null, "address_2": null, "address_3": null, "city": "Scituate", "state_province": "Massachusetts", "postal_code": "02066-1317", "country": "United States", "longitude": null, "latitude": null, "phone": "7818311724", "website_url": null, "state": "Massachusetts", "street": null}, {"id": "1faa8def-e465-4b92-b77c-e9da87845ff7", "name": "Cedar Run Brewery", "brewery_type": "planning", "address_1": null, "address_2": null, "address_3": null, "city": "Nokesville", "state_province": "Virginia", "postal_code": "20181-2506", "country": "United States", "longitude": null, "latitude": null, "phone": "7032032641", "website_url": null, "state": "Virginia", "street": null}, {"id": "9552b15e-81e1-4941-a0a7-86f07ffa5d0e", "name": "Cedar Springs Brewing Company", "brewery_type": "brewpub", "address_1": "95 N Main # 34", "address_2": null, "address_3": null, "city": "Cedar Springs", "state_province": "Michigan", "postal_code": "49319-5140", "country": "United States", "longitude": null, "latitude": null, "phone": "616696", "website_url": "http://www.CSBrew.com", "state": "Michigan", "street": "95 N Main # 34"}, {"id": "1e5fd874-e6fa-4189-ad30-a6aab5e2ec7b", "name": "Celis Brewery", "brewery_type": "micro", "address_1": "10001 Metic Blvd.", "address_2": null, "address_3": null, "city": "Austin", "state_province": "Texas", "postal_code": "78758", "country": "United States", "longitude": null, "latitude": null, "phone": "5125242377", "website_url": "http://www.celisbeers.com", "state": "Texas", "street": "10001 Metic Blvd."}, {"id": "86bb1d32-ad5f-42c6-a7b9-70c92801d1d9", "name": "Cellar Brewing Co", "brewery_type": "brewpub", "address_1": "133 E Division St", "address_2": null, "address_3": null, "city": "Sparta", "state_province": "Michigan", "postal_code": "49345-1329", "country": "United States", "longitude": "-85.70639839", "latitude": "43.16082496", "phone": "6168830777", "website_url": "http://www.cellarbrewingco.com", "state": "Michigan", "street": "133 E Division St"}, {"id": "c8914288-0a70-4f53-9c72-d65595b103f8", "name": "Cellar West Artisan Ales", "brewery_type": "micro", "address_1": "1001 Lee Hill Dr Ste 10", "address_2": null, "address_3": null, "city": "Boulder", "state_province": "Colorado", "postal_code": "80302-9471", "country": "United States", "longitude": null, "latitude": null, "phone": "2627198795", "website_url": "http://www.cellarwest.com", "state": "Colorado", "street": "1001 Lee Hill Dr Ste 10"}, {"id": "a15b076b-cec2-43fc-bd9b-dd530d8985dc", "name": "Cellar Works Brewing Co.", "brewery_type": "micro", "address_1": "110 S Pike Rd Ste 205", "address_2": null, "address_3": null, "city": "Sarver", "state_province": "Pennsylvania", "postal_code": "16055-9682", "country": "United States", "longitude": null, "latitude": null, "phone": "7245242120", "website_url": "http://www.cellarworksbrewing.com", "state": "Pennsylvania", "street": "110 S Pike Rd Ste 205"}, {"id": "7d69186e-193b-47cd-84dc-60ccdea2b1b3", "name": "Cellarmaker Brewing Company", "brewery_type": "micro", "address_1": "1150 Howard St", "address_2": null, "address_3": null, "city": "San Francisco", "state_province": "California", "postal_code": "94103-3914", "country": "United States", "longitude": "-122.4106996", "latitude": "37.7771589", "phone": "4158633940", "website_url": "http://www.cellarmakerbrewing.com", "state": "California", "street": "1150 Howard St"}, {"id": "8a784d6c-14f0-4df9-b49c-37950ef9c8d1", "name": "Cellarman's Pub & Brewery", "brewery_type": "brewpub", "address_1": "2130 Texoma Pkwy", "address_2": null, "address_3": null, "city": "Sherman", "state_province": "Texas", "postal_code": "75090-2622", "country": "United States", "longitude": "-96.59953011", "latitude": "33.66188865", "phone": "9038130994", "website_url": "http://www.cellarmanspub.com", "state": "Texas", "street": "2130 Texoma Pkwy"}, {"id": "15ceab0b-ebef-46a3-9bf9-7915a219eeda", "name": "Cellarmen's Meadery, Microbrewery and Cidery", "brewery_type": "micro", "address_1": "24310 John R Rd", "address_2": null, "address_3": null, "city": "Hazel Park", "state_province": "Michigan", "postal_code": "48030-1112", "country": "United States", "longitude": null, "latitude": null, "phone": "5864134206", "website_url": "http://www.cellarmens.com", "state": "Michigan", "street": "24310 John R Rd"}, {"id": "c37ba1f6-a014-4529-b8f0-240e95740556", "name": "Center Ice Brewing Company", "brewery_type": "micro", "address_1": "3126 Olive St.", "address_2": null, "address_3": null, "city": "Saint Louis", "state_province": "Missouri", "postal_code": "63103", "country": "United States", "longitude": "-90.22430637", "latitude": "38.63530006", "phone": "3142779843", "website_url": "http://www.centericebrewery.com", "state": "Missouri", "street": "3126 Olive St."}, {"id": "9b07942e-75fc-4df3-85d1-611544fb766c", "name": "Center of the Universe Brewing Co", "brewery_type": "micro", "address_1": "11293 Air Park Rd", "address_2": null, "address_3": null, "city": "Ashland", "state_province": "Virginia", "postal_code": "23005-3436", "country": "United States", "longitude": null, "latitude": null, "phone": "8043680299", "website_url": "http://www.cotubrewing.com", "state": "Virginia", "street": "11293 Air Park Rd"}, {"id": "b77f57dd-6d85-4cf1-a1ee-bf44e3ef7935", "name": "Center Pivot", "brewery_type": "planning", "address_1": null, "address_2": null, "address_3": null, "city": "Quinter", "state_province": "Kansas", "postal_code": "67752", "country": "United States", "longitude": null, "latitude": null, "phone": "7857548344", "website_url": null, "state": "Kansas", "street": null}, {"id": "1fcb0371-fb13-48b5-bfd4-a87939d6650c", "name": "Center Square Brewing / Altland House", "brewery_type": "brewpub", "address_1": "1 Center Sq", "address_2": null, "address_3": null, "city": "Abbottstown", "state_province": "Pennsylvania", "postal_code": "17301-9502", "country": "United States", "longitude": null, "latitude": null, "phone": "7172599535", "website_url": "http://centersquarebrew.com", "state": "Pennsylvania", "street": "1 Center Sq"}, {"id": "542588a9-82dd-4f6f-a72c-53363d4ae57d", "name": "Center Street Brewing Company", "brewery_type": "planning", "address_1": null, "address_2": null, "address_3": null, "city": "Wallingford", "state_province": "Connecticut", "postal_code": "06492", "country": "United States", "longitude": null, "latitude": null, "phone": null, "website_url": "http://n/a", "state": "Connecticut", "street": null}, {"id": "20a578cc-439f-40f6-ae2d-02e6798108a1", "name": "Centerpoint Brewing", "brewery_type": "micro", "address_1": "1125 E Brookside Ave", "address_2": null, "address_3": null, "city": "Indianapolis", "state_province": "Indiana", "postal_code": "46202-3587", "country": "United States", "longitude": "-86.13740465", "latitude": "39.78129031", "phone": "3176028386", "website_url": "http://www.centerpointbrewing.com", "state": "Indiana", "street": "1125 E Brookside Ave"}, {"id": "f72eb79f-b910-4ab2-bee9-6af0c1abb7e7", "name": "Central 28 Beer Company", "brewery_type": "micro", "address_1": "290 Springview Commerce Dr Ste 1", "address_2": null, "address_3": null, "city": "Debary", "state_province": "Florida", "postal_code": "32713-4848", "country": "United States", "longitude": null, "latitude": null, "phone": "3866682811", "website_url": "http://www.central28beer.com", "state": "Florida", "street": "290 Springview Commerce Dr Ste 1"}, {"id": "b067aab3-c4e6-4417-b84f-3f8b4290084b", "name": "Central Coast Brewing Co - Higuera St.", "brewery_type": "brewpub", "address_1": "6 Higuera St.", "address_2": null, "address_3": null, "city": "San Luis Obispo", "state_province": "California", "postal_code": "93401", "country": "United States", "longitude": "-120.6709908", "latitude": "35.2651725", "phone": "8057832739", "website_url": null, "state": "California", "street": "6 Higuera St."}, {"id": "ec8490e6-a241-47af-8746-eb5f95a2012f", "name": "Central Coast Brewing Co - Monterey St.", "brewery_type": "micro", "address_1": "1422 Monterey St Ste B100", "address_2": null, "address_3": null, "city": "San Luis Obispo", "state_province": "California", "postal_code": "93401-2900", "country": "United States", "longitude": "-120.655724", "latitude": "35.28597462", "phone": "8057832739", "website_url": "http://www.centralcoastbrewing.com", "state": "California", "street": "1422 Monterey St Ste B100"}, {"id": "729fb6cc-0d37-4179-81fe-73a18e67b667", "name": "Central Machine Works", "brewery_type": "micro", "address_1": "4824 E Cesar Chavez St", "address_2": null, "address_3": null, "city": "Austin", "state_province": "Texas", "postal_code": "78702-5135", "country": "United States", "longitude": "-97.7037665", "latitude": "30.2520225", "phone": "512-220-2340", "website_url": "http://cmwbrewery.com/", "state": "Texas", "street": "4824 E Cesar Chavez St"}, {"id": "3e9028ae-2464-4ab9-b852-26d54695af7a", "name": "Central Standard Brewing", "brewery_type": "micro", "address_1": "156 S Greenwood St", "address_2": null, "address_3": null, "city": "Wichita", "state_province": "Kansas", "postal_code": "67211-1815", "country": "United States", "longitude": "-97.3184245", "latitude": "37.6846165", "phone": "3162608515", "website_url": "http://www.drinkcsb.com", "state": "Kansas", "street": "156 S Greenwood St"}, {"id": "dcef9d1b-d9c0-4512-aeb6-eb22c60de041", "name": "Central State Brewing", "brewery_type": "micro", "address_1": "4001 E 26th St", "address_2": null, "address_3": null, "city": "Indianapolis", "state_province": "Indiana", "postal_code": "46218", "country": "United States", "longitude": "-86.099105", "latitude": "39.805091", "phone": "3174079855", "website_url": "http://centralstatebrewing.com", "state": "Indiana", "street": "4001 E 26th St"}, {"id": "4ef7f47b-2152-427e-89a8-bc3326630ed4", "name": "Central Waters Brewing Co", "brewery_type": "regional", "address_1": "351 Allen St", "address_2": null, "address_3": null, "city": "Amherst", "state_province": "Wisconsin", "postal_code": "54406-8954", "country": "United States", "longitude": "-89.27970182", "latitude": "44.4422503", "phone": "7158242739", "website_url": "http://www.centralwaters.com", "state": "Wisconsin", "street": "351 Allen St"}, {"id": "e3c0946f-f098-4820-baf7-65cba1c2abca", "name": "Cerberus Brewing Company", "brewery_type": "brewpub", "address_1": "702 W Colorado Ave", "address_2": null, "address_3": null, "city": "Colorado Springs", "state_province": "Colorado", "postal_code": "80905-1539", "country": "United States", "longitude": "-104.8374071", "latitude": "38.8330574", "phone": "7196362337", "website_url": "http://www.cerberusbrewingco.com", "state": "Colorado", "street": "702 W Colorado Ave"}, {"id": "780ad4bb-6a56-4af5-a613-5551fd00166a", "name": "Cercis Brewing Company", "brewery_type": "micro", "address_1": "106 N Dickason Blvd", "address_2": null, "address_3": null, "city": "Columbus", "state_province": "Wisconsin", "postal_code": "53925-", "country": "United States", "longitude": "-89.01542922", "latitude": "43.33907788", "phone": "9203500500", "website_url": null, "state": "Wisconsin", "street": "106 N Dickason Blvd"}, {"id": "d41989d3-e3a4-47c0-a0eb-cdcfe61a1066", "name": "Cerebral Brewing", "brewery_type": "micro", "address_1": "1477 Monroe St", "address_2": null, "address_3": null, "city": "Denver", "state_province": "Colorado", "postal_code": "80206-2708", "country": "United States", "longitude": "-104.9451783", "latitude": "39.73968253", "phone": "3039277365", "website_url": "http://www.cerebralbrewing.com", "state": "Colorado", "street": "1477 Monroe St"}, {"id": "979f53b8-e18d-45d6-a893-bd7f3419f803", "name": "Cervecentro", "brewery_type": "planning", "address_1": null, "address_2": null, "address_3": null, "city": "Miami", "state_province": "Florida", "postal_code": "33181-3404", "country": "United States", "longitude": null, "latitude": null, "phone": "3055171656", "website_url": "http://www.cervecentro.com.ve", "state": "Florida", "street": null}, {"id": "6ee6cc71-b24b-481e-95f3-05bdefbaa41d", "name": "Cerveceria Del Pueblo", "brewery_type": "planning", "address_1": null, "address_2": null, "address_3": null, "city": "Pasadena", "state_province": "California", "postal_code": "91105-1822", "country": "United States", "longitude": "-118.1444779", "latitude": "34.1476452", "phone": null, "website_url": null, "state": "California", "street": null}, {"id": "5b077a9d-d97a-43d7-9c66-68e6d512f499", "name": "Cerveja Alvoreada", "brewery_type": "brewpub", "address_1": "Rua Sousa Porto, 24", "address_2": null, "address_3": null, "city": "Beja", "state_province": "Beja", "postal_code": "7800-071", "country": "Portugal", "longitude": "-7.853814062401847", "latitude": "38.009903135996986", "phone": "+351 963 592 133", "website_url": null, "state": "Beja", "street": "Rua Sousa Porto, 24"}, {"id": "7d199c4a-13fd-4568-825f-73c2b6722bb8", "name": "Cerveza Guajira", "brewery_type": "planning", "address_1": null, "address_2": null, "address_3": null, "city": "Miami", "state_province": "Florida", "postal_code": "33137", "country": "United States", "longitude": null, "latitude": null, "phone": "3056005692", "website_url": null, "state": "Florida", "street": null}, {"id": "c592a01a-6e1d-4f47-b65c-7d83344977b9", "name": "CH Evans Brewing Co/Albany Pump Station", "brewery_type": "brewpub", "address_1": "19 Quackenbush Sq", "address_2": null, "address_3": null, "city": "Albany", "state_province": "New York", "postal_code": "12207-2311", "country": "United States", "longitude": null, "latitude": null, "phone": "5184479000", "website_url": "http://www.evansale.com", "state": "New York", "street": "19 Quackenbush Sq"}, {"id": "27baa23f-707d-40e8-98f5-64f94b3f19ad", "name": "Chafunkta Brewing Co", "brewery_type": "micro", "address_1": "69123 Skybrook Rd. STE E", "address_2": null, "address_3": null, "city": "Mandeville", "state_province": "Louisiana", "postal_code": "70471-7777", "country": "United States", "longitude": null, "latitude": null, "phone": "9858690716", "website_url": "http://www.chafunkta.com", "state": "Louisiana", "street": "69123 Skybrook Rd. STE E"}, {"id": "ecbd7424-8f25-4db0-af5e-8334991c2983", "name": "Chagrin Beer Company", "brewery_type": "contract", "address_1": "178 E Washington St", "address_2": null, "address_3": null, "city": "Chagrin Falls", "state_province": "Ohio", "postal_code": "44022-2978", "country": "United States", "longitude": "-81.38518067", "latitude": "41.42999722", "phone": "2166451739", "website_url": null, "state": "Ohio", "street": "178 E Washington St"}, {"id": "54a938fd-f2bc-4579-b173-3657eaaed527", "name": "Chain Reaction Brewing Company", "brewery_type": "micro", "address_1": "902 S Lipan St", "address_2": null, "address_3": null, "city": "Denver", "state_province": "Colorado", "postal_code": "80223-2717", "country": "United States", "longitude": "-105.001629", "latitude": "39.69879376", "phone": "3039220960", "website_url": "http://www.chainreactionbrewingco.com", "state": "Colorado", "street": "902 S Lipan St"}, {"id": "10bbba8b-368e-4c6e-adeb-cc6ff7faa782", "name": "Chainline Brewing Company", "brewery_type": "closed", "address_1": "503 6th St S", "address_2": null, "address_3": null, "city": "Kirkland", "state_province": "Washington", "postal_code": "98033-6717", "country": "United States", "longitude": "-122.1967583", "latitude": "47.6717847", "phone": "4252420923", "website_url": "http://www.chainlinebrewing.com", "state": "Washington", "street": "503 6th St S"}, {"id": "9a5923b4-e597-40e8-8b91-8ae103c1fa03", "name": "Chainline Brewing Company Taproom at Urban", "brewery_type": "micro", "address_1": "500 Uptown Ct Ste 210", "address_2": null, "address_3": null, "city": "Kirkland", "state_province": "Washington", "postal_code": "98033-5375", "country": "United States", "longitude": "-122.19855", "latitude": "47.67924", "phone": "4252420923", "website_url": "http://www.chainlinebrewing.com", "state": "Washington", "street": "500 Uptown Ct Ste 210"}, {"id": "ccdcafc4-b513-4979-b45c-b4103b1d5a9a", "name": "Champion Brewing Company", "brewery_type": "micro", "address_1": "324 6th St SE", "address_2": null, "address_3": null, "city": "Charlottesville", "state_province": "Virginia", "postal_code": "22902-5655", "country": "United States", "longitude": "-78.4784691", "latitude": "38.0277402", "phone": "4342952739", "website_url": "http://www.championbrewingcompany.com", "state": "Virginia", "street": "324 6th St SE"}, {"id": "6e39f621-d0ff-4765-97c2-53224a0d3825", "name": "Chandeleur Island Brewing Company", "brewery_type": "micro", "address_1": "2711 14th St", "address_2": null, "address_3": null, "city": "Gulfport", "state_province": "Mississippi", "postal_code": "39501-1928", "country": "United States", "longitude": "-89.09540702", "latitude": "30.367827", "phone": "2287019985", "website_url": "http://www.chandeleurbrew.com", "state": "Mississippi", "street": "2711 14th St"}, {"id": "852afa33-abfd-43c6-8a70-25726671635f", "name": "Chandler's Ford Brewing LLC", "brewery_type": "planning", "address_1": null, "address_2": null, "address_3": null, "city": "Huntsville", "state_province": "Alabama", "postal_code": "35802", "country": "United States", "longitude": "-86.5859011", "latitude": "34.729847", "phone": "2564576999", "website_url": "http://chandlersfordbrewing.com", "state": "Alabama", "street": null}, {"id": "60b2dd42-d68e-482b-a6a9-5b67213fd4d4", "name": "Channel Brewing Co.", "brewery_type": "micro", "address_1": "110 N San Joaquin St", "address_2": null, "address_3": null, "city": "Stockton", "state_province": "California", "postal_code": "95209-4506", "country": "United States", "longitude": "-121.2874106", "latitude": "37.95439196", "phone": "2094904133", "website_url": "http://www.channelbrewing.co", "state": "California", "street": "110 N San Joaquin St"}, {"id": "50f44b4d-4e59-4fbb-9a62-f10bb61496c5", "name": "Chaos Bay Brewing Co", "brewery_type": "micro", "address_1": "2901 Perry Ave", "address_2": null, "address_3": null, "city": "Bremerton", "state_province": "Washington", "postal_code": "98310-4945", "country": "United States", "longitude": "-122.6145084", "latitude": "47.58932601", "phone": "3603772344", "website_url": "https://www.chaosbaybrewing.com", "state": "Washington", "street": "2901 Perry Ave"}, {"id": "82055805-2151-4d92-aa60-9f30c6c0457c", "name": "Chaos Brewing", "brewery_type": "micro", "address_1": "112 S Main St", "address_2": null, "address_3": null, "city": "Joplin", "state_province": "Missouri", "postal_code": "64801", "country": "United States", "longitude": "-94.514437", "latitude": "37.1027", "phone": null, "website_url": "http://www.chaosbrewing.beer", "state": "Missouri", "street": "112 S Main St"}, {"id": "5afdddcd-a7dc-4667-bef8-0da63fe4c00f", "name": "Chaos Mountain Brewing, LLC", "brewery_type": "micro", "address_1": "3135 Dillons Mill Rd", "address_2": null, "address_3": null, "city": "Callaway", "state_province": "Virginia", "postal_code": "24067-2615", "country": "United States", "longitude": null, "latitude": null, "phone": "5403341600", "website_url": "http://www.chaosmountainbrewing.com", "state": "Virginia", "street": "3135 Dillons Mill Rd"}, {"id": "fa90e092-28ce-4e31-98d3-d2afd28c26f3", "name": "Chapeau Brewing Co", "brewery_type": "micro", "address_1": "Redkiln Close", "address_2": null, "address_3": null, "city": "Horsham", "state_province": "West Sussex", "postal_code": "RH13 5QL", "country": "England", "longitude": "-0.30833", "latitude": "51.070596", "phone": "1403252459", "website_url": "https://www.chapeaubrewing.com/", "state": "West Sussex", "street": "Redkiln Close"}, {"id": "e2a24eaa-1fc3-44a9-b05b-38820ef4a978", "name": "Chapel Brewing", "brewery_type": "micro", "address_1": "15 Hester St E", "address_2": null, "address_3": null, "city": "Dundas", "state_province": "Minnesota", "postal_code": "55019-3942", "country": "United States", "longitude": null, "latitude": null, "phone": "5076641300", "website_url": "http://www.chapelbrewing.com", "state": "Minnesota", "street": "15 Hester St E"}, {"id": "96ac0045-d677-4fe5-8dba-ba3fca9f2fe1", "name": "Chapman Crafted Beer", "brewery_type": "micro", "address_1": "123 N Cypress St", "address_2": null, "address_3": null, "city": "Orange", "state_province": "California", "postal_code": "92866-1309", "country": "United States", "longitude": "-117.856454", "latitude": "33.788493", "phone": "8448552337", "website_url": "http://www.chapmancrafted.beer", "state": "California", "street": "123 N Cypress St"}, {"id": "d4df1800-b94f-47bf-bb45-c8fa08d2f766", "name": "Chapman's Brewing Company", "brewery_type": "brewpub", "address_1": "300 Industrial Dr", "address_2": null, "address_3": null, "city": "Angola", "state_province": "Indiana", "postal_code": "46703-1053", "country": "United States", "longitude": "-85.00164782", "latitude": "41.64836256", "phone": "2603195495", "website_url": "http://www.chapmansbrewing.com", "state": "Indiana", "street": "300 Industrial Dr"}, {"id": "84bda627-35de-4adc-89a8-d55ea166b330", "name": "Chapman's Brewing Company", "brewery_type": "planning", "address_1": null, "address_2": null, "address_3": null, "city": "Wabash", "state_province": "Indiana", "postal_code": "46992-3131", "country": "United States", "longitude": null, "latitude": null, "phone": null, "website_url": "http://www.chapmansbrewing.com", "state": "Indiana", "street": null}, {"id": "d672e35e-6486-4d98-9343-994e67768660", "name": "Chappapeela Farms Brewery", "brewery_type": "micro", "address_1": "57542 Hillcrest School Rd", "address_2": null, "address_3": null, "city": "Amite", "state_province": "Louisiana", "postal_code": "70422-4922", "country": "United States", "longitude": null, "latitude": null, "phone": "2252819474", "website_url": "http://www.chapbrewery.com", "state": "Louisiana", "street": "57542 Hillcrest School Rd"}, {"id": "98c74480-648c-4e48-9740-bfef75a0310e", "name": "Charles Towne Fermentory", "brewery_type": "micro", "address_1": "809 Savannah Hwy", "address_2": null, "address_3": null, "city": "Charleston", "state_province": "South Carolina", "postal_code": "29407-7278", "country": "United States", "longitude": "-79.985096", "latitude": "32.781811", "phone": "8436410431", "website_url": "http://www.chsfermentory.com", "state": "South Carolina", "street": "809 Savannah Hwy"}, {"id": "d03afb99-77f5-472e-add0-52b4da9d6b59", "name": "Charleville Vineyard & Microbrewery", "brewery_type": "micro", "address_1": "16937 Boyd Rd", "address_2": null, "address_3": null, "city": "Sainte Genevieve", "state_province": "Missouri", "postal_code": "63670-7914", "country": "United States", "longitude": "-90.150279", "latitude": "37.757916", "phone": "5737564537", "website_url": "http://www.charlevillevineyard.com", "state": "Missouri", "street": "16937 Boyd Rd"}, {"id": "44c7a96e-0bb9-4477-9302-9571d15068bf", "name": "Charlie and Jakes Brewery and Grille", "brewery_type": "brewpub", "address_1": "6300 N Wickham Rd Ste 137", "address_2": null, "address_3": null, "city": "Melbourne", "state_province": "Florida", "postal_code": "32940-2037", "country": "United States", "longitude": null, "latitude": null, "phone": "3217527675", "website_url": "http://www.cjbrewery.com", "state": "Florida", "street": "6300 N Wickham Rd Ste 137"}, {"id": "e1677dd0-b321-4dd6-be81-713226ddd0bc", "name": "Charlie's Steak, Ribs & Ale", "brewery_type": "brewpub", "address_1": "3009 W 76 Country Blvd", "address_2": null, "address_3": null, "city": "Branson", "state_province": "Missouri", "postal_code": "65616-8312", "country": "United States", "longitude": "-93.275808", "latitude": "36.639618", "phone": "4173346090", "website_url": "http://www.charliesbranson.com", "state": "Missouri", "street": "3009 W 76 Country Blvd"}, {"id": "d7646611-58cd-4b1d-9572-c373a8c33401", "name": "Charlton Beer Company", "brewery_type": "micro", "address_1": null, "address_2": null, "address_3": null, "city": "Charlton", "state_province": "Massachusetts", "postal_code": "01507", "country": "United States", "longitude": null, "latitude": null, "phone": "5082485627", "website_url": "http://www.charltonbeercompany.com", "state": "Massachusetts", "street": null}, {"id": "e01090fe-7c0c-42b6-ab1a-7f47b734dab9", "name": "Charter Oak Brewing Company LLC", "brewery_type": "contract", "address_1": "39B Shelter Rock Rd", "address_2": null, "address_3": null, "city": "Danbury", "state_province": "Connecticut", "postal_code": "06810-7043", "country": "United States", "longitude": "-73.40421711", "latitude": "41.3961903", "phone": "2036165268", "website_url": "http://www.charteroakbrewing.com", "state": "Connecticut", "street": "39B Shelter Rock Rd"}, {"id": "117fca17-2f1b-48dc-9036-b64d39dc0711", "name": "Chase Brewing Company / Chase Tap Room", "brewery_type": "brewpub", "address_1": "266 Jefferson St", "address_2": null, "address_3": null, "city": "Lexington", "state_province": "Kentucky", "postal_code": "40508-1217", "country": "United States", "longitude": "-84.4986682", "latitude": "38.0546834", "phone": "8597973113", "website_url": "http://www.chasebrewing.com", "state": "Kentucky", "street": "266 Jefferson St"}, {"id": "c1955297-f27b-4cdd-a34d-83626a1d7593", "name": "Chatham Brewing LLC", "brewery_type": "micro", "address_1": "59 Main St", "address_2": null, "address_3": null, "city": "Chatham", "state_province": "New York", "postal_code": "12037-1249", "country": "United States", "longitude": "-73.59546931", "latitude": "42.36315065", "phone": "5186970202", "website_url": "http://www.chathambrewing.com", "state": "New York", "street": "59 Main St"}, {"id": "c7b4ae17-1cbd-4a08-9b21-07a7a0bf1689", "name": "Chatoe Rogue Farmstead Brewery", "brewery_type": "closed", "address_1": "3590 Wigrich Rd", "address_2": null, "address_3": null, "city": "Independence", "state_province": "Oregon", "postal_code": "97351-9708", "country": "United States", "longitude": "-123.0958477", "latitude": "44.80583507", "phone": "5038389813", "website_url": "http://www.rogue.com", "state": "Oregon", "street": "3590 Wigrich Rd"}, {"id": "32e080ba-5023-493a-a6ea-0a13f5be02fb", "name": "Chattabrewchee Southern Brewhouse", "brewery_type": "micro", "address_1": "709 4th Ave", "address_2": null, "address_3": null, "city": "West Point", "state_province": "Georgia", "postal_code": "31833-1506", "country": "United States", "longitude": "-85.18536152", "latitude": "32.87625763", "phone": "7065011151", "website_url": "http://www.chattabrewchee.com", "state": "Georgia", "street": "709 4th Ave"}, {"id": "42e77bcd-0745-4456-bd46-4a917ce4e790", "name": "Chattahoochee Brewing Co", "brewery_type": "micro", "address_1": "505 13th St Ste A", "address_2": null, "address_3": null, "city": "Phenix City", "state_province": "Alabama", "postal_code": "36867-5128", "country": "United States", "longitude": null, "latitude": null, "phone": "3345590663", "website_url": "http://www.beerontheriver.com", "state": "Alabama", "street": "505 13th St Ste A"}, {"id": "2df305d1-54c9-4414-aa77-cb4cd99044bd", "name": "Chattanooga Brewing Co", "brewery_type": "micro", "address_1": "1804 Chestnut St", "address_2": null, "address_3": null, "city": "Chattanooga", "state_province": "Tennessee", "postal_code": "37408-1027", "country": "United States", "longitude": "-85.31443025", "latitude": "35.03633349", "phone": "4237029958", "website_url": "http://www.chattabrew.com", "state": "Tennessee", "street": "1804 Chestnut St"}, {"id": "047bcd29-88dc-4b9d-843d-502921e8001e", "name": "Chatty Monks Brewing Company", "brewery_type": "brewpub", "address_1": "610 Penn Ave", "address_2": null, "address_3": null, "city": "West Reading", "state_province": "Pennsylvania", "postal_code": "19611-1004", "country": "United States", "longitude": "-75.95000063", "latitude": "40.3357192", "phone": "4848180176", "website_url": "http://www.chattymonks.com", "state": "Pennsylvania", "street": "610 Penn Ave"}, {"id": "468df106-530f-47c1-956a-8544beb7c6d6", "name": "Chau Tien Beer Company", "brewery_type": "contract", "address_1": null, "address_2": null, "address_3": null, "city": "Fairfield", "state_province": "California", "postal_code": "94533-0244", "country": "United States", "longitude": "-122.0399663", "latitude": "38.2493581", "phone": "7072808044", "website_url": "http://www.paleale.com", "state": "California", "street": null}, {"id": "18b7d2b2-1f37-41af-a89f-837ce6e80691", "name": "Cheaha Brewing Co", "brewery_type": "brewpub", "address_1": "1208 Walnut Ave", "address_2": null, "address_3": null, "city": "Anniston", "state_province": "Alabama", "postal_code": "36201-4526", "country": "United States", "longitude": "-85.83377405", "latitude": "33.6601671", "phone": "2567707300", "website_url": "http://www.cheahabrewingcompany.com", "state": "Alabama", "street": "1208 Walnut Ave"}, {"id": "b7f56781-add6-4bba-a3df-62a254f64971", "name": "Cheboygan Brewing Co", "brewery_type": "micro", "address_1": "101 N Main St", "address_2": null, "address_3": null, "city": "Cheboygan", "state_province": "Michigan", "postal_code": "49721-1637", "country": "United States", "longitude": "-84.4743633", "latitude": "45.647403", "phone": "2312683277", "website_url": "http://www.cheboyganbrewing.com", "state": "Michigan", "street": "101 N Main St"}, {"id": "101dd923-8a78-4db5-9902-663d4e80b07c", "name": "Check Six Brewing Co", "brewery_type": "micro", "address_1": "5130 Southport Supply Rd SE", "address_2": null, "address_3": null, "city": "Southport", "state_province": "North Carolina", "postal_code": "28461-9261", "country": "United States", "longitude": "-78.0477587", "latitude": "33.952339", "phone": "9104779280", "website_url": "http://www.checksixbeer.com", "state": "North Carolina", "street": "5130 Southport Supply Rd SE"}, {"id": "6264ddf4-1dc2-4591-baed-ad889c0b5230", "name": "Checkerspot Brewing Company", "brewery_type": "brewpub", "address_1": "175 W Ostend St", "address_2": null, "address_3": null, "city": "Baltimore", "state_province": "Maryland", "postal_code": "21230", "country": "United States", "longitude": "-76.6195028", "latitude": "39.2749156", "phone": "4105915527", "website_url": "http://www.checkerspotbrewing.com", "state": "Maryland", "street": "175 W Ostend St"}, {"id": "58144e11-89a4-41bd-b65f-5b33de2b654a", "name": "Cheeky Monkey Brewing Co / Lucky Strike Jillians", "brewery_type": "brewpub", "address_1": "3 Lansdowne St", "address_2": null, "address_3": null, "city": "Boston", "state_province": "Massachusetts", "postal_code": "02215-3412", "country": "United States", "longitude": "-71.0946215", "latitude": "42.34729", "phone": "6178590030", "website_url": "http://www.cheekymonkeyboston.com", "state": "Massachusetts", "street": "3 Lansdowne St"}, {"id": "5450f71d-24e7-414c-920d-e847da6912b0", "name": "Chehalem Valley Brewery", "brewery_type": "brewpub", "address_1": "2515 Portland Rd Ste B", "address_2": null, "address_3": null, "city": "Newberg", "state_province": "Oregon", "postal_code": "97132-1940", "country": "United States", "longitude": "-122.9532838", "latitude": "45.3057205", "phone": "9718328131", "website_url": "http://www.chehalemvalleybrewery.com", "state": "Oregon", "street": "2515 Portland Rd Ste B"}, {"id": "307dd9fc-a513-4e7a-902b-6f9c75a33db5", "name": "Chelsea Alehouse Brewery", "brewery_type": "brewpub", "address_1": "420 N Main St Ste 100", "address_2": null, "address_3": null, "city": "Chelsea", "state_province": "Michigan", "postal_code": "48118-1299", "country": "United States", "longitude": null, "latitude": null, "phone": "7344335500", "website_url": "http://www.chelseaalehouse.com", "state": "Michigan", "street": "420 N Main St Ste 100"}, {"id": "f036f7ce-8dcf-4941-bf0c-310f7f7c1e7c", "name": "Chelsea Craft Brewing Co Llc", "brewery_type": "micro", "address_1": "463 E 173rd St", "address_2": null, "address_3": null, "city": "Bronx", "state_province": "New York", "postal_code": "10457-8105", "country": "United States", "longitude": "-73.9015282", "latitude": "40.841904", "phone": "7184848850", "website_url": "http://www.chelseacraftbrewing.com", "state": "New York", "street": "463 E 173rd St"}, {"id": "05386e92-6e04-44c0-93a1-549eca0cc645", "name": "Cheluna Brewing Company", "brewery_type": "micro", "address_1": "2501 Dallas St Unit 148", "address_2": null, "address_3": null, "city": "Aurora", "state_province": "Colorado", "postal_code": "80010-1045", "country": "United States", "longitude": null, "latitude": null, "phone": "7206000020", "website_url": "http://www.cheluna.com", "state": "Colorado", "street": "2501 Dallas St Unit 148"}, {"id": "0aa7e0cb-3465-42c8-a6cd-2af04701f286", "name": "Cherokee Brewing + Pizza Company", "brewery_type": "brewpub", "address_1": "207-B West Cuyler St", "address_2": null, "address_3": null, "city": "Dalton", "state_province": "Georgia", "postal_code": "30720", "country": "United States", "longitude": "-84.96940721", "latitude": "34.76976664", "phone": "7065299478", "website_url": "http://www.cherokeebrewingandpizza.com", "state": "Georgia", "street": "207-B West Cuyler St"}, {"id": "7646821c-eb5d-4e8f-888e-d1f76f9cb366", "name": "Chesapeake Brewing Co", "brewery_type": "brewpub", "address_1": "114 West St", "address_2": null, "address_3": null, "city": "Annapolis", "state_province": "Maryland", "postal_code": "21401-2802", "country": "United States", "longitude": "-76.4974843", "latitude": "38.9780984", "phone": "4102680000", "website_url": "http://www.chesbrewco.com", "state": "Maryland", "street": "114 West St"}, {"id": "b2763258-7b12-4551-b16f-3c9deba2bc7e", "name": "Chesepiooc Real Ale Brewery", "brewery_type": "micro", "address_1": "2408 Crofton Blvd", "address_2": null, "address_3": null, "city": "Crofton", "state_province": "Maryland", "postal_code": "21114", "country": "United States", "longitude": "-76.69804666", "latitude": "39.01687169", "phone": "4106301579", "website_url": "http://www.brewcrab.com", "state": "Maryland", "street": "2408 Crofton Blvd"}, {"id": "e59e1145-0db1-4918-bf40-860407a2ca11", "name": "Cheshmeh Brewing Co", "brewery_type": "planning", "address_1": null, "address_2": null, "address_3": null, "city": "White Plains", "state_province": "New York", "postal_code": "10605-3517", "country": "United States", "longitude": null, "latitude": null, "phone": null, "website_url": null, "state": "New York", "street": null}, {"id": "ad90e19c-cc4a-47ff-ba91-8779d55aa040", "name": "Chestnut Brew Works", "brewery_type": "micro", "address_1": "444 Brockway Ave", "address_2": null, "address_3": null, "city": "Morgantown", "state_province": "West Virginia", "postal_code": "26501", "country": "United States", "longitude": "-79.9507513", "latitude": "39.6272755", "phone": "3042762737", "website_url": "http://www.chestnutbrewworks.com", "state": "West Virginia", "street": "444 Brockway Ave"}, {"id": "4fbae1fe-8335-4381-becb-3412e5fa3763", "name": "Chetco Brewing Company", "brewery_type": "micro", "address_1": "830 Railroad St", "address_2": null, "address_3": null, "city": "Brookings", "state_province": "Oregon", "postal_code": "97415", "country": "United States", "longitude": "-124.2875954", "latitude": "42.0521588", "phone": "5416615347", "website_url": "http://www.chetcobrew.com", "state": "Oregon", "street": "830 Railroad St"}, {"id": "3c820163-0cdf-4f61-a2d7-bb294da08380", "name": "Chicago Beer Company", "brewery_type": "contract", "address_1": "1140 W Randolph St", "address_2": null, "address_3": null, "city": "Chicago", "state_province": "Illinois", "postal_code": "60607-1619", "country": "United States", "longitude": "-87.65589165", "latitude": "41.88434", "phone": "7732448696", "website_url": "http://www.chicagobeerco.com", "state": "Illinois", "street": "1140 W Randolph St"}, {"id": "d1998a9b-eacd-439c-be7f-09b9b84fc95a", "name": "Chicago Brewing Co - NV", "brewery_type": "brewpub", "address_1": "2201 S Fort Apache Rd", "address_2": null, "address_3": null, "city": "Las Vegas", "state_province": "Nevada", "postal_code": "89117-5704", "country": "United States", "longitude": "-115.2983835", "latitude": "36.1475868", "phone": "7022543333", "website_url": "http://www.chicagobrewingcolv.com", "state": "Nevada", "street": "2201 S Fort Apache Rd"}, {"id": "245f05e1-8216-45f4-9a5d-d8f6f600719a", "name": "Chief Spring's Fire and Irons Brew Pub", "brewery_type": "brewpub", "address_1": "148 E Main St", "address_2": null, "address_3": null, "city": "Dayton", "state_province": "Washington", "postal_code": "99328-1351", "country": "United States", "longitude": "-117.9811345", "latitude": "46.3192285", "phone": "5093824677", "website_url": "http://www.fireandironsbrewpub.com", "state": "Washington", "street": "148 E Main St"}, {"id": "653a1d3f-2589-46f0-b8f5-e76db412ae53", "name": "Chili Line Brewing Co.", "brewery_type": "brewpub", "address_1": "204 N. Guadalupe St.", "address_2": null, "address_3": null, "city": "Santa Fe", "state_province": "New Mexico", "postal_code": "87501-1827", "country": "United States", "longitude": "-105.9435314", "latitude": "35.68947555", "phone": "5055007903", "website_url": "http://www.chililinebrewery@gmail.com", "state": "New Mexico", "street": "204 N. Guadalupe St."}, {"id": "0e0f9002-fe65-4484-a951-03045a1e08b1", "name": "CHILLAX Brewing Company LLC", "brewery_type": "planning", "address_1": null, "address_2": null, "address_3": null, "city": "Milford", "state_province": "Michigan", "postal_code": "48381-2243", "country": "United States", "longitude": null, "latitude": null, "phone": "2483883458", "website_url": null, "state": "Michigan", "street": null}, {"id": "b7ba052d-c12c-4548-8727-0e949508d9e3", "name": "Chilly Water Brewing Company", "brewery_type": "brewpub", "address_1": "719 Virginia Ave Ste 105", "address_2": null, "address_3": null, "city": "Indianapolis", "state_province": "Indiana", "postal_code": "46203-1976", "country": "United States", "longitude": null, "latitude": null, "phone": "3179640518", "website_url": "http://www.chillywaterbrewing.com", "state": "Indiana", "street": "719 Virginia Ave Ste 105"}, {"id": "c2f3c08f-5b47-4dba-93c4-328762b5a266", "name": "Chimera Brewing Company", "brewery_type": "brewpub", "address_1": "1001 W Magnolia Ave", "address_2": null, "address_3": null, "city": "Fort Worth", "state_province": "Texas", "postal_code": "76104-4504", "country": "United States", "longitude": "-97.33528782", "latitude": "32.7303843", "phone": "8179238000", "website_url": "http://www.chimerabrew.com", "state": "Texas", "street": "1001 W Magnolia Ave"}, {"id": "d048e2ca-6b0b-43b3-ac7b-2422af3aef33", "name": "Chino Hills Brewing Co.", "brewery_type": "brewpub", "address_1": "3280 Chino Hills Pkwy #1", "address_2": null, "address_3": null, "city": "Chino Hills", "state_province": "California", "postal_code": "91709", "country": "United States", "longitude": "-117.7341019", "latitude": "33.98303313", "phone": "9092471800", "website_url": "http://www.chinohillsbrewingco.com", "state": "California", "street": "3280 Chino Hills Pkwy #1"}, {"id": "d93058cf-49b3-4703-b194-d92f827e778f", "name": "Chino Valley Brewery", "brewery_type": "closed", "address_1": "1609 E. Grove Ave, Unit 109", "address_2": null, "address_3": null, "city": "Ontario", "state_province": "California", "postal_code": "91761-5786", "country": "United States", "longitude": "-117.627567", "latitude": "34.05034112", "phone": "9512917117", "website_url": "http://www.chinovalleybrewery.com", "state": "California", "street": "1609 E. Grove Ave, Unit 109"}, {"id": "8028941f-0c22-42e0-a99a-2e86a655aac5", "name": "Choc Beer Co", "brewery_type": "micro", "address_1": "120 S West 8th St", "address_2": null, "address_3": null, "city": "Krebs", "state_province": "Oklahoma", "postal_code": "74554-0066", "country": "United States", "longitude": "-95.7247222", "latitude": "34.9258333", "phone": "9183023002", "website_url": "http://www.petes.org", "state": "Oklahoma", "street": "120 S West 8th St"}, {"id": "01d63632-5f2c-4cae-82b3-a85ad36b0aa3", "name": "ChopHouse and Brewery - Denver", "brewery_type": "brewpub", "address_1": "1735 19th St Ste 100", "address_2": null, "address_3": null, "city": "Denver", "state_province": "Colorado", "postal_code": "80202-6002", "country": "United States", "longitude": null, "latitude": null, "phone": "3032960800", "website_url": "http://www.craftworksrestaurants.com", "state": "Colorado", "street": "1735 19th St Ste 100"}, {"id": "7ff6ddb0-bd1e-4e5c-b2a3-bf66fac6e6d7", "name": "Choteau Creek Brewing Company", "brewery_type": "micro", "address_1": "40228 296th St", "address_2": null, "address_3": null, "city": "Wagner", "state_province": "South Dakota", "postal_code": "57380-6968", "country": "United States", "longitude": "-98.1387997", "latitude": "43.11037166", "phone": null, "website_url": "http://www.facebook.com/loveourbeer", "state": "South Dakota", "street": "40228 296th St"}, {"id": "cee664ba-c129-45ea-a00e-8fad713dcea0", "name": "Christian Moerlein Brewing Co", "brewery_type": "regional", "address_1": "1621 Moore St", "address_2": null, "address_3": null, "city": "Cincinnati", "state_province": "Ohio", "postal_code": "45202-6438", "country": "United States", "longitude": "-84.51533432", "latitude": "39.11322509", "phone": "5138276025", "website_url": "http://www.christianmoerlein.com", "state": "Ohio", "street": "1621 Moore St"}, {"id": "bbae1c38-aaae-4d38-b72a-9ed1ded92f05", "name": "Chubby Squirrel Brewing Company", "brewery_type": "brewpub", "address_1": "10382 Willard Way", "address_2": null, "address_3": null, "city": "Fairfax", "state_province": "Virginia", "postal_code": "22030-2508", "country": "United States", "longitude": "-77.30201557", "latitude": "38.84818941", "phone": "5405588040", "website_url": "http://www.chubbysquirrelbrewing.com", "state": "Virginia", "street": "10382 Willard Way"}, {"id": "65025df7-32bc-4a38-a4f5-09492aa403bb", "name": "ChuckAlek Independent Brewers", "brewery_type": "closed", "address_1": "2330 Main St Ste C", "address_2": null, "address_3": null, "city": "Ramona", "state_province": "California", "postal_code": "92065-2539", "country": "United States", "longitude": "-116.8892394", "latitude": "33.02777389", "phone": null, "website_url": "http://www.chuckalek.com", "state": "California", "street": "2330 Main St Ste C"}, {"id": "44b14d44-1156-467f-b3dc-c04127bccc6f", "name": "Chuckanut - South Nut", "brewery_type": "micro", "address_1": "11937 Higgins Airport Way", "address_2": null, "address_3": null, "city": "Burlington", "state_province": "Washington", "postal_code": "98233-5312", "country": "United States", "longitude": "-122.411968", "latitude": "48.473804", "phone": "3607523377", "website_url": "https://chuckanutbrewery.com/south-nut/", "state": "Washington", "street": "11937 Higgins Airport Way"}, {"id": "813e88ed-ddef-4c0c-9151-66ab6f745a2e", "name": "Chuckanut Brewery - North Nut", "brewery_type": "micro", "address_1": "601 W Holly St", "address_2": null, "address_3": null, "city": "Bellingham", "state_province": "Washington", "postal_code": "98225-3920", "country": "United States", "longitude": "-122.4851164", "latitude": "48.7533261", "phone": "3607523377", "website_url": "https://chuckanutbrewery.com/north-nut/", "state": "Washington", "street": "601 W Holly St"}, {"id": "9c5edc2a-5f36-449f-b407-dc124c466fe9", "name": "Chula Vista Brewery", "brewery_type": "micro", "address_1": "294 Third Ave", "address_2": null, "address_3": null, "city": "Chula Vista", "state_province": "California", "postal_code": "91910-2701", "country": "United States", "longitude": "-117.080369", "latitude": "32.641495", "phone": "6196168806", "website_url": "http://www.chulavistabrewery.com", "state": "California", "street": "294 Third Ave"}, {"id": "f644ee47-6458-4a46-9c25-b7e1ef8dd2e0", "name": "Church Brew Works/Lawrenceville Brewery Inc.", "brewery_type": "brewpub", "address_1": "3525 Liberty Ave", "address_2": null, "address_3": null, "city": "Pittsburgh", "state_province": "Pennsylvania", "postal_code": "15201-1324", "country": "United States", "longitude": "-79.9643613", "latitude": "40.4620769", "phone": "4126888200", "website_url": "http://www.churchbrew.com", "state": "Pennsylvania", "street": "3525 Liberty Ave"}, {"id": "3c601a1e-82a4-4cc3-a407-3a5e6306438a", "name": "Church Owl Beer", "brewery_type": "micro", "address_1": null, "address_2": null, "address_3": null, "city": "Stratford", "state_province": "Connecticut", "postal_code": "06615-7320", "country": "United States", "longitude": null, "latitude": null, "phone": null, "website_url": "http://www.churchowlbeer.com", "state": "Connecticut", "street": null}, {"id": "6fae9a05-6763-4a14-9812-bc6101b5860c", "name": "Church Street Brewing Company", "brewery_type": "micro", "address_1": "1480 Industrial Dr Ste C", "address_2": null, "address_3": null, "city": "Itasca", "state_province": "Illinois", "postal_code": "60143-1857", "country": "United States", "longitude": null, "latitude": null, "phone": "6307098851", "website_url": "http://www.churchstreetbrew.com", "state": "Illinois", "street": "1480 Industrial Dr Ste C"}, {"id": "14ea4e7c-498c-417e-89e9-eabaf9b7051f", "name": "Cibolo Creek Brewing Co.", "brewery_type": "brewpub", "address_1": "448 S Main St", "address_2": null, "address_3": null, "city": "Boerne", "state_province": "Texas", "postal_code": "78006-2338", "country": "United States", "longitude": "-98.72996029", "latitude": "29.79015427", "phone": "8308165275", "website_url": "http://www.cibolocreekbrewing.com", "state": "Texas", "street": "448 S Main St"}, {"id": "acf2e29a-72cf-4d57-8de8-99681e6cf598", "name": "Ciclops Cyderi and Brewery", "brewery_type": "brewpub", "address_1": "197 E Saint John St", "address_2": null, "address_3": null, "city": "Spartanburg", "state_province": "South Carolina", "postal_code": "29306-5121", "country": "United States", "longitude": "-81.92952168", "latitude": "34.95241345", "phone": "8647049080", "website_url": "http://www.ciclopscyderiandbrewery.com", "state": "South Carolina", "street": "197 E Saint John St"}, {"id": "028c442f-1eaa-45b0-b4be-3871ed49f217", "name": "Cigar City Airport Location", "brewery_type": "planning", "address_1": null, "address_2": null, "address_3": null, "city": "Tampa", "state_province": "Florida", "postal_code": "33607", "country": "United States", "longitude": null, "latitude": null, "phone": null, "website_url": null, "state": "Florida", "street": null}, {"id": "1eff0c5d-93dc-4b96-acec-cdcfd85b6769", "name": "Cigar City Brewing Co", "brewery_type": "regional", "address_1": "3924 W Spruce St", "address_2": null, "address_3": null, "city": "Tampa", "state_province": "Florida", "postal_code": "33607-2441", "country": "United States", "longitude": "-82.509195", "latitude": "27.959172", "phone": "8133486363", "website_url": "http://www.cigarcitybrewing.com", "state": "Florida", "street": "3924 W Spruce St"}, {"id": "863f291f-32aa-40df-8810-f37911e4ae6a", "name": "Cinco Chagas", "brewery_type": "micro", "address_1": "Rua das Cavadas N8", "address_2": "Vale do Boi", "address_3": "Moita", "city": "Anadia", "state_province": "Aveiro", "postal_code": "3780-482", "country": "Portugal", "longitude": null, "latitude": null, "phone": null, "website_url": "https://cincochagas.pt", "state": "Aveiro", "street": "Rua das Cavadas N8"}, {"id": "e26d38f2-3c74-4256-b0a8-971d3225aef0", "name": "Cinder Block Brewery", "brewery_type": "brewpub", "address_1": "110 E 18th Ave", "address_2": null, "address_3": null, "city": "North Kansas City", "state_province": "Missouri", "postal_code": "64116-3635", "country": "United States", "longitude": "-94.57946521", "latitude": "39.14033716", "phone": "8165608365", "website_url": "http://www.cinderblockbrewery.com", "state": "Missouri", "street": "110 E 18th Ave"}, {"id": "0331a476-a7f7-4c43-ab9f-00e427225443", "name": "Cinderlands Beer Co.", "brewery_type": "brewpub", "address_1": "3705 Butler St", "address_2": null, "address_3": null, "city": "Pittsburgh", "state_province": "Pennsylvania", "postal_code": "15201-1819", "country": "United States", "longitude": "-79.9224894", "latitude": "40.4884044", "phone": "4122510656", "website_url": "http://www.cinderlands.com", "state": "Pennsylvania", "street": "3705 Butler St"}, {"id": "e5ab0f7c-9606-42ce-8131-a8f6aa5af100", "name": "Circa Brewing Co", "brewery_type": "brewpub", "address_1": "141 Lawrence St", "address_2": null, "address_3": null, "city": "Brooklyn", "state_province": "New York", "postal_code": "11201", "country": "United States", "longitude": "-73.986155", "latitude": "40.6917243", "phone": "7188580055", "website_url": "http://www.circabrewing.co", "state": "New York", "street": "141 Lawrence St"}, {"id": "6305c46c-4977-4df8-9f2e-fc98709f971f", "name": "Circle 7 Brew Works", "brewery_type": "closed", "address_1": "20290 Corbridge Rd SE", "address_2": null, "address_3": null, "city": "Monroe", "state_province": "Washington", "postal_code": "98272-8602", "country": "United States", "longitude": "-121.9584645", "latitude": "47.86794845", "phone": "2067470269", "website_url": null, "state": "Washington", "street": "20290 Corbridge Rd SE"}, {"id": "1e40495c-ca51-455d-a24b-6769efc04060", "name": "Circle 9 Brewing", "brewery_type": "micro", "address_1": "7292 Opportunity Rd Ste C", "address_2": null, "address_3": null, "city": "San Diego", "state_province": "California", "postal_code": "92111-2223", "country": "United States", "longitude": "-117.160822", "latitude": "32.82600737", "phone": "8582569462", "website_url": "https://ataraxiaaleworks.com/", "state": "California", "street": "7292 Opportunity Rd Ste C"}, {"id": "acb378f5-15e7-4a1a-b73b-c1e49f17d8a1", "name": "Circle 9 Brewing", "brewery_type": "closed", "address_1": "7292 Opportunity Rd Ste C", "address_2": null, "address_3": null, "city": "San Diego", "state_province": "California", "postal_code": "92111-2223", "country": "United States", "longitude": "-117.160822", "latitude": "32.82600737", "phone": "8586342537", "website_url": "http://www.circle9brewing.com", "state": "California", "street": "7292 Opportunity Rd Ste C"}, {"id": "b9ff8168-abfc-429d-b6d4-8322c671a96d", "name": "Circle Brewing Company", "brewery_type": "micro", "address_1": "2340 W Braker Ln Ste B", "address_2": null, "address_3": null, "city": "Austin", "state_province": "Texas", "postal_code": "78758-4542", "country": "United States", "longitude": null, "latitude": null, "phone": "5128147599", "website_url": "http://www.circlebrewing.com", "state": "Texas", "street": "2340 W Braker Ln Ste B"}, {"id": "7e749a31-8ae6-4997-9847-b3cdbd2e7c9e", "name": "Cisco Brewers", "brewery_type": "micro", "address_1": "5 Bartlett Farm Rd", "address_2": null, "address_3": null, "city": "Nantucket", "state_province": "Massachusetts", "postal_code": "02554-4341", "country": "United States", "longitude": "-70.1292845", "latitude": "41.26135815", "phone": "5083255929", "website_url": "http://www.ciscobrewers.com", "state": "Massachusetts", "street": "5 Bartlett Farm Rd"}, {"id": "b8ad748d-59b1-4860-a062-94cad3f77a70", "name": "Cismontane Brewing Co", "brewery_type": "micro", "address_1": "1409 E Warner Ave Ste C", "address_2": null, "address_3": null, "city": "Santa Ana", "state_province": "California", "postal_code": "92705-5432", "country": "United States", "longitude": "-117.8518941", "latitude": "33.71623805", "phone": "9498882739", "website_url": "http://www.cismontanebrewing.com", "state": "California", "street": "1409 E Warner Ave Ste C"}, {"id": "151d81b1-6d9b-4c31-80da-c8005d5e6205", "name": "Citizen Brewers", "brewery_type": "micro", "address_1": "5837 Mission Gorge Rd Ste A", "address_2": null, "address_3": null, "city": "San Diego", "state_province": "California", "postal_code": "92120-4060", "country": "United States", "longitude": "-117.1003579", "latitude": "32.78109987", "phone": "7605877989", "website_url": "http://www.citizenbrewers.com", "state": "California", "street": "5837 Mission Gorge Rd Ste A"}, {"id": "5eaf3169-986e-40f9-9f2b-426f04fee23b", "name": "City Acre Brewing Co", "brewery_type": "brewpub", "address_1": "3418 Topping St", "address_2": null, "address_3": null, "city": "Houston", "state_province": "Texas", "postal_code": "77093", "country": "United States", "longitude": "-95.3350882", "latitude": "29.8570358", "phone": "8323770237", "website_url": "http://www.cityacrebrewing.com", "state": "Texas", "street": "3418 Topping St"}, {"id": "1070f42d-7db8-46a3-8f09-ec835be0ef1f", "name": "City Barrel Brewing + Kitchen", "brewery_type": "brewpub", "address_1": "1740 Holmes St", "address_2": null, "address_3": null, "city": "Kansas City", "state_province": "Missouri", "postal_code": "64108-1803", "country": "United States", "longitude": "-94.575464", "latitude": "39.091892", "phone": "8162987008", "website_url": "http://www.citybarrelbrewing.com", "state": "Missouri", "street": "1740 Holmes St"}, {"id": "5476e31e-0ce8-4fdf-9502-ef3e89d34832", "name": "City Brewing Co", "brewery_type": "regional", "address_1": "925 3rd St S", "address_2": null, "address_3": null, "city": "La Crosse", "state_province": "Wisconsin", "postal_code": "54601-4411", "country": "United States", "longitude": "-91.25335046", "latitude": "43.80435523", "phone": "6087854200", "website_url": "http://www.citybrewery.com", "state": "Wisconsin", "street": "925 3rd St S"}, {"id": "6812d6f9-b113-48c1-902a-dd2b0f1e5874", "name": "City Built Brewing Company", "brewery_type": "brewpub", "address_1": "820 Monroe Ave NW Ste 155", "address_2": null, "address_3": null, "city": "Grand Rapids", "state_province": "Michigan", "postal_code": "49503-1413", "country": "United States", "longitude": null, "latitude": null, "phone": "6168055755", "website_url": "http://www.citybuiltbrewing.com", "state": "Michigan", "street": "820 Monroe Ave NW Ste 155"}, {"id": "f0f38619-5ed5-4064-83b0-e48f05783d4c", "name": "City Lights Brewing Co.", "brewery_type": "micro", "address_1": "2200 W Mount Vernon Ave", "address_2": null, "address_3": null, "city": "Milwaukee", "state_province": "Wisconsin", "postal_code": "53233-2672", "country": "United States", "longitude": "-88.0118646", "latitude": "43.0339815", "phone": "4145209692", "website_url": "http://www.citylightsbrewing.com", "state": "Wisconsin", "street": "2200 W Mount Vernon Ave"}, {"id": "190bb19b-1b65-4585-8ba8-55bbcf1efebe", "name": "City Service Brewing", "brewery_type": "micro", "address_1": "404 Main St", "address_2": null, "address_3": null, "city": "Darlington", "state_province": "Wisconsin", "postal_code": "53530-1428", "country": "United States", "longitude": "-90.11787155", "latitude": "42.68028418", "phone": null, "website_url": "http://www.cityservicebrewing.wixsite.com", "state": "Wisconsin", "street": "404 Main St"}, {"id": "d2333318-4e2a-4d4d-b7d7-a31af733822d", "name": "City Star Brewing", "brewery_type": "micro", "address_1": "321 Mountain Avenue", "address_2": null, "address_3": null, "city": "Berthoud", "state_province": "Colorado", "postal_code": "80513-", "country": "United States", "longitude": "-105.0809465", "latitude": "40.30505214", "phone": "9705327827", "website_url": "http://www.citystarbrewing.com", "state": "Colorado", "street": "321 Mountain Avenue"}, {"id": "b352a68f-2c4f-476c-a552-7a4fa911d64e", "name": "City Steam Brewery", "brewery_type": "brewpub", "address_1": "942 Main St Lbby 3", "address_2": null, "address_3": null, "city": "Hartford", "state_province": "Connecticut", "postal_code": "06103-1215", "country": "United States", "longitude": null, "latitude": null, "phone": "8605251600", "website_url": "http://www.citysteam.biz", "state": "Connecticut", "street": "942 Main St Lbby 3"}]