[{"id": "085c4b9a-9c7c-433e-ad8e-1160d002f847", "name": "Lion Brewery Inc, The", "brewery_type": "regional", "address_1": "700 N Pennsylvania Ave", "address_2": null, "address_3": null, "city": "Wilkes Barre", "state_province": "Pennsylvania", "postal_code": "18705-2451", "country": "United States", "longitude": "-75.859363", "latitude": "41.254896", "phone": "5708238801", "website_url": "http://www.lionbrewery.com", "state": "Pennsylvania", "street": "700 N Pennsylvania Ave"}, {"id": "71db85db-6fd8-4313-9e2b-eb32f84b31b4", "name": "Lion Bridge Brewing Company", "brewery_type": "brewpub", "address_1": "59 16th Ave SW", "address_2": null, "address_3": null, "city": "Cedar Rapids", "state_province": "Iowa", "postal_code": "52404-5948", "country": "United States", "longitude": "-91.66095281", "latitude": "41.96478948", "phone": "3192004460", "website_url": "http://www.lionbridgebrewing.com", "state": "Iowa", "street": "59 16th Ave SW"}, {"id": "0cd4decb-08fe-4b3d-b9dd-88d226d41c35", "name": "Lion's Tail Brewing", "brewery_type": "brewpub", "address_1": "116 S Commercial St", "address_2": null, "address_3": null, "city": "Neenah", "state_province": "Wisconsin", "postal_code": "54956-3020", "country": "United States", "longitude": "-88.461836", "latitude": "44.18631303", "phone": "9202156443", "website_url": "http://www.lionstailbrewing.com", "state": "Wisconsin", "street": "116 S Commercial St"}, {"id": "3fe6b30e-8b1b-4ca4-9d8a-9bba8640f0f2", "name": "Lionstone Brewing", "brewery_type": "brewpub", "address_1": "1225 S Oakwood Ave", "address_2": null, "address_3": null, "city": "Geneseo", "state_province": "Illinois", "postal_code": "61254-1990", "country": "United States", "longitude": "-90.15752718", "latitude": "41.43550343", "phone": "3092696220", "website_url": "http://www.lionstonebrewing.com", "state": "Illinois", "street": "1225 S Oakwood Ave"}, {"id": "d336c30e-a177-4953-8c13-057728e1ed00", "name": "Liquid Hero Brewery", "brewery_type": "micro", "address_1": "50 E North St", "address_2": null, "address_3": null, "city": "York", "state_province": "Pennsylvania", "postal_code": "17401-2421", "country": "United States", "longitude": "-76.74375254", "latitude": "39.95854203", "phone": "7178149250", "website_url": "http://www.liquidhero.com", "state": "Pennsylvania", "street": "50 E North St"}, {"id": "7908d63d-e957-4092-939f-32f9e8079113", "name": "Liquid Mechanics Brewing Company", "brewery_type": "micro", "address_1": "297 N US Highway 287", "address_2": null, "address_3": null, "city": "Lafayette", "state_province": "Colorado", "postal_code": "80026-8932", "country": "United States", "longitude": null, "latitude": null, "phone": "7205507813", "website_url": "http://www.liquidmechanicsbrewing.com", "state": "Colorado", "street": "297 N US Highway 287"}, {"id": "db21126a-a56a-411d-a815-40fff4f2b54c", "name": "Liquid Riot Bottling Co.", "brewery_type": "brewpub", "address_1": "4 Canal Plz Ste 1", "address_2": null, "address_3": null, "city": "Portland", "state_province": "Maine", "postal_code": "04101-4594", "country": "United States", "longitude": null, "latitude": null, "phone": "2072218889", "website_url": "http://www.novareresbiercafe.com", "state": "Maine", "street": "4 Canal Plz Ste 1"}, {"id": "44b04181-569a-47e6-85f5-f65666f8bef4", "name": "Liquid Shoes Brewing", "brewery_type": "micro", "address_1": "26 E Market St", "address_2": null, "address_3": null, "city": "Corning", "state_province": "New York", "postal_code": "14830", "country": "United States", "longitude": "-77.05301289", "latitude": "42.14306479", "phone": "6074639726", "website_url": "http://www.liquidshoesbrewing.com", "state": "New York", "street": "26 E Market St"}, {"id": "39bf60db-5e50-452e-984c-15fe45c440ab", "name": "Liquid State Brewing Company", "brewery_type": "micro", "address_1": "620 West Green Street", "address_2": null, "address_3": null, "city": "Ithaca", "state_province": "New York", "postal_code": "14850", "country": "United States", "longitude": "-76.5077547", "latitude": "42.43844312", "phone": null, "website_url": "http://www.liquidstatebrewing.com", "state": "New York", "street": "620 West Green Street"}, {"id": "35901770-f2e3-424c-b462-1deb0fa2da06", "name": "Out World Brewing", "brewery_type": "planning", "address_1": null, "address_2": null, "address_3": null, "city": "Longmont", "state_province": "Colorado", "postal_code": "80503-7285", "country": "United States", "longitude": null, "latitude": null, "phone": null, "website_url": "http://www.outworld.beer", "state": "Colorado", "street": null}, {"id": "c567a823-0817-45f3-a8f2-32b46d10364f", "name": "Lister's Brewery Limited", "brewery_type": "micro", "address_1": "Michelgrove Lane", "address_2": null, "address_3": null, "city": "Worthing", "state_province": "West Sussex", "postal_code": "BN13 3XW", "country": "England", "longitude": "-0.478855", "latitude": "50.872653", "phone": "1903885950", "website_url": "http://www.listersbrewery.com/", "state": "West Sussex", "street": "Michelgrove Lane"}, {"id": "bd1649e5-21f8-4e5d-9ab4-e276abb822f6", "name": "Listermann Brewing Company", "brewery_type": "micro", "address_1": "1621 Dana Ave", "address_2": null, "address_3": null, "city": "Cincinnati", "state_province": "Ohio", "postal_code": "45207-1007", "country": "United States", "longitude": "-84.4721318", "latitude": "39.1463506", "phone": "5137311130", "website_url": "http://Listermannbrewing.com", "state": "Ohio", "street": "1621 Dana Ave"}, {"id": "e7b3d1f4-c290-4c1c-b430-16e3b9876122", "name": "Liter House", "brewery_type": "planning", "address_1": null, "address_2": null, "address_3": null, "city": "Indianapolis", "state_province": "Indiana", "postal_code": "46220", "country": "United States", "longitude": null, "latitude": null, "phone": "3176940580", "website_url": null, "state": "Indiana", "street": null}, {"id": "7483a72d-fbd6-4b7c-91c7-4e4f8cab78f4", "name": "Lithermans Limited Brewery", "brewery_type": "micro", "address_1": "126 Hall St Ste B", "address_2": null, "address_3": null, "city": "Concord", "state_province": "New Hampshire", "postal_code": "03301-3447", "country": "United States", "longitude": null, "latitude": null, "phone": "6038189102", "website_url": "http://www.lithermans.beer", "state": "New Hampshire", "street": "126 Hall St Ste B"}, {"id": "65ce6fa5-b2eb-43db-adb6-48d6a6a21992", "name": "Lithology Brewing", "brewery_type": "proprietor", "address_1": "211 Main St Ste A", "address_2": null, "address_3": null, "city": "Farmingdale", "state_province": "New York", "postal_code": "11735-2675", "country": "United States", "longitude": null, "latitude": null, "phone": "6316783613", "website_url": "http://Lithologybrewing.com", "state": "New York", "street": "211 Main St Ste A"}, {"id": "8de6b4e6-4616-4f07-aeec-c53830db03ca", "name": "Little Apple Brewing Co", "brewery_type": "micro", "address_1": "1110 Westloop Pl", "address_2": null, "address_3": null, "city": "Manhattan", "state_province": "Kansas", "postal_code": "66502-2838", "country": "United States", "longitude": "-96.6083689", "latitude": "39.1915231", "phone": "7855395500", "website_url": "http://www.littleapplebrewery.com", "state": "Kansas", "street": "1110 Westloop Pl"}, {"id": "dc7254f5-aa81-475a-abdf-9d2065ad76b0", "name": "Little Beast Brewing", "brewery_type": "micro", "address_1": "3800 SW Cedar Hills Blvd Ste 300E", "address_2": null, "address_3": null, "city": "Beaverton", "state_province": "Oregon", "postal_code": "97005-2037", "country": "United States", "longitude": null, "latitude": null, "phone": "5033295107", "website_url": "http://www.littlebeastbrewing.com/", "state": "Oregon", "street": "3800 SW Cedar Hills Blvd Ste 300E"}, {"id": "cd5ef38d-235e-4318-931a-defea9b4296a", "name": "Little Brother Brewing", "brewery_type": "micro", "address_1": "348 S Elm St", "address_2": null, "address_3": null, "city": "Greensboro", "state_province": "North Carolina", "postal_code": "27401-2606", "country": "United States", "longitude": "-79.7907703", "latitude": "36.0686165", "phone": "7049990577", "website_url": "http://Www.littlebrotherbrew.com", "state": "North Carolina", "street": "348 S Elm St"}, {"id": "e4293558-1bdb-40ec-9954-b252397283bf", "name": "Little City Brewing Co.", "brewery_type": "micro", "address_1": "400 W North St Ste 120", "address_2": null, "address_3": null, "city": "Raleigh", "state_province": "North Carolina", "postal_code": "27603-1570", "country": "United States", "longitude": null, "latitude": null, "phone": "9195027155", "website_url": "http://Www.thelocalicon.com/little-city", "state": "North Carolina", "street": "400 W North St Ste 120"}, {"id": "0f0ea92d-3acc-4f59-bb72-2e6cb404bc6a", "name": "Little Dog Brewing Co.", "brewery_type": "micro", "address_1": "141 Steiner Ave", "address_2": null, "address_3": null, "city": "Neptune City", "state_province": "New Jersey", "postal_code": "07753-6500", "country": "United States", "longitude": "-74.02307257", "latitude": "40.20003682", "phone": "7323613555", "website_url": "http://Www.littledogbrewing.com", "state": "New Jersey", "street": "141 Steiner Ave"}, {"id": "ace6c26f-6fff-4688-9e28-14e977c38d78", "name": "Little Fish Brewing Company", "brewery_type": "micro", "address_1": "8675 Armitage Rd", "address_2": null, "address_3": null, "city": "Athens", "state_province": "Ohio", "postal_code": "45701-8900", "country": "United States", "longitude": "-82.12957738", "latitude": "39.33333227", "phone": "7402046187", "website_url": "http://www.littlefishbrewing.com", "state": "Ohio", "street": "8675 Armitage Rd"}, {"id": "7cb2e78f-4ddc-4557-bc84-bda74063c090", "name": "Little Giant Brewery", "brewery_type": "planning", "address_1": null, "address_2": null, "address_3": null, "city": "Bradenton", "state_province": "Florida", "postal_code": "34208-1139", "country": "United States", "longitude": null, "latitude": null, "phone": "9419626650", "website_url": null, "state": "Florida", "street": null}, {"id": "187f11ae-b687-4c5a-afb4-0eefa9f04edb", "name": "Little Harpeth Brewing Co", "brewery_type": "micro", "address_1": "30 Oldham St", "address_2": null, "address_3": null, "city": "Nashville", "state_province": "Tennessee", "postal_code": "37213-1107", "country": "United States", "longitude": "-86.77697471", "latitude": "36.174546", "phone": "3073711476", "website_url": "http://www.littleharpethbrewing.com", "state": "Tennessee", "street": "30 Oldham St"}, {"id": "249d0a17-9cc1-4d49-be20-89d4e33763da", "name": "Little House Brewing Company", "brewery_type": "planning", "address_1": null, "address_2": null, "address_3": null, "city": "Chester", "state_province": "Connecticut", "postal_code": "06412-1342", "country": "United States", "longitude": null, "latitude": null, "phone": "6128105315", "website_url": "http://www.littlehousebrewing.com", "state": "Connecticut", "street": null}, {"id": "1d101475-9df6-49ee-8590-e9b82f12bd41", "name": "Little Machine", "brewery_type": "micro", "address_1": "2924 W 20th Ave", "address_2": null, "address_3": null, "city": "Denver", "state_province": "Colorado", "postal_code": "80211-4622", "country": "United States", "longitude": "-105.0243557", "latitude": "39.7474051", "phone": "3032847893", "website_url": "http://www.littlemachinebeer.com", "state": "Colorado", "street": "2924 W 20th Ave"}, {"id": "e7693960-bc75-4c83-bf5f-fb4e03a47a11", "name": "Little Miami Brewing Company", "brewery_type": "brewpub", "address_1": "208 Mill St", "address_2": null, "address_3": null, "city": "Milford", "state_province": "Ohio", "postal_code": "45150-1072", "country": "United States", "longitude": "-84.29623162", "latitude": "39.17161035", "phone": "5137131121", "website_url": "http://www.littlemiamibrewing.com", "state": "Ohio", "street": "208 Mill St"}, {"id": "0917c834-47a2-4156-9f17-9eeeb16e7f7d", "name": "Little Miss Brewing", "brewery_type": "micro", "address_1": "7949 Stromesa Ct Ste Y", "address_2": null, "address_3": null, "city": "San Diego", "state_province": "California", "postal_code": "92126-6338", "country": "United States", "longitude": "-117.148488", "latitude": "32.89183", "phone": "6198802752", "website_url": "http://www.littlemissbrewing.com", "state": "California", "street": "7949 Stromesa Ct Ste Y"}, {"id": "53178b0b-00c3-463b-9423-25fe3cb223b1", "name": "Little Red Barn Brewing", "brewery_type": "planning", "address_1": null, "address_2": null, "address_3": null, "city": "Winsted", "state_province": "Connecticut", "postal_code": "06098-1410", "country": "United States", "longitude": null, "latitude": null, "phone": "8603873536", "website_url": "http://LRBbrewers.com", "state": "Connecticut", "street": null}, {"id": "ca9c8da9-79bf-4f73-96be-ef5922abcd7c", "name": "Little Spokane Brewing Company", "brewery_type": "closed", "address_1": "154 S Madison St Ste 101", "address_2": null, "address_3": null, "city": "Spokane", "state_province": "Washington", "postal_code": "99201-4542", "country": "United States", "longitude": null, "latitude": null, "phone": null, "website_url": "http://www.littlespokanebrewingco.com", "state": "Washington", "street": "154 S Madison St Ste 101"}, {"id": "2688cb2b-a937-42d7-a49f-3e1894a66021", "name": "Little Thistle Brewing", "brewery_type": "planning", "address_1": null, "address_2": null, "address_3": null, "city": "Rochester", "state_province": "Minnesota", "postal_code": "55901", "country": "United States", "longitude": null, "latitude": null, "phone": "5073584647", "website_url": "http://www.littlethistlebeer.com", "state": "Minnesota", "street": null}, {"id": "b9a78a53-e345-4ff1-8b48-0ecfc8be956f", "name": "Little Toad Creek Brewery & Distillery", "brewery_type": "brewpub", "address_1": "200 N Bullard St", "address_2": null, "address_3": null, "city": "Silver City", "state_province": "New Mexico", "postal_code": "88061", "country": "United States", "longitude": "-108.2764", "latitude": "32.769863", "phone": "5755369649", "website_url": "http://www.littletoadcreek.com", "state": "New Mexico", "street": "200 N Bullard St"}, {"id": "d790ba65-3bbe-453f-adaf-f5e2e2e21cc6", "name": "Little Vixen Brewing", "brewery_type": "planning", "address_1": null, "address_2": null, "address_3": null, "city": "Las Vegas", "state_province": "Nevada", "postal_code": "89138-6120", "country": "United States", "longitude": null, "latitude": null, "phone": "7759975936", "website_url": null, "state": "Nevada", "street": null}, {"id": "de0ba3c4-611e-49b4-b136-a6c074b36c4c", "name": "Live Oak Brewing Co", "brewery_type": "regional", "address_1": "1615 Crozier Ln", "address_2": null, "address_3": null, "city": "del Valle", "state_province": "Texas", "postal_code": "78617-2129", "country": "United States", "longitude": null, "latitude": null, "phone": "5123852299", "website_url": "http://www.liveoakbrewing.com", "state": "Texas", "street": "1615 Crozier Ln"}, {"id": "686d530a-0bbf-4f7a-aa57-ab41feb8520c", "name": "Living the Dream Brewing Co.", "brewery_type": "micro", "address_1": "12305 Dumont Way Unit A", "address_2": null, "address_3": null, "city": "Littleton", "state_province": "Colorado", "postal_code": "80125-9788", "country": "United States", "longitude": null, "latitude": null, "phone": "3032849585", "website_url": "http://www.livingthedreambrewing.com", "state": "Colorado", "street": "12305 Dumont Way Unit A"}, {"id": "b8aa5099-ab15-4299-b15d-0397e8147164", "name": "Livingood's Restaurant & Brewery", "brewery_type": "brewpub", "address_1": "697 Bear Swamp Rd", "address_2": null, "address_3": null, "city": "Peru", "state_province": "New York", "postal_code": "12972-", "country": "United States", "longitude": "-73.518542", "latitude": "44.576563", "phone": "5184206331", "website_url": "http://www.livingoodsresturant.com", "state": "New York", "street": "697 Bear Swamp Rd"}, {"id": "4d8d14f0-e079-44a2-b571-86d129ead825", "name": "Lizard Tail Brewing", "brewery_type": "brewpub", "address_1": "9800 Montgomery Blvd NE Ste 7", "address_2": null, "address_3": null, "city": "Albuquerque", "state_province": "New Mexico", "postal_code": "87111-3560", "country": "United States", "longitude": null, "latitude": null, "phone": "5057171301", "website_url": "http://www.lizardtailbrewing.com", "state": "New Mexico", "street": "9800 Montgomery Blvd NE Ste 7"}, {"id": "9af7465c-dcff-4144-a1fe-205ab8da7772", "name": "Lo Rez Brewing", "brewery_type": "micro", "address_1": "2101 S Carpenter St", "address_2": null, "address_3": null, "city": "Chicago", "state_province": "Illinois", "postal_code": "60608-4529", "country": "United States", "longitude": "-87.6524429", "latitude": "41.8533096", "phone": "3128043283", "website_url": "http://lorezbrewing.com", "state": "Illinois", "street": "2101 S Carpenter St"}, {"id": "fa774256-4e34-471c-adab-29336df80a68", "name": "Lo-Fi Brewing", "brewery_type": "micro", "address_1": "2038 Meeting St Rd", "address_2": null, "address_3": null, "city": "North Charleston", "state_province": "South Carolina", "postal_code": "29405-9357", "country": "United States", "longitude": "-79.9540931", "latitude": "32.8336083", "phone": "8285822175", "website_url": "http://www.lofibrewing.com", "state": "South Carolina", "street": "2038 Meeting St Rd"}, {"id": "8c47911e-39d3-45ec-bc56-70ad9ca6197f", "name": "Loaded Question Brewing Co", "brewery_type": "micro", "address_1": "909 Islington St Ste 12", "address_2": null, "address_3": null, "city": "Portsmouth", "state_province": "New Hampshire", "postal_code": "03801", "country": "United States", "longitude": null, "latitude": null, "phone": null, "website_url": "http://www.loadedquestionbrewing.com", "state": "New Hampshire", "street": "909 Islington St Ste 12"}, {"id": "ab279a70-7f69-45aa-8b0f-859eba8d16f3", "name": "Local 315 Brewing Company", "brewery_type": "micro", "address_1": "3160 Warners Rd", "address_2": null, "address_3": null, "city": "Warners", "state_province": "New York", "postal_code": "13164-", "country": "United States", "longitude": "-76.329676", "latitude": "43.085441", "phone": "315468", "website_url": "http://www.local315brewing.com", "state": "New York", "street": "3160 Warners Rd"}, {"id": "646b77a4-f86e-4aa0-a2ef-be3b151808f1", "name": "Local Brewing Co", "brewery_type": "micro", "address_1": "69 Bluxome St", "address_2": null, "address_3": null, "city": "San Francisco", "state_province": "California", "postal_code": "94107-1605", "country": "United States", "longitude": "-122.3973825", "latitude": "37.776173", "phone": null, "website_url": "http://www.localbrewingco.com", "state": "California", "street": "69 Bluxome St"}, {"id": "93db856b-5d88-4262-ae41-5d4c4b9fc799", "name": "Local Craft Beer, Tehachapi", "brewery_type": "micro", "address_1": "365 Enterprise Way Ste G", "address_2": null, "address_3": null, "city": "Tehachapi", "state_province": "California", "postal_code": "93561-1369", "country": "United States", "longitude": "-118.4549723", "latitude": "35.13678901", "phone": "6618222337", "website_url": "http://www.honeywagonbrewing.com", "state": "California", "street": "365 Enterprise Way Ste G"}, {"id": "e5a8a40f-7285-4ab4-83d5-d0e4ceb39b3f", "name": "Local Group Brewing Company, LLC.", "brewery_type": "planning", "address_1": null, "address_2": null, "address_3": null, "city": "Houston", "state_province": "Texas", "postal_code": "77008-6844", "country": "United States", "longitude": null, "latitude": null, "phone": null, "website_url": null, "state": "Texas", "street": null}, {"id": "451c482b-18e0-4dd2-bfbc-8b94d25902aa", "name": "Local Option", "brewery_type": "contract", "address_1": "1102 W Webster Ave Ste 1", "address_2": null, "address_3": null, "city": "Chicago", "state_province": "Illinois", "postal_code": "60614-7089", "country": "United States", "longitude": null, "latitude": null, "phone": "7733482008", "website_url": "http://www.localoptionbier.com", "state": "Illinois", "street": "1102 W Webster Ave Ste 1"}, {"id": "cab5fb39-d342-46c6-a2c5-961381be305e", "name": "Local Relic", "brewery_type": "brewpub", "address_1": "320 S Weber St", "address_2": null, "address_3": null, "city": "Colorado Springs", "state_province": "Colorado", "postal_code": "80903-2125", "country": "United States", "longitude": "-104.8203866", "latitude": "38.82871975", "phone": "7192700077", "website_url": "http://www.localrelic.com", "state": "Colorado", "street": "320 S Weber St"}, {"id": "b9f745cb-a332-4e64-ad81-a678c2548042", "name": "Locavore Beer Works", "brewery_type": "micro", "address_1": "5950 S Platte Canyon Rd Ste D13", "address_2": null, "address_3": null, "city": "Littleton", "state_province": "Colorado", "postal_code": "80123-7539", "country": "United States", "longitude": null, "latitude": null, "phone": "7204764419", "website_url": "http://www.locavorebeerworks.com", "state": "Colorado", "street": "5950 S Platte Canyon Rd Ste D13"}, {"id": "04e9e7ce-5f20-4861-acbe-ac4be5628b49", "name": "Loch Lomond Brewery", "brewery_type": "micro", "address_1": "Block 2 Unit 11", "address_2": "Vale of Leven Industrial Estate", "address_3": null, "city": "Dumbarton", "state_province": "West Dunbartonshire", "postal_code": "G82 3PD", "country": "Scotland", "longitude": "-4.576255", "latitude": "55.969774", "phone": "1389755698", "website_url": "https://www.lochlomondbrewery.com/", "state": "West Dunbartonshire", "street": "Block 2 Unit 11"}, {"id": "80c95ce3-5826-4673-b5b0-2d6a9b87aeb6", "name": "Lochiel Brewing", "brewery_type": "micro", "address_1": "7143 E Southern Ave Ste 131", "address_2": null, "address_3": null, "city": "Mesa", "state_province": "Arizona", "postal_code": "85209-2657", "country": "United States", "longitude": null, "latitude": null, "phone": "4806660915", "website_url": "http://lochielbrewing.com", "state": "Arizona", "street": "7143 E Southern Ave Ste 131"}, {"id": "b744848c-8e41-40f1-9ecb-e46ff290466c", "name": "Lock 15 Brewing Co", "brewery_type": "planning", "address_1": null, "address_2": null, "address_3": null, "city": "Akron", "state_province": "Ohio", "postal_code": "44304-1035", "country": "United States", "longitude": null, "latitude": null, "phone": null, "website_url": "http://www.lock15brewing.com", "state": "Ohio", "street": null}, {"id": "fb6f6bff-1e40-42b5-9a86-0de2e080be56", "name": "Lock 27 Brewing", "brewery_type": "brewpub", "address_1": "1035 S Main St", "address_2": null, "address_3": null, "city": "Centerville", "state_province": "Ohio", "postal_code": "45458-3840", "country": "United States", "longitude": "-84.1626371", "latitude": "39.6089321", "phone": "9374332739", "website_url": "http://www.lock27brewing.com", "state": "Ohio", "street": "1035 S Main St"}, {"id": "575dd400-8f94-4441-a09c-dbde302d6cd7", "name": "Lock 27 Brewing", "brewery_type": "brewpub", "address_1": "329 E 1st St", "address_2": null, "address_3": null, "city": "Dayton", "state_province": "Ohio", "postal_code": "45402-1705", "country": "United States", "longitude": "-84.18693529", "latitude": "39.76332003", "phone": "9374332739", "website_url": "http://www.lock27brewing.com", "state": "Ohio", "street": "329 E 1st St"}, {"id": "cc9bbfcb-303c-4f67-872f-63838aea0754", "name": "Lock 32 Brewing Company", "brewery_type": "micro", "address_1": "10 Schoen Pl", "address_2": null, "address_3": null, "city": "Pittsford", "state_province": "New York", "postal_code": "14534-2026", "country": "United States", "longitude": "-77.514256", "latitude": "43.09306", "phone": "5855067738", "website_url": "http://www.lock32brew.com", "state": "New York", "street": "10 Schoen Pl"}, {"id": "21d30e6a-77bb-4d03-b13a-8a01323c2e26", "name": "Lock City Brewing", "brewery_type": "micro", "address_1": "54 Research Dr", "address_2": null, "address_3": null, "city": "Stamford", "state_province": "Connecticut", "postal_code": "06906-1428", "country": "United States", "longitude": "-73.51955794", "latitude": "41.07705652", "phone": "2033136454", "website_url": "http://www.lockcitybrewing.com", "state": "Connecticut", "street": "54 Research Dr"}, {"id": "02a141f3-ba6a-4ce4-95ce-0ca90daa2734", "name": "Lockport Brewery", "brewery_type": "brewpub", "address_1": "10891 OH-212", "address_2": null, "address_3": null, "city": "Bolivar", "state_province": "Ohio", "postal_code": "44612-8664", "country": "United States", "longitude": null, "latitude": null, "phone": "3308746037", "website_url": "http://www.lockportbeer.com", "state": "Ohio", "street": "10891 OH-212"}, {"id": "36a3f792-14f7-427e-9668-ed2f05cfab99", "name": "Lockside Brewery / 1668 Winery", "brewery_type": "brewpub", "address_1": "100 W Portage Ave", "address_2": null, "address_3": null, "city": "Sault Sainte Marie", "state_province": "Michigan", "postal_code": "49783-1920", "country": "United States", "longitude": "-84.34705", "latitude": "46.500695", "phone": "9062595035", "website_url": "http://1668winery.com/thebeers/", "state": "Michigan", "street": "100 W Portage Ave"}, {"id": "6f65c0a8-ef15-4ad4-8498-ecd13f22fbe5", "name": "Loco Patron Mexican Brewery", "brewery_type": "brewpub", "address_1": "14950 N Northsight Blvd", "address_2": null, "address_3": null, "city": "Scottsdale", "state_province": "Arizona", "postal_code": "85260", "country": "United States", "longitude": "-111.8977707", "latitude": "33.6216475", "phone": "4806997271", "website_url": "http://www.locopatron.com", "state": "Arizona", "street": "14950 N Northsight Blvd"}, {"id": "192c156f-0dd5-4960-a962-47f2bdd051f9", "name": "Locust Cider & Brewing Co", "brewery_type": "micro", "address_1": "19151 144th Ave NE Unit B/C", "address_2": null, "address_3": null, "city": "Woodinville", "state_province": "Washington", "postal_code": "98072-4374", "country": "United States", "longitude": "-122.1484843", "latitude": "47.7661918", "phone": "4258922075", "website_url": "https://www.locustcider.com", "state": "Washington", "street": "19151 144th Ave NE Unit B/C"}, {"id": "dc51c4f8-e09f-42af-8f4a-a8b10d3d49fc", "name": "Locust Lane Craft Brewery", "brewery_type": "micro", "address_1": "50 Three Tun Rd Ste 4", "address_2": null, "address_3": null, "city": "Malvern", "state_province": "Pennsylvania", "postal_code": "19355-3988", "country": "United States", "longitude": null, "latitude": null, "phone": "4843244141", "website_url": "http://www.locustlanecraftbrewery.com", "state": "Pennsylvania", "street": "50 Three Tun Rd Ste 4"}, {"id": "24cf41e1-f209-475e-bee2-08d99ed6174d", "name": "Lodi Beer Company", "brewery_type": "brewpub", "address_1": "105 S School St", "address_2": null, "address_3": null, "city": "Lodi", "state_province": "California", "postal_code": "95240-3509", "country": "United States", "longitude": "-121.2738676", "latitude": "38.13282339", "phone": "2093682964", "website_url": "http://www.lodibeercompany.com", "state": "California", "street": "105 S School St"}, {"id": "e1cb5bc9-1582-4718-bf98-4fa43b9de958", "name": "Loe's Brewing Company", "brewery_type": "brewpub", "address_1": "1048 Harper Ave NW", "address_2": null, "address_3": null, "city": "Lenoir", "state_province": "North Carolina", "postal_code": "28645-5085", "country": "United States", "longitude": "-81.54235348", "latitude": "35.91276115", "phone": "8287543652", "website_url": "http://www.loesbrewing.com", "state": "North Carolina", "street": "1048 Harper Ave NW"}, {"id": "96d6194f-8f23-4563-8b4f-90283fd97c7d", "name": "Logan Brewing Company", "brewery_type": "micro", "address_1": "510 SW 151st St", "address_2": null, "address_3": null, "city": "Burien", "state_province": "Washington", "postal_code": "98166", "country": "United States", "longitude": "-122.3410603", "latitude": "47.46818562", "phone": "2064866569", "website_url": "https://www.logan.beer", "state": "Washington", "street": "510 SW 151st St"}, {"id": "e69bc9bf-ee02-406b-9e70-bae68db2e914", "name": "Logboat Brewing Co", "brewery_type": "micro", "address_1": "504 Fay St", "address_2": null, "address_3": null, "city": "Columbia", "state_province": "Missouri", "postal_code": "65201-4782", "country": "United States", "longitude": "-92.32265015", "latitude": "38.95708639", "phone": "5733976786", "website_url": "http://www.logboatbrewing.com", "state": "Missouri", "street": "504 Fay St"}, {"id": "cbc134e4-e2c4-45cf-add4-89435412bce8", "name": "Loggers Brewing Company", "brewery_type": "micro", "address_1": "1215 S River Rd", "address_2": null, "address_3": null, "city": "Saginaw", "state_province": "Michigan", "postal_code": "48609-5208", "country": "United States", "longitude": "-84.05193542", "latitude": "43.40518225", "phone": "9894013085", "website_url": "http://www.loggersbrewingcompany.com", "state": "Michigan", "street": "1215 S River Rd"}, {"id": "6b9b74b4-828f-488b-b860-06aa988d03e7", "name": "LogOff Brewing LLC", "brewery_type": "planning", "address_1": null, "address_2": null, "address_3": null, "city": "Carmichael", "state_province": "California", "postal_code": "95608-5615", "country": "United States", "longitude": "-121.3222422", "latitude": "38.62709845", "phone": "9165416677", "website_url": null, "state": "California", "street": null}, {"id": "88a28bd3-c4c4-4372-abce-ff5f97bd3dff", "name": "Logsdon Farmhouse Ales", "brewery_type": "micro", "address_1": "4785 Booth Hill Rd", "address_2": null, "address_3": null, "city": "Hood River", "state_province": "Oregon", "postal_code": "97031-7411", "country": "United States", "longitude": "-121.5375837", "latitude": "45.58763985", "phone": "5414909161", "website_url": "http://www.farmhousebeer.com", "state": "Oregon", "street": "4785 Booth Hill Rd"}, {"id": "fa801e81-96ea-4e55-be40-4ca8844bb56c", "name": "Lolo Peak Brewing Company", "brewery_type": "micro", "address_1": "6201 Brewery Way", "address_2": null, "address_3": null, "city": "Lolo", "state_province": "Montana", "postal_code": "59847-9375", "country": "United States", "longitude": null, "latitude": null, "phone": "4064936231", "website_url": "http://www.lolopeakbrewery.com", "state": "Montana", "street": "6201 Brewery Way"}, {"id": "9c60421f-0d9f-4d57-91b4-5f1cdd0e452e", "name": "Loma Brewing Co", "brewery_type": "brewpub", "address_1": "130 N Santa Cruz Ave Ste G", "address_2": null, "address_3": null, "city": "Los Gatos", "state_province": "California", "postal_code": "95030-5949", "country": "United States", "longitude": "-121.9823167", "latitude": "37.22530385", "phone": "4085609626", "website_url": "http://www.lomabrew.com", "state": "California", "street": "130 N Santa Cruz Ave Ste G"}, {"id": "74f90455-1067-4c5c-b216-1c69bafb21f9", "name": "Lompoc Brewing, LLC/ The 5th Quadrant", "brewery_type": "closed", "address_1": "3901 N Williams Ave Ste B", "address_2": null, "address_3": null, "city": "Portland", "state_province": "Oregon", "postal_code": "97227-1465", "country": "United States", "longitude": "-122.6675027", "latitude": "45.55345273", "phone": "5032883996", "website_url": "http://www.newoldlompoc.com/5thquadranthome.html", "state": "Oregon", "street": "3901 N Williams Ave Ste B"}, {"id": "32554b04-ef98-48cb-bb86-b28a5b23bc20", "name": "Lone Eagle Brewing", "brewery_type": "brewpub", "address_1": "44 Stangl Rd", "address_2": null, "address_3": null, "city": "Flemington", "state_province": "New Jersey", "postal_code": "08822-1581", "country": "United States", "longitude": "-74.86266573", "latitude": "40.50537407", "phone": "9082372255", "website_url": "http://loneeaglebrewing.com", "state": "New Jersey", "street": "44 Stangl Rd"}, {"id": "9bca1253-e17c-4567-b7c7-793a962733f6", "name": "Lone Peak Brewery", "brewery_type": "brewpub", "address_1": "48 Market Pl", "address_2": null, "address_3": null, "city": "Big Sky", "state_province": "Montana", "postal_code": "59716", "country": "United States", "longitude": "-111.2912854", "latitude": "45.2671806", "phone": "4069953939", "website_url": "http://www.lonepeakbrewery.com", "state": "Montana", "street": "48 Market Pl"}, {"id": "5aea39a2-d404-4548-81ab-c4d6645f6699", "name": "Lone Pine Brewing Company", "brewery_type": "micro", "address_1": "219 Anderson St #4", "address_2": null, "address_3": null, "city": "Portland", "state_province": "Maine", "postal_code": "04101-1400", "country": "United States", "longitude": "-70.25577318", "latitude": "43.66965322", "phone": "2075364952", "website_url": "http://www.lonepinebrewery.com", "state": "Maine", "street": "219 Anderson St #4"}, {"id": "298eeb62-0f2c-4315-8552-d95c451f1a6b", "name": "Lone Pint Brewery", "brewery_type": "micro", "address_1": "507 Commerce St", "address_2": null, "address_3": null, "city": "Magnolia", "state_province": "Texas", "postal_code": "77355-8520", "country": "United States", "longitude": "-95.751352", "latitude": "30.2089852", "phone": "2817315466", "website_url": "http://www.lonepint.com", "state": "Texas", "street": "507 Commerce St"}, {"id": "5ab63209-8eb6-40a2-a788-8d4fdfa3108f", "name": "Lone Tree Brewing Co", "brewery_type": "micro", "address_1": "8222 Park Meadows Dr", "address_2": null, "address_3": null, "city": "Lone Tree", "state_province": "Colorado", "postal_code": "80124-2746", "country": "United States", "longitude": "-104.8942075", "latitude": "39.56298697", "phone": "3037925822", "website_url": "http://www.lonetreebrewingco.com", "state": "Colorado", "street": "8222 Park Meadows Dr"}, {"id": "dfec0210-90f3-4ada-af1e-b4543f19423b", "name": "Lonerider Brewing Co", "brewery_type": "regional", "address_1": "8816 Gulf Ct Ste 100", "address_2": null, "address_3": null, "city": "Raleigh", "state_province": "North Carolina", "postal_code": "27617-4628", "country": "United States", "longitude": "-78.76254395", "latitude": "35.90357415", "phone": "9194428004", "website_url": "http://www.loneriderbeer.com", "state": "North Carolina", "street": "8816 Gulf Ct Ste 100"}, {"id": "ebcfd143-2150-4fa3-8b91-354be586e531", "name": "Lonesome Pine Brewing Co.", "brewery_type": "micro", "address_1": "12262 US Highway 19", "address_2": null, "address_3": null, "city": "Lebanon", "state_province": "Virginia", "postal_code": "24266", "country": "United States", "longitude": null, "latitude": null, "phone": "2762743697", "website_url": "http://www.lonesomepinebrewing.com", "state": "Virginia", "street": "12262 US Highway 19"}, {"id": "01f78943-0aa0-4158-b1a4-52160c97a87f", "name": "Lonesome Valley Brewing", "brewery_type": "brewpub", "address_1": "3040 N Windsong Dr Ste 101", "address_2": null, "address_3": null, "city": "Prescott Valley", "state_province": "Arizona", "postal_code": "86314-2250", "country": "United States", "longitude": null, "latitude": null, "phone": "9285153541", "website_url": "http://www.lonesomevalleybrewing.com", "state": "Arizona", "street": "3040 N Windsong Dr Ste 101"}, {"id": "53869ea0-bee5-4c51-b08c-1866b5cc99e0", "name": "Long Beach Beer Lab", "brewery_type": "micro", "address_1": "518 W Willow St", "address_2": null, "address_3": null, "city": "Long Beach", "state_province": "California", "postal_code": "90806-2831", "country": "United States", "longitude": "-118.2156232", "latitude": "33.8044209", "phone": "5623413659", "website_url": "http://www.lbbeer.com", "state": "California", "street": "518 W Willow St"}, {"id": "83184b61-ebc9-46b8-903d-6516e9a63046", "name": "Long Branch Brewery", "brewery_type": "planning", "address_1": null, "address_2": null, "address_3": null, "city": "Long Branch", "state_province": "New Jersey", "postal_code": "07740", "country": "United States", "longitude": null, "latitude": null, "phone": "7325013025", "website_url": null, "state": "New Jersey", "street": null}, {"id": "a817db45-c5c8-4b51-981d-e68a2795114f", "name": "Long Brewing LLC", "brewery_type": "micro", "address_1": "29380 NE Owls Ln", "address_2": null, "address_3": null, "city": "Newberg", "state_province": "Oregon", "postal_code": "97132-7217", "country": "United States", "longitude": "-122.9354492", "latitude": "45.3262403", "phone": "5033498341", "website_url": "http://www.longbrewing.com", "state": "Oregon", "street": "29380 NE Owls Ln"}, {"id": "2562ab61-f1f6-4fb2-bb84-896ea3eb3fbe", "name": "Long Ireland Brewing Co", "brewery_type": "micro", "address_1": "817 Pulaski St", "address_2": null, "address_3": null, "city": "Riverhead", "state_province": "New York", "postal_code": "11901-3039", "country": "United States", "longitude": "-72.67411924", "latitude": "40.9199771", "phone": "6314034303", "website_url": null, "state": "New York", "street": "817 Pulaski St"}, {"id": "47e1f46b-e172-4f32-882b-c7bdf619fffb", "name": "Long Live Beerworks", "brewery_type": "micro", "address_1": "40R Sprague St", "address_2": null, "address_3": null, "city": "Providence", "state_province": "Rhode Island", "postal_code": "02907-2578", "country": "United States", "longitude": "-71.4260511", "latitude": "41.8093019", "phone": null, "website_url": "http://www.longlivebeerworks.com", "state": "Rhode Island", "street": "40R Sprague St"}, {"id": "b7f2343d-7a88-4085-b2a2-9f66f7806d1b", "name": "Long Lot Farm Brewery", "brewery_type": "micro", "address_1": "153 Johnson Rd", "address_2": null, "address_3": null, "city": "Chester", "state_province": "New York", "postal_code": "10918", "country": "United States", "longitude": null, "latitude": null, "phone": "8453372940", "website_url": "http://www.longlotfarmbrewery.com", "state": "New York", "street": "153 Johnson Rd"}, {"id": "fd13429b-1eee-45ae-818a-bd54b099f845", "name": "Long Table Brewing", "brewery_type": "micro", "address_1": "2895 Fairfax St", "address_2": null, "address_3": null, "city": "Denver", "state_province": "Colorado", "postal_code": "80207-2748", "country": "United States", "longitude": "-104.928343", "latitude": "39.75818024", "phone": null, "website_url": null, "state": "Colorado", "street": "2895 Fairfax St"}, {"id": "95fc1431-cef6-4551-b221-cc6fa0fedba4", "name": "Long Trail Brewing Co", "brewery_type": "regional", "address_1": "5520 US Route 4 Jct. Route 4 & 100A", "address_2": null, "address_3": null, "city": "Bridgewater Corners", "state_province": "Vermont", "postal_code": "05035", "country": "United States", "longitude": null, "latitude": null, "phone": "8026725011", "website_url": "http://www.longtrail.com", "state": "Vermont", "street": "5520 US Route 4 Jct. Route 4 & 100A"}, {"id": "d49a21ea-2506-4bed-b997-531ebe34cb48", "name": "Long Valley Pub and Brewery", "brewery_type": "brewpub", "address_1": "1 Fairmount Rd", "address_2": null, "address_3": null, "city": "Long Valley", "state_province": "New Jersey", "postal_code": "07853", "country": "United States", "longitude": "-74.780486", "latitude": "40.783908", "phone": "9088761122", "website_url": null, "state": "New Jersey", "street": "1 Fairmount Rd"}, {"id": "d3b2774a-1d25-40a3-ba24-1bcecab3681e", "name": "Long Way Brewing", "brewery_type": "planning", "address_1": null, "address_2": null, "address_3": null, "city": "Radford", "state_province": "Virginia", "postal_code": "24141-1403", "country": "United States", "longitude": null, "latitude": null, "phone": null, "website_url": null, "state": "Virginia", "street": null}, {"id": "fea6b287-57d9-4f14-8eb7-0b7b0813b2b2", "name": "Long Wooden Spoon Brewing", "brewery_type": "micro", "address_1": "4098 Business Park Dr", "address_2": null, "address_3": null, "city": "Amarillo", "state_province": "Texas", "postal_code": "79110-4233", "country": "United States", "longitude": "-101.8832826", "latitude": "35.14284054", "phone": "8065530397", "website_url": "http://www.lwsbrewing.com", "state": "Texas", "street": "4098 Business Park Dr"}, {"id": "20a3789b-132b-46ab-9333-76e40f489dd9", "name": "Longship Brewery", "brewery_type": "closed", "address_1": "10320 Camino Santa Fe Ste C", "address_2": null, "address_3": null, "city": "San Diego", "state_province": "California", "postal_code": "92121-3103", "country": "United States", "longitude": "-117.1714305", "latitude": "32.90417278", "phone": "8582467875", "website_url": "http://www.LongshipBrewery.com", "state": "California", "street": "10320 Camino Santa Fe Ste C"}, {"id": "3375a6e0-d081-4996-aa54-f8416ed7b76b", "name": "Longtab Brewing Company LLC", "brewery_type": "micro", "address_1": "4700 Timco W Suite 105", "address_2": null, "address_3": null, "city": "San Antonio", "state_province": "Texas", "postal_code": "78238-1920", "country": "United States", "longitude": "-98.5972829", "latitude": "29.4783203", "phone": "2106024561", "website_url": "http://www.longtabbrewing.com", "state": "Texas", "street": "4700 Timco W Suite 105"}, {"id": "f58ed632-1a57-4ffc-b2b1-d6a2374bc3a9", "name": "Look Long Brewing Company", "brewery_type": "micro", "address_1": "6550 N Interstate Ave", "address_2": null, "address_3": null, "city": "Portland", "state_province": "Oregon", "postal_code": "97217-4836", "country": "United States", "longitude": "-122.6818062", "latitude": "45.57066185", "phone": "5032860343", "website_url": "http://www.looklongbrewingcompany.com", "state": "Oregon", "street": "6550 N Interstate Ave"}, {"id": "ae2c76cc-3dd1-4e80-8b90-ebaa1bedec19", "name": "Looking Glass Brewing Company", "brewery_type": "brewpub", "address_1": "115 N Bridge St", "address_2": null, "address_3": null, "city": "Dewitt", "state_province": "Michigan", "postal_code": "48820-8901", "country": "United States", "longitude": "-84.56922371", "latitude": "42.84243629", "phone": "5175827287", "website_url": "http://www.facebook.com/DeWittBreweryProject/", "state": "Michigan", "street": "115 N Bridge St"}, {"id": "8d9a114b-9303-4544-9d96-7b8f218138f3", "name": "Lookingglass Brewery", "brewery_type": "micro", "address_1": "192 SE Main St", "address_2": null, "address_3": null, "city": "Winston", "state_province": "Oregon", "postal_code": "97496", "country": "United States", "longitude": "-123.4131843", "latitude": "43.12022681", "phone": "5413788565", "website_url": "http://www.lookingglassbrewery.com", "state": "Oregon", "street": "192 SE Main St"}, {"id": "8171a9b9-6476-4cb2-867c-1b25547c6360", "name": "Lookout Brewing Company", "brewery_type": "micro", "address_1": "103 S Ridgeway Ave", "address_2": null, "address_3": null, "city": "Black Mountain", "state_province": "North Carolina", "postal_code": "28711-3550", "country": "United States", "longitude": "-82.31794593", "latitude": "35.619217", "phone": "8283575169", "website_url": "http://www.lookoutbrewing.com", "state": "North Carolina", "street": "103 S Ridgeway Ave"}, {"id": "e7c13236-3cde-47c5-83e1-1698ce94e45e", "name": "Lookout Farm Brewing And Cider Co", "brewery_type": "micro", "address_1": "89 Pleasant St", "address_2": null, "address_3": null, "city": "Natick", "state_province": "Massachusetts", "postal_code": "01760-5669", "country": "United States", "longitude": "-71.37096888", "latitude": "42.32235516", "phone": "5086511539", "website_url": "http://www.lookoutfarmbrewing.com", "state": "Massachusetts", "street": "89 Pleasant St"}, {"id": "e6d58efd-749d-49f2-8430-71c834546227", "name": "Loomis Basin Brewing Co", "brewery_type": "micro", "address_1": "3277 Swetzer Rd", "address_2": null, "address_3": null, "city": "Loomis", "state_province": "California", "postal_code": "95650-7607", "country": "United States", "longitude": "-121.1916448", "latitude": "38.83182018", "phone": "9162592739", "website_url": "http://www.loomisbasinbrewing.com", "state": "California", "street": "3277 Swetzer Rd"}, {"id": "c652d2e4-4b4f-4e71-8aa7-806b68fa63ea", "name": "Loony's Brew", "brewery_type": "brewpub", "address_1": "3481 Main St", "address_2": null, "address_3": null, "city": "Ranier", "state_province": "Minnesota", "postal_code": "56668", "country": "United States", "longitude": "-93.3474314", "latitude": "48.6152185", "phone": "2185401001", "website_url": "http://www.loonysbrew.com", "state": "Minnesota", "street": "3481 Main St"}, {"id": "974f363a-db6a-47c7-bc83-da51bd13ddd3", "name": "Loop Brewing Co", "brewery_type": "brewpub", "address_1": "404 W A St", "address_2": null, "address_3": null, "city": "Mc Cook", "state_province": "Nebraska", "postal_code": "69001-3516", "country": "United States", "longitude": "-100.6305293", "latitude": "40.1976921", "phone": "3083455198", "website_url": "http://www.loopbrewingcompany.com", "state": "Nebraska", "street": "404 W A St"}, {"id": "90b0b966-bd3e-4c8d-b0b2-4d4c6c4355ca", "name": "Loose Ends Brewing Company", "brewery_type": "planning", "address_1": null, "address_2": null, "address_3": null, "city": "Knoxville", "state_province": "Tennessee", "postal_code": "37938-2162", "country": "United States", "longitude": null, "latitude": null, "phone": "9372860803", "website_url": null, "state": "Tennessee", "street": null}, {"id": "7c56b27e-c6d8-4f39-844d-c663d31ab159", "name": "Loose Rail Brewing", "brewery_type": "micro", "address_1": "37 W Waterloo St", "address_2": null, "address_3": null, "city": "Canal Winchester", "state_province": "Ohio", "postal_code": "43110-1140", "country": "United States", "longitude": "-82.8069082", "latitude": "39.84329", "phone": "6143216634", "website_url": "http://www.looserailbrewing.com", "state": "Ohio", "street": "37 W Waterloo St"}, {"id": "a2001859-1c36-41d8-b849-c9c0878d11a8", "name": "Loose Screw Beer Co.", "brewery_type": "micro", "address_1": "1511 W McMillan Rd", "address_2": null, "address_3": null, "city": "Meridian", "state_province": "Idaho", "postal_code": "83646-5172", "country": "United States", "longitude": "-116.4125959", "latitude": "43.6479858", "phone": "2086173078", "website_url": "https://www.loosescrew.beer", "state": "Idaho", "street": "1511 W McMillan Rd"}, {"id": "9d809d42-f8f8-4521-a9ee-12771ea4f2b3", "name": "Loose Shoe Brewing Company, LLC", "brewery_type": "micro", "address_1": "198 Ambriar Plz", "address_2": null, "address_3": null, "city": "Amherst", "state_province": "Virginia", "postal_code": "24521-", "country": "United States", "longitude": null, "latitude": null, "phone": "434946", "website_url": "http://www.looseshoebrewing.com", "state": "Virginia", "street": "198 Ambriar Plz"}, {"id": "09f3571c-2b2a-4ce0-9ab4-a65ff80ad968", "name": "Loowit Brewing", "brewery_type": "micro", "address_1": "507 Columbia St", "address_2": null, "address_3": null, "city": "Vancouver", "state_province": "Washington", "postal_code": "98660-3194", "country": "United States", "longitude": "-122.6734331", "latitude": "45.6251071", "phone": "3605662323", "website_url": "http://www.loowitbrewing.com", "state": "Washington", "street": "507 Columbia St"}, {"id": "0c3816c3-3b00-49af-bff5-67dac5faa3b1", "name": "Lopez Island Brewing Co", "brewery_type": "closed", "address_1": "4817 Center Rd", "address_2": null, "address_3": null, "city": "Lopez Island", "state_province": "Washington", "postal_code": "98261-8653", "country": "United States", "longitude": null, "latitude": null, "phone": "3604682646", "website_url": "http://www.lopezislandbrewingco.rocks", "state": "Washington", "street": "4817 Center Rd"}, {"id": "8f160bf6-649a-4365-8703-372aed64eca3", "name": "Lord Hobo Brewing Co", "brewery_type": "regional", "address_1": "5 Draper St", "address_2": null, "address_3": null, "city": "Woburn", "state_province": "Massachusetts", "postal_code": "01801-4521", "country": "United States", "longitude": "-71.12892319", "latitude": "42.47603755", "phone": "7812810809", "website_url": "http://lordhobobrewing.com", "state": "Massachusetts", "street": "5 Draper St"}, {"id": "f026c03d-a77b-4af5-8b86-37ac7c7a6f65", "name": "Lorelei Brewing Co", "brewery_type": "micro", "address_1": "520 N A. S Dr", "address_2": null, "address_3": null, "city": "Corpus Christi", "state_province": "Texas", "postal_code": "78418-3254", "country": "United States", "longitude": null, "latitude": null, "phone": "3614458684", "website_url": "http://www.loreleibrewing.beer", "state": "Texas", "street": "520 N A. S Dr"}, {"id": "c757354b-e5a2-403f-9e90-b8f8fc5ab229", "name": "Los Angeles Ale Works", "brewery_type": "micro", "address_1": "12918 Cerise Ave", "address_2": null, "address_3": null, "city": "Hawthorne", "state_province": "California", "postal_code": "90250-5521", "country": "United States", "longitude": "-118.3322768", "latitude": "33.9149155", "phone": "4244564191", "website_url": "http://www.laaleworks.com", "state": "California", "street": "12918 Cerise Ave"}, {"id": "8024ef15-27bc-41ca-be9c-c975983505f6", "name": "Lost 40 brewing", "brewery_type": "micro", "address_1": "510 McLean St", "address_2": null, "address_3": null, "city": "Little Rock", "state_province": "Arkansas", "postal_code": "72202-2660", "country": "United States", "longitude": "-92.25901", "latitude": "34.74268558", "phone": "5015545557", "website_url": null, "state": "Arkansas", "street": "510 McLean St"}, {"id": "3a2613dd-86a8-4457-b400-a23f5c10b314", "name": "Lost Cabin Beer Co.", "brewery_type": "micro", "address_1": "1401 W Omaha St Ste 3", "address_2": null, "address_3": null, "city": "Rapid City", "state_province": "South Dakota", "postal_code": "57701-3163", "country": "United States", "longitude": "-103.2422229", "latitude": "44.08401961", "phone": "6057185678", "website_url": "http://www.lostcabin.beer", "state": "South Dakota", "street": "1401 W Omaha St Ste 3"}, {"id": "b4a0f525-fac9-48ce-a7c3-86e84327fca6", "name": "Lost Canoe Brewing Co", "brewery_type": "closed", "address_1": "1208 10th St", "address_2": null, "address_3": null, "city": "Snohomish", "state_province": "Washington", "postal_code": "98290-2099", "country": "United States", "longitude": "-122.096622", "latitude": "47.9241142", "phone": "3605683984", "website_url": "http://www.facebook.com/lostcanoebrew", "state": "Washington", "street": "1208 10th St"}, {"id": "e9b37d23-bbe6-4de9-90bf-1ac534f034f5", "name": "Lost Coast Brew House", "brewery_type": "brewpub", "address_1": "1600 Sunset Dr", "address_2": null, "address_3": null, "city": "Eureka", "state_province": "California", "postal_code": "95503-2401", "country": "United States", "longitude": "-124.1892492", "latitude": "40.76719226", "phone": "7074454484", "website_url": "http://www.lostcoast.com", "state": "California", "street": "1600 Sunset Dr"}, {"id": "f811f1bc-0d7c-4a83-bb70-e4b44eacdc8e", "name": "Lost Coast Brewery and Cafe - Table Bluff Brewing, Inc.", "brewery_type": "regional", "address_1": "617 4th St", "address_2": null, "address_3": null, "city": "Eureka", "state_province": "California", "postal_code": "95501-1013", "country": "United States", "longitude": "-124.1648141", "latitude": "40.80302047", "phone": "7074454480", "website_url": "http://www.lostcoast.com", "state": "California", "street": "617 4th St"}, {"id": "c4ca2446-26fe-453c-a7c2-9aa6a63f8ace", "name": "Lost Colony Brewery and Cafe", "brewery_type": "brewpub", "address_1": "208 Queen Elizabeth Ave", "address_2": null, "address_3": null, "city": "Manteo", "state_province": "North Carolina", "postal_code": "27954-", "country": "United States", "longitude": "-75.66954474", "latitude": "35.90949405", "phone": "2524736666", "website_url": "http://www.lostcolonybrewery.com", "state": "North Carolina", "street": "208 Queen Elizabeth Ave"}, {"id": "348fb7b9-8901-4bf3-a9da-09ca2904ed24", "name": "Lost Duck Brewing Co.", "brewery_type": "brewpub", "address_1": "723 Avenue H # 725", "address_2": null, "address_3": null, "city": "Fort Madison", "state_province": "Iowa", "postal_code": "52627-2935", "country": "United States", "longitude": "-91.31026009", "latitude": "40.63007017", "phone": "3193728255", "website_url": "http://www.duckbrewing.com", "state": "Iowa", "street": "723 Avenue H # 725"}, {"id": "a901b6b3-3648-4c04-b727-1c6c7f08dd0b", "name": "Lost Elm Artisanal Ales", "brewery_type": "closed", "address_1": "25 West St Unit 4", "address_2": null, "address_3": null, "city": "Stafford Springs", "state_province": "Connecticut", "postal_code": "06076-1325", "country": "United States", "longitude": null, "latitude": null, "phone": null, "website_url": "http://www.lostelmbeer.com", "state": "Connecticut", "street": "25 West St Unit 4"}, {"id": "ea5ebe24-30ce-4eac-882a-cdf8d064251d", "name": "Lost Forty Brewing", "brewery_type": "micro", "address_1": "501 Byrd St", "address_2": null, "address_3": null, "city": "Little Rock", "state_province": "Arkansas", "postal_code": "72202", "country": "United States", "longitude": "-92.260019", "latitude": "34.742845", "phone": "5013197275", "website_url": "http://www.lost40brewing.com/", "state": "Arkansas", "street": "501 Byrd St"}, {"id": "5c96e81b-09a3-467b-9257-cd6faacc6aae", "name": "Lost Friend Brewing Company", "brewery_type": "micro", "address_1": "2458 Montebello Square Dr", "address_2": null, "address_3": null, "city": "Colorado Springs", "state_province": "Colorado", "postal_code": "80918-1974", "country": "United States", "longitude": "-104.7823626", "latitude": "38.9082661", "phone": null, "website_url": "http://www.lostfriendbrewing.com", "state": "Colorado", "street": "2458 Montebello Square Dr"}, {"id": "68e53fe7-b140-4e33-94fe-11adb6996e75", "name": "Lost Grove Brewing", "brewery_type": "micro", "address_1": "1026 S La Pointe St", "address_2": null, "address_3": null, "city": "Boise", "state_province": "Idaho", "postal_code": "83706-2827", "country": "United States", "longitude": "-116.2128426", "latitude": "43.608212", "phone": "2082862258", "website_url": "http://www.lostgrovebrewing.com", "state": "Idaho", "street": "1026 S La Pointe St"}, {"id": "d9e48256-6286-472e-bb9c-5cb1d8ecc202", "name": "Lost Highway Brewing", "brewery_type": "micro", "address_1": "12741 E Caley Ave Ste 140", "address_2": null, "address_3": null, "city": "Centennial", "state_province": "Colorado", "postal_code": "80111-6407", "country": "United States", "longitude": null, "latitude": null, "phone": null, "website_url": "http://www.losthighwaybrewing.com", "state": "Colorado", "street": "12741 E Caley Ave Ste 140"}, {"id": "667d2685-1595-4d34-b636-d3768a7b6d7d", "name": "Lost Hiker Brewing Company", "brewery_type": "micro", "address_1": "26394 E Hwy 70 Unit 6", "address_2": null, "address_3": null, "city": "Ruidoso Downs", "state_province": "New Mexico", "postal_code": "88346", "country": "United States", "longitude": null, "latitude": null, "phone": "5128257521", "website_url": "http://www.losthikerbrewing.com", "state": "New Mexico", "street": "26394 E Hwy 70 Unit 6"}, {"id": "05c41a35-c10b-4275-8eba-ac12ab5c313a", "name": "Lost Kingdom Brewery / Firehouse Distillery", "brewery_type": "micro", "address_1": "7160 Main St", "address_2": null, "address_3": null, "city": "Ovid", "state_province": "New York", "postal_code": "14521-9401", "country": "United States", "longitude": "-76.82281329", "latitude": "42.67724221", "phone": "6074034020", "website_url": "http://www.firehousedistillery.net", "state": "New York", "street": "7160 Main St"}, {"id": "e26dc654-64c9-4d6e-a139-95a7b009d0ee", "name": "Lost Nation Brewing", "brewery_type": "brewpub", "address_1": "87 Old Creamery Rd", "address_2": null, "address_3": null, "city": "Morrisville", "state_province": "Vermont", "postal_code": "05661-6152", "country": "United States", "longitude": null, "latitude": null, "phone": null, "website_url": "http://www.lostnationbrewing.com", "state": "Vermont", "street": "87 Old Creamery Rd"}, {"id": "8dffaa96-db92-45c9-a0d7-3cd2b8686f42", "name": "Lost Province Brewing Company, LLC", "brewery_type": "brewpub", "address_1": "130 N. Depot Street PO Box 614", "address_2": null, "address_3": null, "city": "Boone", "state_province": "North Carolina", "postal_code": "28607-3603", "country": "United States", "longitude": null, "latitude": null, "phone": "8282653506", "website_url": "http://www.lostprovince.com", "state": "North Carolina", "street": "130 N. Depot Street PO Box 614"}, {"id": "0725fd86-c6e4-49b2-9aab-df4a02c2e593", "name": "Lost Rhino Brewing Co", "brewery_type": "micro", "address_1": "21730 Red Rum Dr Ste 142", "address_2": null, "address_3": null, "city": "Ashburn", "state_province": "Virginia", "postal_code": "20147-5870", "country": "United States", "longitude": "-77.47673436", "latitude": "39.01564409", "phone": "5712912083", "website_url": "http://www.lostrhino.com", "state": "Virginia", "street": "21730 Red Rum Dr Ste 142"}, {"id": "a89dffd1-be0c-42d0-802f-c8d942e5df50", "name": "Lost Shirt Brewing Company", "brewery_type": "micro", "address_1": "7025 Industrial Rd Unit B", "address_2": null, "address_3": null, "city": "West Melbourne", "state_province": "Florida", "postal_code": "32904-1616", "country": "United States", "longitude": null, "latitude": null, "phone": "13214994323", "website_url": "http://lostshirtbrewingco@gmail.com", "state": "Florida", "street": "7025 Industrial Rd Unit B"}, {"id": "692a06a1-3923-4b48-9bd8-cdb9c87ef848", "name": "Lost Signal Brewing Company", "brewery_type": "brewpub", "address_1": "610 W College St", "address_2": null, "address_3": null, "city": "Springfield", "state_province": "Missouri", "postal_code": "65806-1240", "country": "United States", "longitude": "-93.2974611", "latitude": "37.2085049", "phone": "9723104162", "website_url": "http://www.lostsignalbrewing.com", "state": "Missouri", "street": "610 W College St"}, {"id": "a8527951-694e-41c9-9220-1be979f834f7", "name": "Lost Tavern Brewing", "brewery_type": "micro", "address_1": "782 Main St", "address_2": null, "address_3": null, "city": "Hellertown", "state_province": "Pennsylvania", "postal_code": "18055-1540", "country": "United States", "longitude": "-75.3411606", "latitude": "40.5809687", "phone": "4848513980", "website_url": "http://www.losttavernbrewing.com", "state": "Pennsylvania", "street": "782 Main St"}, {"id": "db5a667c-b8b3-4477-a482-43fa0dd3086b", "name": "Lost Valley Brewing Co", "brewery_type": "micro", "address_1": "200 Lost Valley Rd", "address_2": null, "address_3": null, "city": "Auburn", "state_province": "Maine", "postal_code": "04210", "country": "United States", "longitude": "-70.280399", "latitude": "44.130958", "phone": null, "website_url": null, "state": "Maine", "street": "200 Lost Valley Rd"}, {"id": "1d44b1c0-1095-4636-bcd2-447a57ee658d", "name": "Lost Viking Brewing Company", "brewery_type": "planning", "address_1": null, "address_2": null, "address_3": null, "city": "Harwinton", "state_province": "Connecticut", "postal_code": "06013", "country": "United States", "longitude": null, "latitude": null, "phone": "2035256196", "website_url": "http://www.lostvikingbrew.com", "state": "Connecticut", "street": null}, {"id": "4a83d1c5-b544-4472-a5ad-46a1cf9255ed", "name": "Lost Way Brewery", "brewery_type": "micro", "address_1": "614 3rd Ave", "address_2": null, "address_3": null, "city": "Holdrege", "state_province": "Nebraska", "postal_code": "68949-2701", "country": "United States", "longitude": "-99.37228235", "latitude": "40.4368517", "phone": "3089950503", "website_url": "http://www.lostwaybrewery.com", "state": "Nebraska", "street": "614 3rd Ave"}, {"id": "3ee1382d-61b5-4474-9bb0-65fe9182e327", "name": "Lost Winds Brewing Co", "brewery_type": "micro", "address_1": "924 Calle Negocio Ste C", "address_2": null, "address_3": null, "city": "San Clemente", "state_province": "California", "postal_code": "92673-6208", "country": "United States", "longitude": "-117.6070025", "latitude": "33.45199517", "phone": "9492444288", "website_url": "http://www.lostwindsbrewing.com", "state": "California", "street": "924 Calle Negocio Ste C"}, {"id": "8c740e50-5722-447f-b240-3b1815fb4154", "name": "Lot 50 Brewing", "brewery_type": "micro", "address_1": "112 E Court St", "address_2": null, "address_3": null, "city": "Paris", "state_province": "Illinois", "postal_code": "61944-2210", "country": "United States", "longitude": "-87.70732557", "latitude": "39.61104231", "phone": "2172511493", "website_url": "http://www.lot50brewing.com", "state": "Illinois", "street": "112 E Court St"}, {"id": "330d1efa-586a-43dd-ad93-613326719806", "name": "Lot 713 Craft Brewery", "brewery_type": "planning", "address_1": null, "address_2": null, "address_3": null, "city": "Riverside", "state_province": "California", "postal_code": "92506-3208", "country": "United States", "longitude": "-117.3961623", "latitude": "33.9533546", "phone": null, "website_url": "http://www.lot713.com", "state": "California", "street": null}, {"id": "54a64949-a029-4330-89ea-bf17eb7561bb", "name": "Loud Brewing Company", "brewery_type": "planning", "address_1": null, "address_2": null, "address_3": null, "city": "Duncannon", "state_province": "Pennsylvania", "postal_code": "17020-1201", "country": "United States", "longitude": null, "latitude": null, "phone": "7173190021", "website_url": null, "state": "Pennsylvania", "street": null}, {"id": "a0627410-7fb1-436c-a020-fc853779ca68", "name": "Loud Shirt Brewing Co", "brewery_type": "micro", "address_1": "Roedean Road", "address_2": null, "address_3": null, "city": "Brighton", "state_province": "East Sussex", "postal_code": "BN2 5RU", "country": "England", "longitude": "-0.106288", "latitude": "50.817144", "phone": "1273087077", "website_url": "https://loudshirtbeer.co.uk/", "state": "East Sussex", "street": "Roedean Road"}, {"id": "91d01857-2545-4926-982b-7e67fdd539fe", "name": "Loudoun Brewing Co", "brewery_type": "micro", "address_1": "310 E Market St", "address_2": null, "address_3": null, "city": "Leesburg", "state_province": "Virginia", "postal_code": "20176-4101", "country": "United States", "longitude": "-77.532576", "latitude": "39.09743", "phone": "5712236097", "website_url": "http://www.loudounbrewing.com", "state": "Virginia", "street": "310 E Market St"}, {"id": "8b909c6f-b067-45df-b156-d5072b63db57", "name": "Lough Gill Brewery", "brewery_type": "micro", "address_1": "Cleveragh Business Park", "address_2": "The Back Ave", "address_3": null, "city": "Cleveragh", "state_province": "Sligo", "postal_code": "F91 H6CV", "country": "Ireland", "longitude": "-8.4572863", "latitude": "54.2667763", "phone": "353872108159", "website_url": "https://loughgillbrewery.com/", "state": "Sligo", "street": "Cleveragh Business Park"}, {"id": "6f8be6c1-a236-4fce-931a-7011b0815372", "name": "Louisa Brewing, LLC", "brewery_type": "planning", "address_1": null, "address_2": null, "address_3": null, "city": "Louisa", "state_province": "Virginia", "postal_code": "23093-5715", "country": "United States", "longitude": null, "latitude": null, "phone": "5409674873", "website_url": "http://www.louisabrewing.com", "state": "Virginia", "street": null}, {"id": "c9ace846-b6fe-46b2-beca-46f8e081548a", "name": "Love City Brewing Company", "brewery_type": "micro", "address_1": "1016 Buttonwood St", "address_2": null, "address_3": null, "city": "Philadelphia", "state_province": "Pennsylvania", "postal_code": "19123-3703", "country": "United States", "longitude": "-75.15509414", "latitude": "39.96067782", "phone": null, "website_url": "http://www.lovecitybrewing.com", "state": "Pennsylvania", "street": "1016 Buttonwood St"}, {"id": "25b04c9e-5e96-4132-a2ff-c56bdfe06b75", "name": "LoveCraft Brewing Co", "brewery_type": "micro", "address_1": "275 5th St Ste 101", "address_2": null, "address_3": null, "city": "Bremerton", "state_province": "Washington", "postal_code": "98337-1907", "country": "United States", "longitude": "-122.6257694", "latitude": "47.5664595", "phone": "2067174707", "website_url": "https://www.lovecraftbrewery.com", "state": "Washington", "street": "275 5th St Ste 101"}, {"id": "94eb3df4-0a08-49cc-82af-4364006f756f", "name": "Lovelady Brewing Company", "brewery_type": "micro", "address_1": "20 S Water St", "address_2": null, "address_3": null, "city": "Henderson", "state_province": "Nevada", "postal_code": "89015-7223", "country": "United States", "longitude": "-114.9878974", "latitude": "36.03805558", "phone": "7028578469", "website_url": "http://www.loveladybrewing.com", "state": "Nevada", "street": "20 S Water St"}, {"id": "6922c3e4-d702-4872-8fe9-30385a052359", "name": "Loveland Aleworks", "brewery_type": "micro", "address_1": "118 W 4th St", "address_2": null, "address_3": null, "city": "Loveland", "state_province": "Colorado", "postal_code": "80537-5523", "country": "United States", "longitude": "-105.0769672", "latitude": "40.39541012", "phone": "9704057465", "website_url": "http://www.lovelandaleworks.com", "state": "Colorado", "street": "118 W 4th St"}, {"id": "cb9f3f48-0a0f-49a3-87df-c858feb01eec", "name": "Low Tide Brewing", "brewery_type": "micro", "address_1": "2863 Maybank Hwy", "address_2": null, "address_3": null, "city": "Johns Island", "state_province": "South Carolina", "postal_code": "29455-4808", "country": "United States", "longitude": null, "latitude": null, "phone": "8435017570", "website_url": "http://www.lowtidebrewing.com", "state": "South Carolina", "street": "2863 Maybank Hwy"}, {"id": "2e6b60c6-46af-4e64-b541-58d36700a92c", "name": "Lowdown Brewery + Kitchen", "brewery_type": "brewpub", "address_1": "800 N Lincoln St Unit 2", "address_2": null, "address_3": null, "city": "Denver", "state_province": "Colorado", "postal_code": "80203-2710", "country": "United States", "longitude": null, "latitude": null, "phone": "7205248065", "website_url": "http://www.lowdownbrewery.com", "state": "Colorado", "street": "800 N Lincoln St Unit 2"}, {"id": "55bc3336-5482-47b0-ae38-f25cf2fa79ec", "name": "Lowell Beer Works", "brewery_type": "brewpub", "address_1": "203 Cabot St", "address_2": null, "address_3": null, "city": "Lowell", "state_province": "Massachusetts", "postal_code": "01854-", "country": "United States", "longitude": "-71.31643612", "latitude": "42.6505753", "phone": "9789372337", "website_url": null, "state": "Massachusetts", "street": "203 Cabot St"}, {"id": "dca49fa4-340f-489b-84da-c3c4b8389ff2", "name": "Lower Forge Brewery", "brewery_type": "micro", "address_1": "14 S Main St", "address_2": null, "address_3": null, "city": "Medford", "state_province": "New Jersey", "postal_code": "08055-2414", "country": "United States", "longitude": "-74.82362556", "latitude": "39.89909629", "phone": "6099759532", "website_url": "http://www.lowerforge.com", "state": "New Jersey", "street": "14 S Main St"}, {"id": "7f10f5fb-8cc6-430a-9c8a-50d7817db217", "name": "Lowercase Brewing", "brewery_type": "brewpub", "address_1": "6235 Airport Way S", "address_2": null, "address_3": null, "city": "Seattle", "state_province": "Washington", "postal_code": "98108-4377", "country": "United States", "longitude": "-122.3146374", "latitude": "47.5483294", "phone": "2062584987", "website_url": "http://www.lowercasebrewing.com", "state": "Washington", "street": "6235 Airport Way S"}, {"id": "099e4b04-ec6c-4b4f-8691-b1d202bd90c4", "name": "LTD Brewery", "brewery_type": "micro", "address_1": "725 Mainstreet", "address_2": null, "address_3": null, "city": "Hopkins", "state_province": "Minnesota", "postal_code": "55343-7624", "country": "United States", "longitude": null, "latitude": null, "phone": "9529382415", "website_url": "http://www.ltdbrewing.com", "state": "Minnesota", "street": "725 Mainstreet"}, {"id": "4d1d38b6-5514-45bc-a020-74efd0c1bf8f", "name": "LTS Brewing Company", "brewery_type": "micro", "address_1": "2001 32nd Ave NW", "address_2": null, "address_3": null, "city": "Rochester", "state_province": "Minnesota", "postal_code": "55901-8321", "country": "United States", "longitude": "-92.5104808", "latitude": "44.0447412", "phone": "5072268280", "website_url": "http://www.ltsbrewing.com", "state": "Minnesota", "street": "2001 32nd Ave NW"}, {"id": "aefd86d4-eb51-4aae-bacb-bf1f69025b41", "name": "Lubec Brewing Co", "brewery_type": "brewpub", "address_1": "41 Water St", "address_2": null, "address_3": null, "city": "Lubec", "state_province": "Maine", "postal_code": "04652-", "country": "United States", "longitude": "-66.98348086", "latitude": "44.86083118", "phone": "2077334555", "website_url": null, "state": "Maine", "street": "41 Water St"}, {"id": "ac190eeb-bbab-4b65-8243-9f103c14bacf", "name": "Lucette Brewing Co", "brewery_type": "micro", "address_1": "910 Hudson Rd", "address_2": null, "address_3": null, "city": "Menomonie", "state_province": "Wisconsin", "postal_code": "54751-1748", "country": "United States", "longitude": "-91.940075", "latitude": "44.875861", "phone": "7152316836", "website_url": "http://www.lucettebrewing.com", "state": "Wisconsin", "street": "910 Hudson Rd"}]