[{"id": "b2f096d6-1297-43d7-bf20-429cbbc3ddf7", "name": "Strawn Brewing Co", "brewery_type": "micro", "address_1": "27 Word St", "address_2": null, "address_3": null, "city": "Fairburn", "state_province": "Georgia", "postal_code": "30213-1545", "country": "United States", "longitude": "-84.58368873", "latitude": "33.56062198", "phone": "6785453775", "website_url": "http://www.strawnbrewing.com", "state": "Georgia", "street": "27 Word St"}, {"id": "31ea7b52-41bb-42de-9287-dffb127d273a", "name": "Streetcar 82 Brewing Co.", "brewery_type": "micro", "address_1": "4824 Rhode Island Ave", "address_2": null, "address_3": null, "city": "Hyattsville", "state_province": "Maryland", "postal_code": "20781-2034", "country": "United States", "longitude": "-76.9430028", "latitude": "38.9493263", "phone": "2407820152", "website_url": "http://www.streetcar82brewing.com", "state": "Maryland", "street": "4824 Rhode Island Ave"}, {"id": "1068e771-b1ba-47d0-960b-03ef44043ecd", "name": "Streetside Brewery", "brewery_type": "micro", "address_1": "4003 Eastern Ave", "address_2": null, "address_3": null, "city": "Cincinnati", "state_province": "Ohio", "postal_code": "45226-1747", "country": "United States", "longitude": "-84.43295078", "latitude": "39.10919541", "phone": "5136155877", "website_url": null, "state": "Ohio", "street": "4003 Eastern Ave"}, {"id": "be63195b-5f3a-4f31-949a-12f59086c6dd", "name": "Strike Brewing Co", "brewery_type": "micro", "address_1": "2099 S 10th St Unit 30", "address_2": null, "address_3": null, "city": "San Jose", "state_province": "California", "postal_code": "95112-4116", "country": "United States", "longitude": "-121.8582561", "latitude": "37.31067385", "phone": "6507146983", "website_url": "http://www.strikebrewingco.com", "state": "California", "street": "2099 S 10th St Unit 30"}, {"id": "4e84c26e-4850-4bee-898d-fcdffd88b881", "name": "Strikhedonia Brewing Company LLC", "brewery_type": "planning", "address_1": null, "address_2": null, "address_3": null, "city": "Saint Charles", "state_province": "Illinois", "postal_code": "60174-4591", "country": "United States", "longitude": null, "latitude": null, "phone": null, "website_url": null, "state": "Illinois", "street": null}, {"id": "d6639eb1-44cd-4b0e-a08c-c3a3143d695b", "name": "Strong Brewing", "brewery_type": "micro", "address_1": "7 Rope Ferry Rd", "address_2": null, "address_3": null, "city": "Sedgwick", "state_province": "Maine", "postal_code": "04676-3409", "country": "United States", "longitude": null, "latitude": null, "phone": "2073598722", "website_url": "http://strongbrewing.com/", "state": "Maine", "street": "7 Rope Ferry Rd"}, {"id": "94772c9e-dff5-4404-8f15-6572633b0307", "name": "Strong Rope Brewery", "brewery_type": "micro", "address_1": "574A President St", "address_2": null, "address_3": null, "city": "Brooklyn", "state_province": "New York", "postal_code": "11215-1019", "country": "United States", "longitude": "-73.9840898", "latitude": "40.6769023", "phone": "5857033010", "website_url": "http://www.strongropebrewery.com", "state": "New York", "street": "574A President St"}, {"id": "99deb304-2fa2-4236-a1cb-81524c7492ce", "name": "Stronghouse Brewery", "brewery_type": "planning", "address_1": null, "address_2": null, "address_3": null, "city": "Telluride", "state_province": "Colorado", "postal_code": "81435", "country": "United States", "longitude": null, "latitude": null, "phone": null, "website_url": null, "state": "Colorado", "street": null}, {"id": "37c008fe-71cf-4cf9-9c38-1f7be73a7da6", "name": "Structures Brewing", "brewery_type": "micro", "address_1": "1420 N State St", "address_2": null, "address_3": null, "city": "Bellingham", "state_province": "Washington", "postal_code": "98225-4513", "country": "United States", "longitude": "-122.4744507", "latitude": "48.74988055", "phone": "3605827475", "website_url": "http://www.structuresbrewing.com", "state": "Washington", "street": "1420 N State St"}, {"id": "182c933b-f3e9-477b-906b-b0ca5344c27b", "name": "Strum Brewing Company", "brewery_type": "micro", "address_1": "235 S Campus Ave", "address_2": null, "address_3": null, "city": "Ontario", "state_province": "California", "postal_code": "91761-1736", "country": "United States", "longitude": "-117.6412505", "latitude": "34.06156086", "phone": "9096786935", "website_url": "http://www.strumbrewing.com", "state": "California", "street": "235 S Campus Ave"}, {"id": "36a608ec-8a91-4964-ba78-8b39ebbf4321", "name": "Stubborn Beauty Brewing", "brewery_type": "micro", "address_1": "180 Johnson St", "address_2": null, "address_3": null, "city": "Middletown", "state_province": "Connecticut", "postal_code": "06457-2247", "country": "United States", "longitude": "-72.65990742", "latitude": "41.57233253", "phone": "8608747459", "website_url": "http://www.stubbornbeauty.com", "state": "Connecticut", "street": "180 Johnson St"}, {"id": "8deff2ef-1885-4ff2-b3d7-08dfcadb04e4", "name": "Stubborn German Brewing Co", "brewery_type": "micro", "address_1": "119 S Main St", "address_2": null, "address_3": null, "city": "Waterloo", "state_province": "Illinois", "postal_code": "62298-1323", "country": "United States", "longitude": "-90.15032876", "latitude": "38.33531994", "phone": "6185042444", "website_url": "http://www.stubborngermanbrewing.com", "state": "Illinois", "street": "119 S Main St"}, {"id": "6b730aef-f353-4f27-94c4-b45a2db292c6", "name": "Studebaker Brewing Company", "brewery_type": "planning", "address_1": null, "address_2": null, "address_3": null, "city": "South Bend", "state_province": "Indiana", "postal_code": "46601", "country": "United States", "longitude": null, "latitude": null, "phone": "5742349077", "website_url": "http://www.studebakerbrewingco.com", "state": "Indiana", "street": null}, {"id": "685316d4-623d-4b81-a0a8-1549e8247c3c", "name": "Studio Brew", "brewery_type": "brewpub", "address_1": "221 Moore St", "address_2": null, "address_3": null, "city": "Bristol", "state_province": "Virginia", "postal_code": "24201-4302", "country": "United States", "longitude": "-82.18231373", "latitude": "36.59862808", "phone": "4233603258", "website_url": "http://www.studiobrew.beer", "state": "Virginia", "street": "221 Moore St"}, {"id": "e5ea4994-015e-43d1-a748-630b1cf68cc1", "name": "Stumblefoot Brewing", "brewery_type": "micro", "address_1": "1784 La Costa Meadows Dr Ste 103", "address_2": null, "address_3": null, "city": "San Marcos", "state_province": "California", "postal_code": "92078-5174", "country": "United States", "longitude": "-117.2194838", "latitude": "33.10419694", "phone": "7605663668", "website_url": "http://www.stumblefoot.com", "state": "California", "street": "1784 La Costa Meadows Dr Ste 103"}, {"id": "b022972f-6576-4453-823d-96fe18987454", "name": "Stumblin' Monkey Brewing Co", "brewery_type": "micro", "address_1": "61 School St Ste G", "address_2": null, "address_3": null, "city": "Victor", "state_province": "New York", "postal_code": "14564-1420", "country": "United States", "longitude": null, "latitude": null, "phone": "5853988189", "website_url": "http://www.stumblinmonkeybeer.com", "state": "New York", "street": "61 School St Ste G"}, {"id": "15dd2469-e167-42af-8e72-ef36bdd41376", "name": "Stump City Brewing LLC", "brewery_type": "micro", "address_1": "521 W Fulton Street Ext", "address_2": null, "address_3": null, "city": "Gloversville", "state_province": "New York", "postal_code": "12078-6309", "country": "United States", "longitude": null, "latitude": null, "phone": "5188310722", "website_url": "http://www.stumpcitybrewing.com", "state": "New York", "street": "521 W Fulton Street Ext"}, {"id": "24bea67c-fd27-4e48-968e-14e46f842203", "name": "Stumptown Ales", "brewery_type": "micro", "address_1": "390 William Ave", "address_2": null, "address_3": null, "city": "Davis", "state_province": "West Virginia", "postal_code": "26260", "country": "United States", "longitude": "-79.4646754", "latitude": "39.12899878", "phone": "3042595570", "website_url": "http://www.stumptownales.com", "state": "West Virginia", "street": "390 William Ave"}, {"id": "b78739c5-4815-42ad-8161-9e5d52a975ce", "name": "Stumptown Brewery", "brewery_type": "brewpub", "address_1": "15045 River Rd", "address_2": null, "address_3": null, "city": "Guerneville", "state_province": "California", "postal_code": "95446-8043", "country": "United States", "longitude": "-122.9838017", "latitude": "38.51320677", "phone": "7078690705", "website_url": null, "state": "California", "street": "15045 River Rd"}, {"id": "0301809c-bbd8-48c4-99c8-515de50999fd", "name": "Suarez Family Brewery", "brewery_type": "micro", "address_1": "2278 RT. 9", "address_2": null, "address_3": null, "city": "Hudson", "state_province": "New York", "postal_code": "12534-4701", "country": "United States", "longitude": null, "latitude": null, "phone": "5185376464", "website_url": "http://www.suarezfamilybrewery.com", "state": "New York", "street": "2278 RT. 9"}, {"id": "ed99535c-e134-4d94-8962-f04aad4386c6", "name": "Sub Noir Brewing Company", "brewery_type": "micro", "address_1": "2039 Progress Ct", "address_2": null, "address_3": null, "city": "Raleigh", "state_province": "North Carolina", "postal_code": "27608-2761", "country": "United States", "longitude": "-78.6231748", "latitude": "35.8091103", "phone": "9194802337", "website_url": "http://www.subnoir.net", "state": "North Carolina", "street": "2039 Progress Ct"}, {"id": "e4bb4eb0-1d37-488b-b2d0-ced76345059d", "name": "Sublime Brewing Company", "brewery_type": "micro", "address_1": "5 Route 25", "address_2": null, "address_3": null, "city": "Plymouth", "state_province": "New Hampshire", "postal_code": "03264-3141", "country": "United States", "longitude": "-71.776669", "latitude": "43.781015", "phone": "6032366850", "website_url": null, "state": "New Hampshire", "street": "5 Route 25"}, {"id": "81dbf6d0-af4c-4848-8dc3-a2e505352f63", "name": "Suds Brothers Brewing Co", "brewery_type": "brewpub", "address_1": "1012 Main St", "address_2": null, "address_3": null, "city": "Evanston", "state_province": "Wyoming", "postal_code": "82930-3443", "country": "United States", "longitude": "-110.9660936", "latitude": "41.26798687", "phone": "3074447837", "website_url": "http://www.sudsbrothersbrewery.com", "state": "Wyoming", "street": "1012 Main St"}, {"id": "8f532649-1d2e-4711-9177-28ffed122dac", "name": "Suds Brothers Brewing Co #2", "brewery_type": "brewpub", "address_1": "127 E Aspen Ave", "address_2": null, "address_3": null, "city": "Fruita", "state_province": "Colorado", "postal_code": "81521-2543", "country": "United States", "longitude": "-108.7326881", "latitude": "39.1591622", "phone": "9708581571", "website_url": "http://www.sudsbrothers2fruita.com", "state": "Colorado", "street": "127 E Aspen Ave"}, {"id": "2c32c721-36b2-4610-b315-17d328a75cdd", "name": "Suds Monkey Brewing", "brewery_type": "micro", "address_1": "1032 Canyon Bend Dr Suite A", "address_2": null, "address_3": null, "city": "Dripping Springs", "state_province": "Texas", "postal_code": "78620-5355", "country": "United States", "longitude": null, "latitude": null, "phone": "5122223893", "website_url": "http://www.sudsmonkeybrew.com", "state": "Texas", "street": "1032 Canyon Bend Dr Suite A"}, {"id": "41b6b89d-0a76-4a46-8091-e3632ec527f5", "name": "Sudwerk Brewing Co", "brewery_type": "micro", "address_1": "2001 2nd St", "address_2": null, "address_3": null, "city": "Davis", "state_province": "California", "postal_code": "95618-5474", "country": "United States", "longitude": "-121.726084", "latitude": "38.546614", "phone": "5307562739", "website_url": "http://www.sudwerkbrew.com", "state": "California", "street": "2001 2nd St"}, {"id": "b725651d-1d0c-4d4f-94f2-0b1be19ce2b7", "name": "Sufferfest Beer Company", "brewery_type": "proprietor", "address_1": "1770 UNION STREET", "address_2": null, "address_3": null, "city": "San Francisco", "state_province": "California", "postal_code": "94123-3404", "country": "United States", "longitude": "-122.4283947", "latitude": "37.79807486", "phone": "4152386431", "website_url": "http://www.sufferfestbeer.com", "state": "California", "street": "1770 UNION STREET"}, {"id": "ced563fa-0fc3-4c4c-bd16-2b9b7717f28a", "name": "Sugar Creek Brewing Co.", "brewery_type": "micro", "address_1": "215 Southside Dr", "address_2": null, "address_3": null, "city": "Charlotte", "state_province": "North Carolina", "postal_code": "28217-1727", "country": "United States", "longitude": "-80.88045065", "latitude": "35.18571693", "phone": "7044082021", "website_url": "http://www.sugarcreekbrewing.com", "state": "North Carolina", "street": "215 Southside Dr"}, {"id": "71d53ada-6c4f-4840-a28d-f1386505671e", "name": "Sugar Hill Brewing Company", "brewery_type": "brewpub", "address_1": "16622 Broad St", "address_2": null, "address_3": null, "city": "Saint Paul", "state_province": "Virginia", "postal_code": "24283-", "country": "United States", "longitude": "-82.3106732", "latitude": "36.90512687", "phone": "2767381088", "website_url": "http://www.sugarhillbrewing.com", "state": "Virginia", "street": "16622 Broad St"}, {"id": "390e3daa-7276-4370-a45c-31eb41baa18b", "name": "Sugarfoot Saloon", "brewery_type": "brewpub", "address_1": "4997 S Good Harbor Trl", "address_2": null, "address_3": null, "city": "Cedar", "state_province": "Michigan", "postal_code": "49621-8543", "country": "United States", "longitude": "-85.79625698", "latitude": "44.90785082", "phone": "2312286166", "website_url": null, "state": "Michigan", "street": "4997 S Good Harbor Trl"}, {"id": "339e0d58-5766-4c4f-ab24-d3a3477f42ad", "name": "Sullivan's Brewing Company", "brewery_type": "regional", "address_1": "15 John Street Lower", "address_2": "Collegepark", "address_3": null, "city": "Kilkenny", "state_province": "Kilkenny", "postal_code": "R95 H2CE", "country": "Ireland", "longitude": "-7.2511279", "latitude": "52.652832", "phone": "353567797980", "website_url": "https://www.sullivansbrewingcompany.com/", "state": "Kilkenny", "street": "15 John Street Lower"}, {"id": "5034932b-6a76-4aa1-b929-76eedea825e1", "name": "Sumerian Brewing Company", "brewery_type": "micro", "address_1": "15510 Woodinville Redmond Rd NE Ste E110", "address_2": null, "address_3": null, "city": "Woodinville", "state_province": "Washington", "postal_code": "98072-6979", "country": "United States", "longitude": null, "latitude": null, "phone": "4254865330", "website_url": "http://www.sumerianbrewingco.com", "state": "Washington", "street": "15510 Woodinville Redmond Rd NE Ste E110"}, {"id": "4920c9af-770b-4850-adb2-68e368d0cf34", "name": "Summerhill Brewing LLC", "brewery_type": "micro", "address_1": "384 Champlin Rd N. Cayuga County", "address_2": null, "address_3": null, "city": "Groton", "state_province": "New York", "postal_code": "13073-3212", "country": "United States", "longitude": "-76.29601824", "latitude": "42.63594387", "phone": "6075916148", "website_url": "http://www.facebook.com/Summerhill.brewing/", "state": "New York", "street": "384 Champlin Rd N. Cayuga County"}, {"id": "e436d990-d5b4-4771-ba9b-a77531a5b0c1", "name": "Summit Brewing Co", "brewery_type": "regional", "address_1": "910 Montreal Cir", "address_2": null, "address_3": null, "city": "Saint Paul", "state_province": "Minnesota", "postal_code": "55102-4246", "country": "United States", "longitude": "-93.13959808", "latitude": "44.91398765", "phone": "6512657800", "website_url": "http://www.summitbrewing.com", "state": "Minnesota", "street": "910 Montreal Cir"}, {"id": "834de8fa-bbd5-4dfc-a665-c1fc43781157", "name": "Summit City Brwerks", "brewery_type": "brewpub", "address_1": "1501 E Berry #106", "address_2": null, "address_3": null, "city": "Fort Wayne", "state_province": "Indiana", "postal_code": "46803", "country": "United States", "longitude": null, "latitude": null, "phone": "2604150782", "website_url": "http://www.summitcitybrewerks.com", "state": "Indiana", "street": "1501 E Berry #106"}, {"id": "7d30c320-5116-4f48-8f4f-a07fb5559832", "name": "Sun Brewing Co.", "brewery_type": "brewpub", "address_1": "101 Canutillo La Union Ave", "address_2": null, "address_3": null, "city": "Canutillo", "state_province": "Texas", "postal_code": "79835-6001", "country": "United States", "longitude": "-106.6011179", "latitude": "31.9151882", "phone": "9154333048", "website_url": "http://sunbrewingco.com", "state": "Texas", "street": "101 Canutillo La Union Ave"}, {"id": "55bbec01-c1da-421a-9721-39d33b554f39", "name": "Sun King Brewery", "brewery_type": "micro", "address_1": "7848 E 96th St", "address_2": null, "address_3": null, "city": "Fishers", "state_province": "Indiana", "postal_code": "46037-9629", "country": "United States", "longitude": "-86.0242557", "latitude": "39.9282185", "phone": "3174361926", "website_url": null, "state": "Indiana", "street": "7848 E 96th St"}, {"id": "120a1b1e-f09a-4e2f-8f10-2b9a7342d3bd", "name": "Sun King Brewing Co", "brewery_type": "planning", "address_1": null, "address_2": null, "address_3": null, "city": "Fishers", "state_province": "Indiana", "postal_code": "46037", "country": "United States", "longitude": null, "latitude": null, "phone": null, "website_url": null, "state": "Indiana", "street": null}, {"id": "3e2d9646-099d-4b01-b619-d40d3a45fdbe", "name": "Sun King Brewing Co", "brewery_type": "regional", "address_1": "135 N College Ave", "address_2": null, "address_3": null, "city": "Indianapolis", "state_province": "Indiana", "postal_code": "46202-3801", "country": "United States", "longitude": "-86.1449174", "latitude": "39.8095687", "phone": "3176023702", "website_url": null, "state": "Indiana", "street": "135 N College Ave"}, {"id": "44dbdaea-02c1-4459-b259-0605a7a219b8", "name": "Sun Up Brewing Co.", "brewery_type": "brewpub", "address_1": "322 E Camelback Rd", "address_2": null, "address_3": null, "city": "Phoenix", "state_province": "Arizona", "postal_code": "85012-1614", "country": "United States", "longitude": "-112.0687773", "latitude": "33.50950925", "phone": "6026708924", "website_url": "http://sunup.beer", "state": "Arizona", "street": "322 E Camelback Rd"}, {"id": "64203bc5-a848-4d03-a025-01b0df322b3b", "name": "Sun Up Brewing Company 330", "brewery_type": "planning", "address_1": null, "address_2": null, "address_3": null, "city": "Phoenix", "state_province": "Arizona", "postal_code": "85012", "country": "United States", "longitude": "-112.0773456", "latitude": "33.4485866", "phone": null, "website_url": null, "state": "Arizona", "street": null}, {"id": "e088534c-396b-4a55-b7d7-0c51ab0ce03a", "name": "Sun Valley Brewing Co", "brewery_type": "brewpub", "address_1": "202 N Main St", "address_2": null, "address_3": null, "city": "Hailey", "state_province": "Idaho", "postal_code": "83333-8413", "country": "United States", "longitude": "-114.316365", "latitude": "43.5210689", "phone": "2087885777", "website_url": null, "state": "Idaho", "street": "202 N Main St"}, {"id": "acd12d74-76fe-4c74-ad0a-977b67f6d4f7", "name": "Suncreek Brewery", "brewery_type": "planning", "address_1": null, "address_2": null, "address_3": null, "city": "Clermont", "state_province": "Florida", "postal_code": "34711-2135", "country": "United States", "longitude": null, "latitude": null, "phone": "4078508810", "website_url": "http://www.suncreekbrewery.com", "state": "Florida", "street": null}, {"id": "44f6bbcc-42ee-4ead-8f3d-3216d6f60698", "name": "Sunday River Brewing Company", "brewery_type": "brewpub", "address_1": "29 Sunday River Rd", "address_2": null, "address_3": null, "city": "Bethel", "state_province": "Maine", "postal_code": "04217-4623", "country": "United States", "longitude": "-70.8096128", "latitude": "44.4483482", "phone": "2078244253", "website_url": "http://www.sundayriverbrewingcompany.com", "state": "Maine", "street": "29 Sunday River Rd"}, {"id": "26b040cb-d50d-47e2-af07-5e7cabc94559", "name": "Sundowner Brewing Co.", "brewery_type": "micro", "address_1": "30961 Agoura Rd Ste 321", "address_2": null, "address_3": null, "city": "Westlake Village", "state_province": "California", "postal_code": "91361-5686", "country": "United States", "longitude": "-118.796231", "latitude": "34.14489484", "phone": "8185979463", "website_url": "http://www.malibusundowner.com", "state": "California", "street": "30961 Agoura Rd Ste 321"}, {"id": "8a71cfb0-1ac7-42f1-8968-f5690ce41994", "name": "Sunken City Brewing Co", "brewery_type": "micro", "address_1": "40 Brewery Dr", "address_2": null, "address_3": null, "city": "Hardy", "state_province": "Virginia", "postal_code": "24101-1100", "country": "United States", "longitude": null, "latitude": null, "phone": "5404200476", "website_url": "http://www.sunkencitybeer.com", "state": "Virginia", "street": "40 Brewery Dr"}, {"id": "fe5b48e5-b691-4e22-8a69-34c6f5ab3a0b", "name": "SunRift Beer Company", "brewery_type": "micro", "address_1": "55 1st Ave WN", "address_2": null, "address_3": null, "city": "Kalispell", "state_province": "Montana", "postal_code": "59901", "country": "United States", "longitude": "-114.3181197", "latitude": "48.2059559", "phone": "4068712567", "website_url": "http://www.sunriftbeer.com", "state": "Montana", "street": "55 1st Ave WN"}, {"id": "0ce36ed5-632f-4734-a374-0b51ba123bd5", "name": "Sunriver Brewing", "brewery_type": "micro", "address_1": "56840 Venture Ln", "address_2": null, "address_3": null, "city": "Sunriver", "state_province": "Oregon", "postal_code": "97707-2100", "country": "United States", "longitude": "-121.4366616", "latitude": "43.87300007", "phone": "5413065188", "website_url": "http://www.sunriverbrewingcompany.com", "state": "Oregon", "street": "56840 Venture Ln"}, {"id": "30f497b4-b12e-4a3d-a14f-ef0439f2ccd6", "name": "Sunset Reservoir Brewing Company", "brewery_type": "brewpub", "address_1": "1735 Noriega St", "address_2": null, "address_3": null, "city": "San Francisco", "state_province": "California", "postal_code": "94122-4307", "country": "United States", "longitude": "-122.4823594", "latitude": "37.7538314", "phone": "4155718452", "website_url": "http://www.sunsetbeersf.com", "state": "California", "street": "1735 Noriega St"}, {"id": "b76e442b-6c7e-442f-aeac-b40a7e321b41", "name": "Sunshine Brewing Company", "brewery_type": "micro", "address_1": "121 S Main St", "address_2": null, "address_3": null, "city": "Lake Mills", "state_province": "Wisconsin", "postal_code": "53551-1613", "country": "United States", "longitude": "-88.91296397", "latitude": "43.0791731", "phone": "9206508579", "website_url": "http://www.sunshinebrewco.com", "state": "Wisconsin", "street": "121 S Main St"}, {"id": "47c31369-8b35-4cac-bfb3-db39daf73ea5", "name": "Super Brewing Company LLC", "brewery_type": "planning", "address_1": null, "address_2": null, "address_3": null, "city": "Portland", "state_province": "Oregon", "postal_code": "97202", "country": "United States", "longitude": null, "latitude": null, "phone": "5037193435", "website_url": null, "state": "Oregon", "street": null}, {"id": "f69603de-05b8-45b0-8212-38a36c45b432", "name": "Super Fun Time Brewing Company", "brewery_type": "planning", "address_1": null, "address_2": null, "address_3": null, "city": "Bangor", "state_province": "Pennsylvania", "postal_code": "18013-9244", "country": "United States", "longitude": null, "latitude": null, "phone": "6105974402", "website_url": null, "state": "Pennsylvania", "street": null}, {"id": "630ad4e1-8625-4e4b-a45f-6c56c7b9712c", "name": "Super Owl Brewing", "brewery_type": "micro", "address_1": "1260 Lake Blvd Ste 121", "address_2": null, "address_3": null, "city": "Davis", "state_province": "California", "postal_code": "95616-5669", "country": "United States", "longitude": "-121.787547", "latitude": "38.55363515", "phone": "5307465992", "website_url": "http://www.superowlbrewing.com", "state": "California", "street": "1260 Lake Blvd Ste 121"}, {"id": "e0441d23-cadb-4947-a679-bc2704a83390", "name": "Superior Bathhouse Brewery", "brewery_type": "brewpub", "address_1": "329 Central Ave", "address_2": null, "address_3": null, "city": "Hot Springs National Park", "state_province": "Arkansas", "postal_code": "71901-3525", "country": "United States", "longitude": null, "latitude": null, "phone": "5016242337", "website_url": "http://www.superiorbathhouse.com", "state": "Arkansas", "street": "329 Central Ave"}, {"id": "a7cd132d-aa7b-4d28-8495-e8660cb6b708", "name": "Superior Coast Brewery / Karls Cuisine Winery and Brewery", "brewery_type": "brewpub", "address_1": "447 W Portage Ave", "address_2": null, "address_3": null, "city": "Sault Sainte Marie", "state_province": "Michigan", "postal_code": "49783-1989", "country": "United States", "longitude": "-84.35344671", "latitude": "46.50179396", "phone": "9062531900", "website_url": "http://www.karlscuisine.com", "state": "Michigan", "street": "447 W Portage Ave"}, {"id": "c41ca19d-93e3-4489-9bec-cc59208fa451", "name": "Surf Brewery", "brewery_type": "closed", "address_1": "4561 Market St Ste A", "address_2": null, "address_3": null, "city": "Ventura", "state_province": "California", "postal_code": "93003-6483", "country": "United States", "longitude": "-119.2319648", "latitude": "34.25776561", "phone": "8056442739", "website_url": "http://www.surfbrewery.com", "state": "California", "street": "4561 Market St Ste A"}, {"id": "3be10da6-c43b-4b9f-b9c9-ce43299ded2d", "name": "Surfridge Brewing Company", "brewery_type": "planning", "address_1": null, "address_2": null, "address_3": null, "city": "El Segundo", "state_province": "California", "postal_code": "90245-4209", "country": "United States", "longitude": "-118.383179", "latitude": "33.912594", "phone": "3108470283", "website_url": "http://www.surfridgebrewery.com", "state": "California", "street": null}, {"id": "c54d9149-0b2f-45f0-bf12-36860e56a1da", "name": "Surly Brewing Company", "brewery_type": "regional", "address_1": "4811 Dusharme Dr", "address_2": null, "address_3": null, "city": "Brooklyn Ctr", "state_province": "Minnesota", "postal_code": "55429-3940", "country": "United States", "longitude": "-93.32438943", "latitude": "45.04294225", "phone": "7635353330", "website_url": "http://www.surlybrewing.com", "state": "Minnesota", "street": "4811 Dusharme Dr"}, {"id": "f187921a-c59d-47f2-a40a-b1d3bfccc0e0", "name": "Surly Brewing Company", "brewery_type": "regional", "address_1": "520 Malcolm Ave SE", "address_2": null, "address_3": null, "city": "Minneapolis", "state_province": "Minnesota", "postal_code": "55414-3312", "country": "United States", "longitude": null, "latitude": null, "phone": "7635353330", "website_url": null, "state": "Minnesota", "street": "520 Malcolm Ave SE"}, {"id": "e6ca2c99-2803-45b8-8b31-ad9f654d9a91", "name": "Suspended Brewing Co", "brewery_type": "micro", "address_1": "912 Washington Blvd", "address_2": null, "address_3": null, "city": "Baltimore", "state_province": "Maryland", "postal_code": "21230-2318", "country": "United States", "longitude": "-76.63148921", "latitude": "39.2831169", "phone": "3016466359", "website_url": "http://www.suspendedbrewing.com", "state": "Maryland", "street": "912 Washington Blvd"}, {"id": "84cb4e3a-34b1-4259-916a-9c5c170d4c23", "name": "Susquehanna Brewing Co", "brewery_type": "micro", "address_1": "635 S Main St", "address_2": null, "address_3": null, "city": "Pittston", "state_province": "Pennsylvania", "postal_code": "18640-3215", "country": "United States", "longitude": "-75.7912216", "latitude": "41.321577", "phone": "5706543557", "website_url": "http://www.sbcbeer.com", "state": "Pennsylvania", "street": "635 S Main St"}, {"id": "f7233986-f1d7-4799-8d63-0f3d6df70384", "name": "Sutter Buttes Brewing", "brewery_type": "brewpub", "address_1": "421 Center St", "address_2": null, "address_3": null, "city": "Yuba City", "state_province": "California", "postal_code": "95991-4505", "country": "United States", "longitude": "-121.6149147", "latitude": "39.13723286", "phone": "5307907999", "website_url": "http://www.sutterbuttesbrewing.com", "state": "California", "street": "421 Center St"}, {"id": "4780994b-3b4b-4e12-ab6b-6d1dd4018722", "name": "Svendale Brewing Co", "brewery_type": "micro", "address_1": null, "address_2": null, "address_3": null, "city": "Millerton", "state_province": "New York", "postal_code": "12546-4553", "country": "United States", "longitude": null, "latitude": null, "phone": "9177039873", "website_url": "http://svendale.com", "state": "New York", "street": null}, {"id": "5094a403-c71f-45ed-8547-552734799d2a", "name": "Swamp Cabbage Brewing Company", "brewery_type": "micro", "address_1": "921 Brookwood Dr", "address_2": null, "address_3": null, "city": "Columbia", "state_province": "South Carolina", "postal_code": "29201-4609", "country": "United States", "longitude": null, "latitude": null, "phone": "8039392589", "website_url": "http://www.swampcabbagebrewing.com", "state": "South Carolina", "street": "921 Brookwood Dr"}, {"id": "3f8790cd-03b9-4172-99c9-f88940c731a0", "name": "Swamp Head Brewery", "brewery_type": "micro", "address_1": "3650 SW 42nd Ave", "address_2": null, "address_3": null, "city": "Gainesville", "state_province": "Florida", "postal_code": "32608-2598", "country": "United States", "longitude": "-82.3736302", "latitude": "29.6142515", "phone": "3525053035", "website_url": "http://www.swamphead.com", "state": "Florida", "street": "3650 SW 42nd Ave"}, {"id": "dcc661e0-ef04-4bba-8c05-120cfed64613", "name": "Swamp Rabbit Brewery and Taproom", "brewery_type": "micro", "address_1": "26 S Main St", "address_2": null, "address_3": null, "city": "Travelers Rest", "state_province": "South Carolina", "postal_code": "29690-1810", "country": "United States", "longitude": "-82.44227639", "latitude": "34.9666585", "phone": "8646102424", "website_url": "http://www.theswamprabbitbrewery.com", "state": "South Carolina", "street": "26 S Main St"}, {"id": "8aa90b99-32fa-4727-b14a-324db6f758f6", "name": "Swan Brewing", "brewery_type": "micro", "address_1": "115 W. Pine St.", "address_2": null, "address_3": null, "city": "Lakeland", "state_province": "Florida", "postal_code": "33815", "country": "United States", "longitude": "-81.95746167", "latitude": "28.04600888", "phone": "8637030472", "website_url": "http://www.swanbrewing.com", "state": "Florida", "street": "115 W. Pine St."}, {"id": "6992bfe1-3a44-40fc-af3c-55c22ef97a87", "name": "Swashbuckler Brewing Co", "brewery_type": "micro", "address_1": "2775 Lebanon Rd", "address_2": null, "address_3": null, "city": "Manheim", "state_province": "Pennsylvania", "postal_code": "17545-8711", "country": "United States", "longitude": null, "latitude": null, "phone": "7176657021", "website_url": "http://www.parenfaire.com", "state": "Pennsylvania", "street": "2775 Lebanon Rd"}, {"id": "51a67223-d853-4316-bf42-eb38eca9121f", "name": "Sweet Mercy Brewing Co.", "brewery_type": "planning", "address_1": null, "address_2": null, "address_3": null, "city": "Miami", "state_province": "Florida", "postal_code": "33143", "country": "United States", "longitude": null, "latitude": null, "phone": "3057999260", "website_url": "http://www.sweetmercybrewing.com", "state": "Florida", "street": null}, {"id": "a5800400-36c4-47f2-b289-1eff24c0218f", "name": "Sweet Thursday Beer Co", "brewery_type": "planning", "address_1": null, "address_2": null, "address_3": null, "city": "Brooklyn", "state_province": "New York", "postal_code": "11215-6020", "country": "United States", "longitude": null, "latitude": null, "phone": "9176133980", "website_url": "http://www.sweetthursdaybeer.com", "state": "New York", "street": null}, {"id": "f015b19a-40c0-48e9-b310-faa577b03406", "name": "Sweet Union Brewing", "brewery_type": "micro", "address_1": "13717 E Independence Blvd", "address_2": null, "address_3": null, "city": "Indian Trail", "state_province": "North Carolina", "postal_code": "28079-7600", "country": "United States", "longitude": null, "latitude": null, "phone": "7046285211", "website_url": "http://www.sweetunionbrewing.com", "state": "North Carolina", "street": "13717 E Independence Blvd"}, {"id": "fe331f63-1c49-4cf2-91a7-b2403023b1e0", "name": "Sweeten Creek Brewing", "brewery_type": "brewpub", "address_1": "1127 Sweeten Creek Rd", "address_2": null, "address_3": null, "city": "Asheville", "state_province": "North Carolina", "postal_code": "28803-1728", "country": "United States", "longitude": "-82.520631", "latitude": "35.5139103", "phone": "8285752785", "website_url": "http://www.sweetencreekbrewing.com", "state": "North Carolina", "street": "1127 Sweeten Creek Rd"}, {"id": "618e8cbb-8c2c-4617-b973-633443bc4c21", "name": "SweetWater Brewing Co", "brewery_type": "regional", "address_1": "195 Ottley Dr NE", "address_2": null, "address_3": null, "city": "Atlanta", "state_province": "Georgia", "postal_code": "30324-3924", "country": "United States", "longitude": "-84.38107219", "latitude": "33.80802235", "phone": "4046912537", "website_url": "http://www.sweetwaterbrew.com", "state": "Georgia", "street": "195 Ottley Dr NE"}, {"id": "c5f110d4-81a4-4f98-85ab-244decbe49de", "name": "Swiftwater Brewing Company", "brewery_type": "brewpub", "address_1": "378 Mount Hope Ave", "address_2": null, "address_3": null, "city": "Rochester", "state_province": "New York", "postal_code": "14620-1250", "country": "United States", "longitude": "-77.61227748", "latitude": "43.14230324", "phone": "5855303471", "website_url": "http://www.swiftwaterbrewing.com", "state": "New York", "street": "378 Mount Hope Ave"}, {"id": "d077007b-16b4-4539-9a36-b7485b89af98", "name": "Swine City Brewing Company", "brewery_type": "micro", "address_1": "4614 Industry Dr", "address_2": null, "address_3": null, "city": "Fairfield", "state_province": "Ohio", "postal_code": "45014-1923", "country": "United States", "longitude": "-84.53106178", "latitude": "39.34895418", "phone": "7045601214", "website_url": "http://www.swinecitybrewing.com", "state": "Ohio", "street": "4614 Industry Dr"}, {"id": "86d1fa06-fad8-4251-aa9e-e10f910f1deb", "name": "Swinging Bridge Brewing Co", "brewery_type": "brewpub", "address_1": "122 S Main St", "address_2": null, "address_3": null, "city": "River Falls", "state_province": "Wisconsin", "postal_code": "54022-2423", "country": "United States", "longitude": "-92.62629149", "latitude": "44.85774743", "phone": "7156291464", "website_url": "http://swingingbridgebrewing.com", "state": "Wisconsin", "street": "122 S Main St"}, {"id": "2e1e1419-b19c-449f-94ca-f4525748aac6", "name": "Swinnerton Brewery", "brewery_type": "micro", "address_1": "1809 8th St", "address_2": null, "address_3": null, "city": "Marysville", "state_province": "Washington", "postal_code": "98270-4610", "country": "United States", "longitude": "-122.1710235", "latitude": "48.05547132", "phone": "4253877045", "website_url": "http://www.swinnertonbrewery.com", "state": "Washington", "street": "1809 8th St"}, {"id": "45d47b1f-2968-4adb-848c-f46e0d43362f", "name": "Switchback Brewing Co", "brewery_type": "regional", "address_1": "160 Flynn Ave", "address_2": null, "address_3": null, "city": "Burlington", "state_province": "Vermont", "postal_code": "05401-5400", "country": "United States", "longitude": "-73.22068075", "latitude": "44.45680085", "phone": "8026514114", "website_url": "http://www.switchbackvt.com", "state": "Vermont", "street": "160 Flynn Ave"}, {"id": "6b076ecd-c79f-41b2-a5c6-e19faa9cf8aa", "name": "SwitchGear Brewing Co", "brewery_type": "micro", "address_1": "44 D Gottfried St", "address_2": null, "address_3": null, "city": "Elkhart Lake", "state_province": "Wisconsin", "postal_code": "53020", "country": "United States", "longitude": "-88.019601", "latitude": "43.834243", "phone": "9207815120", "website_url": "http://www.switchgearbrewing.com", "state": "Wisconsin", "street": "44 D Gottfried St"}, {"id": "1f7ae129-466f-42fb-95b9-10f5a8133dd0", "name": "Switchyard Brewing Company", "brewery_type": "micro", "address_1": "419 N Walnut St", "address_2": null, "address_3": null, "city": "Bloomington", "state_province": "Indiana", "postal_code": "47404-3842", "country": "United States", "longitude": "-86.5343606", "latitude": "39.1865667", "phone": "8122878295", "website_url": "http://www.switchyardbrewing.com", "state": "Indiana", "street": "419 N Walnut St"}, {"id": "3d0ffd83-d36a-4e5e-af03-fe95da3a80fc", "name": "Swover Creek Farm Brewery", "brewery_type": "micro", "address_1": "4176 Swover Creek Rd", "address_2": null, "address_3": null, "city": "Edinburg", "state_province": "Virginia", "postal_code": "22824-3744", "country": "United States", "longitude": null, "latitude": null, "phone": "5409848973", "website_url": "http://www.swovercreekfarms.com", "state": "Virginia", "street": "4176 Swover Creek Rd"}, {"id": "970430cb-49db-4d40-bda4-a3fd12d3b40c", "name": "Sycamore Brewing", "brewery_type": "brewpub", "address_1": "2161 Hawkins St Ste A", "address_2": null, "address_3": null, "city": "Charlotte", "state_province": "North Carolina", "postal_code": "28203-5396", "country": "United States", "longitude": null, "latitude": null, "phone": "7049103821", "website_url": "http://www.sycamorebrew.com", "state": "North Carolina", "street": "2161 Hawkins St Ste A"}, {"id": "5b4eded5-5a35-4fed-b41d-058c07c86785", "name": "Syncopated Brewing Co", "brewery_type": "micro", "address_1": "3671 Industry Ave Ste C1", "address_2": null, "address_3": null, "city": "Lakewood", "state_province": "California", "postal_code": "90712-4155", "country": "United States", "longitude": "-118.1659197", "latitude": "33.8236814", "phone": "5624262333", "website_url": "http://www.syncopatedbrewing.com", "state": "California", "street": "3671 Industry Ave Ste C1"}, {"id": "df1cbf5b-3f4e-451e-b638-09d6128eabe1", "name": "Syracuse Suds Factory", "brewery_type": "brewpub", "address_1": "320 S Clinton St", "address_2": null, "address_3": null, "city": "Syracuse", "state_province": "New York", "postal_code": "13202-1220", "country": "United States", "longitude": "-76.153679", "latitude": "43.04846902", "phone": "3154712253", "website_url": "http://www.sudsfactory.com", "state": "New York", "street": "320 S Clinton St"}, {"id": "bbd9be81-8a4a-43e6-8fea-be17ec75ee3b", "name": "Table 41 Brewing Co.", "brewery_type": "micro", "address_1": "4 Dunsback Ferry Rd", "address_2": null, "address_3": null, "city": "Cohoes", "state_province": "New York", "postal_code": "12047-5016", "country": "United States", "longitude": null, "latitude": null, "phone": "5185270221", "website_url": "http://www.table41brewing.com", "state": "New York", "street": "4 Dunsback Ferry Rd"}, {"id": "3ebd4a18-a0f8-4fa6-b383-b94769a9c35c", "name": "Table Rock Brewing LLC", "brewery_type": "micro", "address_1": "825 Dakota Ave", "address_2": null, "address_3": null, "city": "Medford", "state_province": "Oregon", "postal_code": "97501-3443", "country": "United States", "longitude": "-122.8807679", "latitude": "42.31644563", "phone": "5419440829", "website_url": null, "state": "Oregon", "street": "825 Dakota Ave"}, {"id": "2542f084-1083-47e9-aab3-f059cc0042fe", "name": "Tabol Brewing", "brewery_type": "planning", "address_1": "704 Dawn St", "address_2": null, "address_3": null, "city": "Richmond", "state_province": "Virginia", "postal_code": "23222", "country": "United States", "longitude": null, "latitude": null, "phone": "8043035528", "website_url": "http://tabolbrewing.com/taste", "state": "Virginia", "street": "704 Dawn St"}, {"id": "cb8f9bf5-9928-481f-8700-3bb86a34b170", "name": "Tabula Rasa Brewing", "brewery_type": "planning", "address_1": null, "address_2": null, "address_3": null, "city": "Jacksonville", "state_province": "Florida", "postal_code": "32204-1705", "country": "United States", "longitude": null, "latitude": null, "phone": null, "website_url": null, "state": "Florida", "street": null}, {"id": "84851d4b-2539-48f2-a1e9-af83be1e7c4c", "name": "Tack Brewing", "brewery_type": "planning", "address_1": null, "address_2": null, "address_3": null, "city": "Oakland", "state_province": "California", "postal_code": "94618-1534", "country": "United States", "longitude": "-122.2713563", "latitude": "37.8044557", "phone": "8054044861", "website_url": "http://www.tackbrewing.com", "state": "California", "street": null}, {"id": "b904d6d4-157a-4005-a082-88ee3c47c969", "name": "Tacoma Brewing Co.", "brewery_type": "micro", "address_1": "1116 Court E", "address_2": null, "address_3": null, "city": "Tacoma", "state_province": "Washington", "postal_code": "98402", "country": "United States", "longitude": "-122.4437398", "latitude": "47.25256141", "phone": "2532423370", "website_url": "http://www.tacomabrewing.com", "state": "Washington", "street": "1116 Court E"}, {"id": "cb31d7c0-8ffa-4e3e-bdc0-100136de959d", "name": "Tactical OPS Brewing Inc.", "brewery_type": "proprietor", "address_1": "2985 N Burl 102", "address_2": null, "address_3": null, "city": "Fresno", "state_province": "California", "postal_code": "93727", "country": "United States", "longitude": "-119.6761563", "latitude": "36.7913344", "phone": "5593138759", "website_url": "http://www.tacticalopsbrewing.com", "state": "California", "street": "2985 N Burl 102"}, {"id": "251283fc-99a8-447b-b6ba-bf80a8c2ebce", "name": "Taft's Ale House", "brewery_type": "micro", "address_1": "1429 Race St", "address_2": null, "address_3": null, "city": "Cincinnati", "state_province": "Ohio", "postal_code": "45202-7009", "country": "United States", "longitude": "-84.51750995", "latitude": "39.111325", "phone": null, "website_url": null, "state": "Ohio", "street": "1429 Race St"}, {"id": "bb0ddc58-bfea-4564-8c6a-052d6445d0d4", "name": "Taft's Brewing Co", "brewery_type": "brewpub", "address_1": "4831 Spring Grove Ave", "address_2": null, "address_3": null, "city": "Cincinnati", "state_province": "Ohio", "postal_code": "45232-1938", "country": "United States", "longitude": "-84.5127071", "latitude": "39.1681213", "phone": "5138535016", "website_url": null, "state": "Ohio", "street": "4831 Spring Grove Ave"}, {"id": "0d2734f2-b096-4426-943b-429b46e53987", "name": "Tahoe Mountain Brewing Company", "brewery_type": "brewpub", "address_1": "475 N. Lake Blvd", "address_2": null, "address_3": null, "city": "Tahoe City", "state_province": "California", "postal_code": "96145", "country": "United States", "longitude": "-120.141663", "latitude": "39.170687", "phone": "5305814677", "website_url": "http://www.tahoebrewing.com", "state": "California", "street": "475 N. Lake Blvd"}, {"id": "b00dec17-2def-4dc8-bafb-ec0493d81054", "name": "Tahoe Mountain Brewing Company", "brewery_type": "closed", "address_1": "10990 Industrial Way Ste B104", "address_2": null, "address_3": null, "city": "Truckee", "state_province": "California", "postal_code": "96161-0258", "country": "United States", "longitude": "-120.189448", "latitude": "39.32653386", "phone": null, "website_url": "http://tahoebrewing.com/", "state": "California", "street": "10990 Industrial Way Ste B104"}, {"id": "791e86a0-657e-4f59-9f3f-58a610e7bd5a", "name": "Tahquamenon Falls Brewery and Pub", "brewery_type": "brewpub", "address_1": "M-123 Upper Falls Dr", "address_2": null, "address_3": null, "city": "Paradise", "state_province": "Michigan", "postal_code": "49768", "country": "United States", "longitude": null, "latitude": null, "phone": "9064923300", "website_url": "http://www.tahquamenonfallsbrewery.com", "state": "Michigan", "street": "M-123 Upper Falls Dr"}, {"id": "2c6c1506-c260-4b0a-91a3-49fca12bcf37", "name": "Tailgate Brewery", "brewery_type": "brewpub", "address_1": "7300 Charlotte Pike", "address_2": null, "address_3": null, "city": "Nashville", "state_province": "Tennessee", "postal_code": "37209-5012", "country": "United States", "longitude": "-86.918654", "latitude": "36.119936", "phone": "6154571424", "website_url": "http://www.tailgatebeer.com", "state": "Tennessee", "street": "7300 Charlotte Pike"}, {"id": "5282b0c7-a62e-41c3-8be5-915fdacd0c2f", "name": "TailGate Brewery Music Row", "brewery_type": "brewpub", "address_1": "1538 Demonbreun St", "address_2": null, "address_3": null, "city": "Nashville", "state_province": "Tennessee", "postal_code": "37203-3112", "country": "United States", "longitude": "-86.78963972", "latitude": "36.15310256", "phone": null, "website_url": "http://www.tailgatebeer.com", "state": "Tennessee", "street": "1538 Demonbreun St"}, {"id": "08eeda9e-f259-42eb-a3db-4e52d38b66e8", "name": "Tailspin Brewing Co", "brewery_type": "micro", "address_1": "626 S 2nd St", "address_2": null, "address_3": null, "city": "Coldwater", "state_province": "Ohio", "postal_code": "45828-9603", "country": "United States", "longitude": "-84.6288605", "latitude": "40.47316407", "phone": "4198529366", "website_url": "http://Www.TailspinBrewing.co", "state": "Ohio", "street": "626 S 2nd St"}, {"id": "4ccc73ca-f74a-486b-b3e0-46a2dc322c07", "name": "Take 16 Brewing Company", "brewery_type": "micro", "address_1": "509 E Main St", "address_2": null, "address_3": null, "city": "Luverne", "state_province": "Minnesota", "postal_code": "56156-1905", "country": "United States", "longitude": "-96.20317435", "latitude": "43.65421673", "phone": "8666639986", "website_url": "http://www.take16beer.com", "state": "Minnesota", "street": "509 E Main St"}, {"id": "20095f2b-d1bc-401d-959b-f078135940f6", "name": "TaleSpinner Craft Brewery", "brewery_type": "planning", "address_1": null, "address_2": null, "address_3": null, "city": "Nashua", "state_province": "New Hampshire", "postal_code": "03062-1033", "country": "United States", "longitude": null, "latitude": null, "phone": "6032339636", "website_url": "http://www.talespinnerbrew.com", "state": "New Hampshire", "street": null}, {"id": "b27c5ad5-bc67-4fc2-a0a9-ca517f036629", "name": "Talisman Brewing Company", "brewery_type": "micro", "address_1": "1258 Gibson Ave", "address_2": null, "address_3": null, "city": "Ogden", "state_province": "Utah", "postal_code": "84404-5541", "country": "United States", "longitude": "-111.9844475", "latitude": "41.243496", "phone": "3853892945", "website_url": "http://www.talismanbrewingco.com", "state": "Utah", "street": "1258 Gibson Ave"}, {"id": "f4a9eb65-edcc-44f9-9f5e-b74f7795bf49", "name": "Talking Waters Brewing Co.", "brewery_type": "micro", "address_1": "205 S 1st St", "address_2": null, "address_3": null, "city": "Montevideo", "state_province": "Minnesota", "postal_code": "56265-1412", "country": "United States", "longitude": "-95.7235032", "latitude": "44.942758", "phone": "3203211444", "website_url": "http://www.talkingwatersbrewing.com", "state": "Minnesota", "street": "205 S 1st St"}, {"id": "9daf19fc-e958-48d7-b232-53661abf49fe", "name": "Tall City Brewing Co.", "brewery_type": "planning", "address_1": null, "address_2": null, "address_3": null, "city": "Midland", "state_province": "Texas", "postal_code": "79703-5137", "country": "United States", "longitude": null, "latitude": null, "phone": "4327708679", "website_url": null, "state": "Texas", "street": null}, {"id": "458d02fe-149e-4bad-bcf6-38db49854fc0", "name": "Tall Tales Brewing Co. LLC", "brewery_type": "brewpub", "address_1": "6929 Heron Grove Ct Ste 102", "address_2": null, "address_3": null, "city": "Parsonsburg", "state_province": "Maryland", "postal_code": "21849-2155", "country": "United States", "longitude": null, "latitude": null, "phone": "4105432739", "website_url": "http://www.talltalesbrew.com", "state": "Maryland", "street": "6929 Heron Grove Ct Ste 102"}, {"id": "069a5770-2241-4f0d-b635-c0f61825a1fd", "name": "Tallgrass Brewing Co", "brewery_type": "regional", "address_1": "5960 Dry Hop Cir", "address_2": null, "address_3": null, "city": "Manhattan", "state_province": "Kansas", "postal_code": "66503-9815", "country": "United States", "longitude": "-96.6792762", "latitude": "39.1428736", "phone": "7855371131", "website_url": "http://www.tallgrassbeer.com", "state": "Kansas", "street": "5960 Dry Hop Cir"}, {"id": "aa01c26f-b816-4afe-a4a2-e42afd3d9039", "name": "Tallgrass Taphouse Co", "brewery_type": "brewpub", "address_1": "320 Poyntz Ave", "address_2": null, "address_3": null, "city": "Manhattan", "state_province": "Kansas", "postal_code": "66502-6038", "country": "United States", "longitude": "-96.561291", "latitude": "39.1795046", "phone": "7853202933", "website_url": "http://www.tallgrasstaphouse.com", "state": "Kansas", "street": "320 Poyntz Ave"}, {"id": "3978dbf8-ca5f-4cc3-9a15-6ba5fb7b23e7", "name": "Tallulah Brewing Company", "brewery_type": "micro", "address_1": "1804 4th Ave S", "address_2": null, "address_3": null, "city": "Jasper", "state_province": "Alabama", "postal_code": "35501-5330", "country": "United States", "longitude": "-87.278675", "latitude": "33.830796", "phone": "2055308555", "website_url": null, "state": "Alabama", "street": "1804 4th Ave S"}, {"id": "a46de1d1-1edd-4788-8c9c-efa43b3e4e19", "name": "Tamarack Brewing Co", "brewery_type": "micro", "address_1": "105 Blacktail Rd # 2", "address_2": null, "address_3": null, "city": "Lakeside", "state_province": "Montana", "postal_code": "59922-9628", "country": "United States", "longitude": "-114.2253672", "latitude": "48.0161369", "phone": "4068440244", "website_url": "http://www.tamarackbrewing.com", "state": "Montana", "street": "105 Blacktail Rd # 2"}, {"id": "f54a5693-be9d-4faa-ac97-47d62a225392", "name": "Tampa Bay Brewing Co Brewpub", "brewery_type": "micro", "address_1": "1600 E 8th Ave Ste A123", "address_2": null, "address_3": null, "city": "Tampa", "state_province": "Florida", "postal_code": "33605-3760", "country": "United States", "longitude": null, "latitude": null, "phone": "8132471422", "website_url": "http://tbbc.beer", "state": "Florida", "street": "1600 E 8th Ave Ste A123"}, {"id": "582945be-7f01-4bdc-850f-1f93e5b149a2", "name": "Tampa Bay Brewing Co Production Brewery", "brewery_type": "brewpub", "address_1": "13937 Monroes Business Park", "address_2": null, "address_3": null, "city": "Tampa", "state_province": "Florida", "postal_code": "33635-6309", "country": "United States", "longitude": null, "latitude": null, "phone": "8132471422", "website_url": null, "state": "Florida", "street": "13937 Monroes Business Park"}, {"id": "84a82ca6-2e8c-4d10-a24a-375ba1f2ca58", "name": "Tampa Beer Works", "brewery_type": "micro", "address_1": "333 N Falkenburg Rd Ste D407", "address_2": null, "address_3": null, "city": "Tampa", "state_province": "Florida", "postal_code": "33619-7895", "country": "United States", "longitude": null, "latitude": null, "phone": "8136851909", "website_url": "http://www.esbbrewing.com", "state": "Florida", "street": "333 N Falkenburg Rd Ste D407"}, {"id": "ca916419-7c3f-4152-898a-0ad48a70a9f6", "name": "Tandem Brewing Co", "brewery_type": "brewpub", "address_1": "17 SE 3rd Ave", "address_2": null, "address_3": null, "city": "Ontario", "state_province": "Oregon", "postal_code": "97914-2803", "country": "United States", "longitude": "-116.9627719", "latitude": "44.02391075", "phone": "2087416774", "website_url": "http://www.tandembrewing.com", "state": "Oregon", "street": "17 SE 3rd Ave"}, {"id": "5ecec020-0941-4e45-ba00-4c046eddc84c", "name": "Taneum Creek Brewing", "brewery_type": "micro", "address_1": "811 Hwy 970 Ste 7", "address_2": null, "address_3": null, "city": "Cle Elum", "state_province": "Washington", "postal_code": "98922", "country": "United States", "longitude": null, "latitude": null, "phone": "9709039414", "website_url": "http://www.facebook.com/TaneumCreekBrewing", "state": "Washington", "street": "811 Hwy 970 Ste 7"}, {"id": "fa71c6aa-8652-4430-a3aa-dced12038a61", "name": "Tangled Roots Brewing Company", "brewery_type": "brewpub", "address_1": "130 E Madison St", "address_2": null, "address_3": null, "city": "Ottawa", "state_province": "Illinois", "postal_code": "61350-5098", "country": "United States", "longitude": "-88.84091316", "latitude": "41.34692308", "phone": "8153249549", "website_url": "http://www.tangledrootsbrewingco.com", "state": "Illinois", "street": "130 E Madison St"}, {"id": "5219ee31-6441-44e5-ac74-682f8c29fe80", "name": "TangleTown Public House", "brewery_type": "micro", "address_1": "2106 N 55th St", "address_2": null, "address_3": null, "city": "Seattle", "state_province": "Washington", "postal_code": "98103-6202", "country": "United States", "longitude": "-122.333474", "latitude": "47.6687837", "phone": "2064666340", "website_url": "https://www.tangletownpublichouse.com/", "state": "Washington", "street": "2106 N 55th St"}, {"id": "834f90bd-7ba4-46f3-ba85-db507478f531", "name": "Tannery Bend Beerworks", "brewery_type": "closed", "address_1": "101 South Coombs Street Suite X", "address_2": null, "address_3": null, "city": "Napa", "state_province": "California", "postal_code": "94559", "country": "United States", "longitude": "-122.287271", "latitude": "38.28513283", "phone": "7076815774", "website_url": "http://www.tannerybendbeerworks.com", "state": "California", "street": "101 South Coombs Street Suite X"}, {"id": "54dd0519-287f-4736-980e-595fa699639f", "name": "Tannery Bend Beerworks", "brewery_type": "brewpub", "address_1": "6369 Telegraph Ave", "address_2": null, "address_3": null, "city": "Oakland", "state_province": "California", "postal_code": "94609", "country": "United States", "longitude": "-122.260843", "latitude": "37.84998999", "phone": "5102509055", "website_url": "http://www.tannerybendbeerworks.com", "state": "California", "street": "6369 Telegraph Ave"}, {"id": "9dfec154-bfdf-4489-9cfc-ed3a5611c15c", "name": "Tannery Run Brew Works", "brewery_type": "planning", "address_1": null, "address_2": null, "address_3": null, "city": "Ambler", "state_province": "Pennsylvania", "postal_code": "19002-4407", "country": "United States", "longitude": null, "latitude": null, "phone": "2156131113", "website_url": "http://www.tanneryrun.com", "state": "Pennsylvania", "street": null}, {"id": "692ad7e4-2bd7-452d-a0e2-08c9cc43ae0d", "name": "Tantrum Brewing Company", "brewery_type": "planning", "address_1": null, "address_2": null, "address_3": null, "city": "Cleveland", "state_province": "Georgia", "postal_code": "30528-7804", "country": "United States", "longitude": null, "latitude": null, "phone": "7068090808", "website_url": "http://www.tantrumbeer.com", "state": "Georgia", "street": null}, {"id": "fb7d91d0-dc5c-483e-ac0c-c932ed291fa0", "name": "Tanzenwald Brewing Company", "brewery_type": "brewpub", "address_1": "103 Water St N", "address_2": null, "address_3": null, "city": "Northfield", "state_province": "Minnesota", "postal_code": "55057-2121", "country": "United States", "longitude": "-93.1617022", "latitude": "44.4600704", "phone": "5073662337", "website_url": "http://www.tanzenwald.com", "state": "Minnesota", "street": "103 Water St N"}, {"id": "194b8100-0dde-43ba-8918-eea6c71bb406", "name": "Taos Ale House", "brewery_type": "brewpub", "address_1": "401 Paseo del Pueblo Norte", "address_2": null, "address_3": null, "city": "Taos", "state_province": "New Mexico", "postal_code": "87571-5907", "country": "United States", "longitude": "-105.568722", "latitude": "36.41222", "phone": "5757585522", "website_url": "http://www.taosalehouse.com", "state": "New Mexico", "street": "401 Paseo del Pueblo Norte"}, {"id": "1fa3fc1b-d53f-4154-89d0-f1d6955d6635", "name": "Taos Mesa Brewing Co", "brewery_type": "brewpub", "address_1": "20 ABC Mesa Road", "address_2": null, "address_3": null, "city": "El Prado", "state_province": "New Mexico", "postal_code": "87529", "country": "United States", "longitude": null, "latitude": null, "phone": "5757790449", "website_url": "http://www.taosmesabrewing.com", "state": "New Mexico", "street": "20 ABC Mesa Road"}, {"id": "0b29b25e-6a2f-476e-9ce3-585c14973f02", "name": "Taos Trail Inn Brewery & Steakhouse", "brewery_type": "brewpub", "address_1": "35309 US-285", "address_2": null, "address_3": null, "city": "Ojo Caliente", "state_province": "New Mexico", "postal_code": "87549", "country": "United States", "longitude": null, "latitude": null, "phone": "5055839215", "website_url": "http://www.taostrailinn.com/Restaurant", "state": "New Mexico", "street": "35309 US-285"}, {"id": "6a7335ee-c49f-4220-89f4-f239d5bf089c", "name": "Tap and Screw Brewery", "brewery_type": "brewpub", "address_1": "4721 Red Bank Rd", "address_2": null, "address_3": null, "city": "Cincinnati", "state_province": "Ohio", "postal_code": "45277", "country": "United States", "longitude": "-84.40434316", "latitude": "39.158691", "phone": "5134511763", "website_url": "http://www.tapandscrew.com", "state": "Ohio", "street": "4721 Red Bank Rd"}, {"id": "63932576-ed2d-4024-862b-003b3ce36e3f", "name": "Tap and Vine", "brewery_type": "brewpub", "address_1": "907 Lincoln Way", "address_2": null, "address_3": null, "city": "Auburn", "state_province": "California", "postal_code": "95603", "country": "United States", "longitude": "-121.0694956", "latitude": "38.89956738", "phone": "5308898463", "website_url": "http://www.tapandvineauburn.com", "state": "California", "street": "907 Lincoln Way"}, {"id": "6f4276b5-6c06-460f-998d-0f3251a0b27c", "name": "Tap It Brewing Co", "brewery_type": "closed", "address_1": "675 Clarion Ct Ste 1", "address_2": null, "address_3": null, "city": "San Luis Obispo", "state_province": "California", "postal_code": "93401-8178", "country": "United States", "longitude": "-120.6459687", "latitude": "35.24427999", "phone": "8055457702", "website_url": "http://www.tapitbrewing.com", "state": "California", "street": "675 Clarion Ct Ste 1"}, {"id": "6bd4288d-8bb6-4a55-986e-4b5a41d4bc5e", "name": "Tap on Main Brewing Company", "brewery_type": "micro", "address_1": "601A N Main St", "address_2": null, "address_3": null, "city": "Somerset", "state_province": "Kentucky", "postal_code": "42501", "country": "United States", "longitude": "-84.608383", "latitude": "37.100832", "phone": "6064511525", "website_url": "http://www.taponmainst.com", "state": "Kentucky", "street": "601A N Main St"}, {"id": "a2cff25c-2552-4941-b7da-cd671f81249b", "name": "Tapistry Brewing Company", "brewery_type": "micro", "address_1": "4236 Lake St", "address_2": null, "address_3": null, "city": "Bridgman", "state_province": "Michigan", "postal_code": "49106-9109", "country": "United States", "longitude": "-86.5561575", "latitude": "41.9427559", "phone": "2692667349", "website_url": "http://www.tapistrybrewing.com", "state": "Michigan", "street": "4236 Lake St"}, {"id": "0712721c-20c3-4ac4-88d5-8a5b4b56e527", "name": "Taplands Brewery", "brewery_type": "brewpub", "address_1": "1171 Homestead Rd Ste 110", "address_2": null, "address_3": null, "city": "Santa Clara", "state_province": "California", "postal_code": "95050-5479", "country": "United States", "longitude": "-121.9460243", "latitude": "37.34814789", "phone": "4087092990", "website_url": "http://www.taplands.com", "state": "California", "street": "1171 Homestead Rd Ste 110"}, {"id": "83368eeb-c75a-4d38-832a-91ab2d501b3d", "name": "Taproot Brewing Co / Newport Vineyards", "brewery_type": "micro", "address_1": "909 E Main Rd", "address_2": null, "address_3": null, "city": "Middletown", "state_province": "Rhode Island", "postal_code": "02842-5529", "country": "United States", "longitude": "-71.2726634", "latitude": "41.5293214", "phone": "4018485161", "website_url": "https://www.taprootbeer.com", "state": "Rhode Island", "street": "909 E Main Rd"}, {"id": "ea0ef1dd-af5c-4936-983b-22e5f190baac", "name": "Taps and Apps", "brewery_type": "brewpub", "address_1": "95-1830 Meheula Pkwy Ste C-6", "address_2": null, "address_3": null, "city": "Mililani", "state_province": "Hawaii", "postal_code": "96789-6311", "country": "United States", "longitude": "-158.002414", "latitude": "21.467355", "phone": "8086268277", "website_url": "http://www.tapsandappsbrewpub.com", "state": "Hawaii", "street": "95-1830 Meheula Pkwy Ste C-6"}, {"id": "e6308f1f-f1e9-4fcf-8441-d6e789d613a6", "name": "TAPS Brewery and Barrel Room", "brewery_type": "planning", "address_1": null, "address_2": null, "address_3": null, "city": "Tustin", "state_province": "California", "postal_code": "92780-7302", "country": "United States", "longitude": "-117.826166", "latitude": "33.7458511", "phone": null, "website_url": null, "state": "California", "street": null}, {"id": "8b865b0c-585f-4911-a8db-25a466c3915b", "name": "TAPS Fish House and Brewery - Brea", "brewery_type": "brewpub", "address_1": "101 E Imperial Hwy", "address_2": null, "address_3": null, "city": "Brea", "state_province": "California", "postal_code": "92821-4924", "country": "United States", "longitude": "-117.9018387", "latitude": "33.9171643", "phone": "7142570101", "website_url": "http://www.tapsbrea.com", "state": "California", "street": "101 E Imperial Hwy"}, {"id": "cdc715dd-7ca6-40f1-b028-c3f735e393ea", "name": "TAPS Fish House and Brewery - Corona", "brewery_type": "brewpub", "address_1": "2745 Lakeshore Dr", "address_2": null, "address_3": null, "city": "Corona", "state_province": "California", "postal_code": "92883-7367", "country": "United States", "longitude": "-117.5088541", "latitude": "33.81408315", "phone": "9512775800", "website_url": null, "state": "California", "street": "2745 Lakeshore Dr"}, {"id": "dbfbb11d-200e-4b5e-95f2-de7205a8aef2", "name": "Tarantula Hill Brewing Company", "brewery_type": "planning", "address_1": null, "address_2": null, "address_3": null, "city": "Thousand Oaks", "state_province": "California", "postal_code": "91360", "country": "United States", "longitude": "-118.9105877", "latitude": "34.17142715", "phone": "6199951731", "website_url": null, "state": "California", "street": null}, {"id": "85314e5d-defb-44cf-9630-55a5bced2268", "name": "Tarboro Brewing Company", "brewery_type": "micro", "address_1": "526 N Main St", "address_2": null, "address_3": null, "city": "Tarboro", "state_province": "North Carolina", "postal_code": "27886-4313", "country": "United States", "longitude": "-77.53557317", "latitude": "35.89855641", "phone": "2525636522", "website_url": "http://www.tarborobrewingcompany.com", "state": "North Carolina", "street": "526 N Main St"}, {"id": "d3b95387-babd-45d7-aba2-5e915294af09", "name": "Tarla Mediterranean Bar and Grill", "brewery_type": "brewpub", "address_1": "1480 1st St", "address_2": null, "address_3": null, "city": "Napa", "state_province": "California", "postal_code": "94559-2843", "country": "United States", "longitude": "-122.289765", "latitude": "38.29719738", "phone": "7072555599", "website_url": "http://www.tarlagrill.com", "state": "California", "street": "1480 1st St"}, {"id": "623ee5b9-a7a3-4401-86ae-4af68f3c1071", "name": "Tarpon River Brewing", "brewery_type": "micro", "address_1": "280 SW 6th Street", "address_2": null, "address_3": null, "city": "Fort Lauderdale", "state_province": "Florida", "postal_code": "33301", "country": "United States", "longitude": "-80.14595562", "latitude": "26.11462092", "phone": "9545334590", "website_url": "http://www.nativebrewingco.com/index.html", "state": "Florida", "street": "280 SW 6th Street"}, {"id": "1cc7fc9b-908c-4f47-83e7-9b1db04193d4", "name": "Tattered Flag Brewery", "brewery_type": "brewpub", "address_1": "1 S Union St", "address_2": null, "address_3": null, "city": "Middletown", "state_province": "Pennsylvania", "postal_code": "17057-1446", "country": "United States", "longitude": "-76.731309", "latitude": "40.194934", "phone": "7176168799", "website_url": "http://www.tatteredflagbsw.com", "state": "Pennsylvania", "street": "1 S Union St"}, {"id": "634bd2d5-223d-482a-a6ca-0e57f25a21ae", "name": "Tavern Brewery", "brewery_type": "brewpub", "address_1": "200 W Lake Dr", "address_2": null, "address_3": null, "city": "Detroit Lakes", "state_province": "Minnesota", "postal_code": "56501-3917", "country": "United States", "longitude": "-95.8477011", "latitude": "46.8066561", "phone": "2188471891", "website_url": null, "state": "Minnesota", "street": "200 W Lake Dr"}, {"id": "a3f8cc82-579b-4246-850a-292d9e21703a", "name": "Taxman Brewing Co", "brewery_type": "micro", "address_1": "13 S Baldwin St", "address_2": null, "address_3": null, "city": "Bargersville", "state_province": "Indiana", "postal_code": "46106-9089", "country": "United States", "longitude": "-86.16716199", "latitude": "39.52148548", "phone": null, "website_url": "http://www.taxmanbrewing.com", "state": "Indiana", "street": "13 S Baldwin St"}, {"id": "05b1e90b-9aa9-44da-a80e-d1ee2610ba51", "name": "Taylor Brooke Brewery", "brewery_type": "planning", "address_1": null, "address_2": null, "address_3": null, "city": "Woodstock", "state_province": "Connecticut", "postal_code": "06281-2930", "country": "United States", "longitude": null, "latitude": null, "phone": "8609741263", "website_url": "http://www.taylorbrookewinery.com", "state": "Connecticut", "street": null}, {"id": "ba4851b3-8034-4347-8f01-9a5183f9b555", "name": "Taylor House Brewing Co", "brewery_type": "micro", "address_1": "76 Lehigh St", "address_2": null, "address_3": null, "city": "Catasauqua", "state_province": "Pennsylvania", "postal_code": "18032", "country": "United States", "longitude": "-75.46805342", "latitude": "40.64817832", "phone": null, "website_url": "http://www.taylorhousebrewing.com", "state": "Pennsylvania", "street": "76 Lehigh St"}, {"id": "a65b0d05-2ee4-4b4e-9aa0-3dc6ba18cc2c", "name": "TBD", "brewery_type": "micro", "address_1": "17985 Armada Center Rd", "address_2": null, "address_3": null, "city": "Armada", "state_province": "Michigan", "postal_code": "48005-2323", "country": "United States", "longitude": "-82.95124856", "latitude": "42.84942455", "phone": "5869897454", "website_url": "http://www.blakeshardcider.com", "state": "Michigan", "street": "17985 Armada Center Rd"}, {"id": "a60a0bc4-dcdf-4a43-bda3-17b4db6f7291", "name": "Teachers Lounge Brewing", "brewery_type": "planning", "address_1": null, "address_2": null, "address_3": null, "city": "Denver", "state_province": "Colorado", "postal_code": "80210-3349", "country": "United States", "longitude": null, "latitude": null, "phone": "3038685142", "website_url": "http://www.eachersloungebrewing.com", "state": "Colorado", "street": null}, {"id": "f63f4c7c-57a6-4e56-b16d-6928e8c08aa0", "name": "Teays River Brewing", "brewery_type": "brewpub", "address_1": "3000 S 9th St Ste A", "address_2": null, "address_3": null, "city": "Lafayette", "state_province": "Indiana", "postal_code": "47909-6702", "country": "United States", "longitude": null, "latitude": null, "phone": "7657466614", "website_url": "http://www.teaysriverbrewing.com", "state": "Indiana", "street": "3000 S 9th St Ste A"}, {"id": "3bc7477e-6b51-4ec4-9879-106902e23f21", "name": "Tecumseh Brewing Company", "brewery_type": "brewpub", "address_1": "128 W Chicago Blvd", "address_2": null, "address_3": null, "city": "Tecumseh", "state_province": "Michigan", "postal_code": "49286-1553", "country": "United States", "longitude": "-83.946191", "latitude": "42.004052", "phone": "5178151726", "website_url": "http://www.tecumsehbrewingco.com", "state": "Michigan", "street": "128 W Chicago Blvd"}, {"id": "538a9de0-db76-4d2e-af6d-8a3db700b6bf", "name": "Teeccino Brewing Company", "brewery_type": "planning", "address_1": null, "address_2": null, "address_3": null, "city": "Carpinteria", "state_province": "California", "postal_code": "93013-2905", "country": "United States", "longitude": "-119.5184564", "latitude": "34.3988838", "phone": "8059660999", "website_url": "http://www.teeccino.com", "state": "California", "street": null}, {"id": "a0a6eb69-2178-4809-8797-840da743d2e9", "name": "Tek Mountain Brewing", "brewery_type": "micro", "address_1": "1844 Sir Tyler Dr", "address_2": null, "address_3": null, "city": "Wilmington", "state_province": "North Carolina", "postal_code": "28405-8305", "country": "United States", "longitude": "-77.8239017", "latitude": "34.24224042", "phone": "9104705334", "website_url": "http://www.facebook.com/groups/TekMountainBrewing/", "state": "North Carolina", "street": "1844 Sir Tyler Dr"}]