[{"id": "f3f48ba8-b407-4b1e-bc0d-369c97f3263b", "name": "Ferus Artisan Ales", "brewery_type": "planning", "address_1": null, "address_2": null, "address_3": null, "city": "Trussville", "state_province": "Alabama", "postal_code": "35173-1480", "country": "United States", "longitude": "-86.6084342", "latitude": "33.6196266", "phone": "2053680240", "website_url": null, "state": "Alabama", "street": null}, {"id": "d57db05d-f227-458d-b3cd-10fc76c182f1", "name": "Fetch Brewing Co", "brewery_type": "micro", "address_1": "100 W Colby St", "address_2": null, "address_3": null, "city": "Whitehall", "state_province": "Michigan", "postal_code": "49461-1015", "country": "United States", "longitude": "-86.3494848", "latitude": "43.4097727", "phone": "2312157168", "website_url": "http://www.fetchbrewing.com", "state": "Michigan", "street": "100 W Colby St"}, {"id": "e31797d6-3cb0-41e8-b0b8-1c00ac264fc7", "name": "Fetching Lab Brewing Co.", "brewery_type": "micro", "address_1": "1578 County Road 423 Suite B", "address_2": null, "address_3": null, "city": "Alvin", "state_province": "Texas", "postal_code": "77511", "country": "United States", "longitude": null, "latitude": null, "phone": "2814147355", "website_url": "http://www.fetchinglabbrewery@gmail.com", "state": "Texas", "street": "1578 County Road 423 Suite B"}, {"id": "fe7b7c55-5132-4a41-bb73-47d930337b1b", "name": "Fetish Brewing Co", "brewery_type": "micro", "address_1": "325 Ice Ave", "address_2": null, "address_3": null, "city": "Lancaster", "state_province": "Pennsylvania", "postal_code": "17602-1930", "country": "United States", "longitude": "-76.30114271", "latitude": "40.052413", "phone": null, "website_url": "http://fetishbrewing.tumblr.com", "state": "Pennsylvania", "street": "325 Ice Ave"}, {"id": "4ecfebcb-93eb-4bb3-a794-6e1e57ca3842", "name": "Ffats Brewing Co - Production Only", "brewery_type": "micro", "address_1": "36447 Main St", "address_2": null, "address_3": null, "city": "Whitehall", "state_province": "Wisconsin", "postal_code": "54773-9108", "country": "United States", "longitude": "-91.3167513", "latitude": "44.3712155", "phone": "7155383162", "website_url": "http://www.ffatsbrewing.com", "state": "Wisconsin", "street": "36447 Main St"}, {"id": "c9b5c1c8-4248-4e77-bc0a-b83eaca79d6d", "name": "FH Beerworks", "brewery_type": "micro", "address_1": "521 S Tejon St", "address_2": null, "address_3": null, "city": "Colorado Springs", "state_province": "Colorado", "postal_code": "80903-3928", "country": "United States", "longitude": "-104.8237318", "latitude": "38.8260086", "phone": "7196406814", "website_url": null, "state": "Colorado", "street": "521 S Tejon St"}, {"id": "d919af32-ba3f-4594-844a-dadcdd0a1cf5", "name": "FH Beerworks East", "brewery_type": "planning", "address_1": null, "address_2": null, "address_3": null, "city": "Colorado Springs", "state_province": "Colorado", "postal_code": "80915", "country": "United States", "longitude": null, "latitude": null, "phone": "7196406814", "website_url": null, "state": "Colorado", "street": null}, {"id": "9c92b8c8-750c-4ac9-b9fd-e5b708bb249d", "name": "Fibonacci Brewing Company", "brewery_type": "micro", "address_1": "1445 Compton Rd", "address_2": null, "address_3": null, "city": "Cincinnati", "state_province": "Ohio", "postal_code": "45231-3559", "country": "United States", "longitude": "-84.4805528", "latitude": "39.218908", "phone": "5138321422", "website_url": "http://fibbrew.com", "state": "Ohio", "street": "1445 Compton Rd"}, {"id": "6eacc4a0-3173-4e08-901b-6135ccf60690", "name": "Fiction Beer Company", "brewery_type": "micro", "address_1": "7101 E Colfax Ave", "address_2": null, "address_3": null, "city": "Denver", "state_province": "Colorado", "postal_code": "80220-1805", "country": "United States", "longitude": "-104.8854207", "latitude": "39.7402188", "phone": "7204567163", "website_url": "http://www.fictionbeer.com", "state": "Colorado", "street": "7101 E Colfax Ave"}, {"id": "888304f6-73fc-44ee-99f4-bf7c04cd39b8", "name": "Fiddlehead Brewing", "brewery_type": "regional", "address_1": "6305 Shelburne Rd", "address_2": null, "address_3": null, "city": "Shelburne", "state_province": "Vermont", "postal_code": "05482-4437", "country": "United States", "longitude": "-73.2326193", "latitude": "44.3660621", "phone": "8023992994", "website_url": "http://www.fiddleheadbrewing.com", "state": "Vermont", "street": "6305 Shelburne Rd"}, {"id": "8c42eb4a-367c-4fca-bffa-5b82aaf268c5", "name": "Fiddlin' Fish Brewing Company", "brewery_type": "micro", "address_1": "772 N Trade St.", "address_2": null, "address_3": null, "city": "Winston Salem", "state_province": "North Carolina", "postal_code": "27101", "country": "United States", "longitude": null, "latitude": null, "phone": "3364079671", "website_url": "http://www.fiddlinfish.com", "state": "North Carolina", "street": "772 N Trade St."}, {"id": "1c37475d-7010-4392-9edf-c566bc7fc5c1", "name": "Field Brewing", "brewery_type": "planning", "address_1": null, "address_2": null, "address_3": null, "city": "Westfield", "state_province": "Indiana", "postal_code": "46074-9494", "country": "United States", "longitude": null, "latitude": null, "phone": "3174300253", "website_url": "http://www.fieldbrewing.com", "state": "Indiana", "street": null}, {"id": "5871b814-9d72-47ba-9733-82f43d0b79d9", "name": "Fields & Ivy Brewery", "brewery_type": "planning", "address_1": null, "address_2": null, "address_3": null, "city": "Olathe", "state_province": "Kansas", "postal_code": "66061-7464", "country": "United States", "longitude": null, "latitude": null, "phone": "9136710349", "website_url": null, "state": "Kansas", "street": null}, {"id": "c40afcb2-b873-44c5-93e8-5d718be8830c", "name": "Fieldwork Brewing Co", "brewery_type": "regional", "address_1": "1160 6th St", "address_2": null, "address_3": null, "city": "Berkeley", "state_province": "California", "postal_code": "94710-1247", "country": "United States", "longitude": "-122.3022147", "latitude": "37.88157297", "phone": "5108981203", "website_url": "http://www.fieldworkbrewing.com", "state": "California", "street": "1160 6th St"}, {"id": "c3a96041-0f74-4538-9daf-a8eb7594fd5f", "name": "Fife Lake Brewery", "brewery_type": "planning", "address_1": null, "address_2": null, "address_3": null, "city": "Fife Lake", "state_province": "Michigan", "postal_code": "49633-9319", "country": "United States", "longitude": null, "latitude": null, "phone": "2313926757", "website_url": null, "state": "Michigan", "street": null}, {"id": "687f52df-b64c-464a-85c8-fdbcf02fa2ad", "name": "Fifth Frame Brewing Co.", "brewery_type": "proprietor", "address_1": "155 Saint Paul St", "address_2": null, "address_3": null, "city": "Rochester", "state_province": "New York", "postal_code": "14604-1144", "country": "United States", "longitude": "-77.61019544", "latitude": "43.15996034", "phone": "7168128897", "website_url": "http://www.fifthframe.co", "state": "New York", "street": "155 Saint Paul St"}, {"id": "7c806934-8a5a-4a45-8ae3-fd8687ab005a", "name": "Fifth Hammer Brewing Company", "brewery_type": "micro", "address_1": "10-28 46th Ave", "address_2": null, "address_3": null, "city": "Long Island City", "state_province": "New York", "postal_code": "11101-5217", "country": "United States", "longitude": "-73.9515404", "latitude": "40.7464921", "phone": "7186632084", "website_url": "http://www.fifthhammerbrewing.com", "state": "New York", "street": "10-28 46th Ave"}, {"id": "0be4ed90-78cb-44f9-bcb6-dfbc52e770f3", "name": "Fifth Street Brewpub", "brewery_type": "brewpub", "address_1": "1600 E 5th St", "address_2": null, "address_3": null, "city": "Dayton", "state_province": "Ohio", "postal_code": "45403-2304", "country": "United States", "longitude": "-84.1881863", "latitude": "39.7572259", "phone": "9374430919", "website_url": "http://Fifthstreetbrewpub.coop", "state": "Ohio", "street": "1600 E 5th St"}, {"id": "0f57933a-def7-4c86-8cd3-505b834c0470", "name": "Fifth Ward Brewing Company", "brewery_type": "micro", "address_1": "1009 S Main St", "address_2": null, "address_3": null, "city": "Oshkosh", "state_province": "Wisconsin", "postal_code": "54902-6019", "country": "United States", "longitude": "-88.5408574", "latitude": "44.0206919", "phone": "9204791876", "website_url": "http://www.fifthwardbrewing.com", "state": "Wisconsin", "street": "1009 S Main St"}, {"id": "5a19b678-db5b-4fe3-939f-73345b04b3a4", "name": "Fifth Year Brewery", "brewery_type": "planning", "address_1": null, "address_2": null, "address_3": null, "city": "West Haven", "state_province": "Connecticut", "postal_code": "06516-7515", "country": "United States", "longitude": null, "latitude": null, "phone": null, "website_url": null, "state": "Connecticut", "street": null}, {"id": "a84e6dc3-0e93-455b-8655-819b832b6bc3", "name": "Fifty West Brewing Co", "brewery_type": "micro", "address_1": "7605 Wooster Pike", "address_2": null, "address_3": null, "city": "Cincinnati", "state_province": "Ohio", "postal_code": "45227-3925", "country": "United States", "longitude": "-84.4134859", "latitude": "39.11952", "phone": "5138348789", "website_url": null, "state": "Ohio", "street": "7605 Wooster Pike"}, {"id": "e16b6c28-c37c-43fe-9234-705513701060", "name": "Fifty West Brewing Co", "brewery_type": "brewpub", "address_1": "7668 Wooster Pike", "address_2": null, "address_3": null, "city": "Cincinnati", "state_province": "Ohio", "postal_code": "45227-3926", "country": "United States", "longitude": "-84.4134859", "latitude": "39.11952", "phone": "5138348789", "website_url": "http://www.fiftywestbrew.com", "state": "Ohio", "street": "7668 Wooster Pike"}, {"id": "9e84203a-cf4f-486a-a162-8068bc3eaf54", "name": "FiftyFifty Brewing Co", "brewery_type": "brewpub", "address_1": "11197 Brockway Rd Spc 1", "address_2": null, "address_3": null, "city": "Truckee", "state_province": "California", "postal_code": "96161-3352", "country": "United States", "longitude": "-120.1634145", "latitude": "39.32213777", "phone": "5305872337", "website_url": "http://www.fiftyfiftybrewing.com", "state": "California", "street": "11197 Brockway Rd Spc 1"}, {"id": "a10765e2-a7d7-4930-acb6-3bf77bb7b77f", "name": "FiftyFifty Brewing Production Facility", "brewery_type": "micro", "address_1": "10434 River Park Pl", "address_2": null, "address_3": null, "city": "Truckee", "state_province": "California", "postal_code": "96161-5905", "country": "United States", "longitude": "-120.1931724", "latitude": "39.32253237", "phone": "5305872337", "website_url": null, "state": "California", "street": "10434 River Park Pl"}, {"id": "1198ad91-b35e-470b-a7e2-bcb93934e6f2", "name": "FigLeaf Brewing Company", "brewery_type": "micro", "address_1": "3387 Cincinnati Dayton Rd", "address_2": null, "address_3": null, "city": "Middletown", "state_province": "Ohio", "postal_code": "45044-8905", "country": "United States", "longitude": "-84.34678975", "latitude": "39.46688114", "phone": "9373612573", "website_url": "http://www.figleafbrewing.com", "state": "Ohio", "street": "3387 Cincinnati Dayton Rd"}, {"id": "860d5477-e4ed-4c74-afc9-66e02056855f", "name": "Figueroa Mountain Brewing", "brewery_type": "regional", "address_1": "45 Industrial Way", "address_2": null, "address_3": null, "city": "Buellton", "state_province": "California", "postal_code": "93427-9565", "country": "United States", "longitude": "-120.2022226", "latitude": "34.61068975", "phone": "8056942252", "website_url": "http://www.figmtnbrew.com", "state": "California", "street": "45 Industrial Way"}, {"id": "ba47384b-fd1f-4dd5-b51f-75f28a2a7f70", "name": "Figueroa Mountain Brewing - Arroyo Grande", "brewery_type": "brewpub", "address_1": "1462 E Grand Ave", "address_2": null, "address_3": null, "city": "Arroyo Grande", "state_province": "California", "postal_code": "93420-2448", "country": "United States", "longitude": "-120.6059582", "latitude": "35.12102175", "phone": "8058869275", "website_url": "http://www.figmtnbrew.com", "state": "California", "street": "1462 E Grand Ave"}, {"id": "bfe8fe2c-12d4-4620-9e13-d2ca346078fc", "name": "Figueroa Mountain Brewing - Santa Barbara", "brewery_type": "micro", "address_1": "137 Anacapa St Ste F", "address_2": null, "address_3": null, "city": "Santa Barbara", "state_province": "California", "postal_code": "93101-1848", "country": "United States", "longitude": "-119.6908077", "latitude": "34.414758", "phone": "8058869275", "website_url": "http://www.figmtnbrew.com", "state": "California", "street": "137 Anacapa St Ste F"}, {"id": "8a0c381f-ea5b-4474-969d-9abfed057d65", "name": "Figueroa Mountain Brewing - Westlake Village", "brewery_type": "micro", "address_1": "30770 Russell Ranch Rd Ste E& # F", "address_2": null, "address_3": null, "city": "Westlake Village", "state_province": "California", "postal_code": "91362-6314", "country": "United States", "longitude": "-118.7954292", "latitude": "34.14758662", "phone": "8058869275", "website_url": "http://www.figmtnbrew.com", "state": "California", "street": "30770 Russell Ranch Rd Ste E& # F"}, {"id": "607ac560-d432-4e42-9aca-b9244542a861", "name": "Figure Eight Brewing Co", "brewery_type": "brewpub", "address_1": "150 Washington St", "address_2": null, "address_3": null, "city": "Valparaiso", "state_province": "Indiana", "postal_code": "46383-5507", "country": "United States", "longitude": null, "latitude": null, "phone": "2194772000", "website_url": "http://www.figureeightbrewing.com", "state": "Indiana", "street": "150 Washington St"}, {"id": "379eceb5-bc20-4627-ad9c-d3cb922048b8", "name": "Figurehead Brewing Company", "brewery_type": "micro", "address_1": "4001 21st Ave W Unit B", "address_2": null, "address_3": null, "city": "Seattle", "state_province": "Washington", "postal_code": "98199-1201", "country": "United States", "longitude": "-122.3835563", "latitude": "47.65688785", "phone": "2064927981", "website_url": "http://www.figureheadbrewingcompany.com", "state": "Washington", "street": "4001 21st Ave W Unit B"}, {"id": "5913b262-fbb5-4279-b50f-24843d149b94", "name": "Fillmore 13 Brewery", "brewery_type": "brewpub", "address_1": "7 N Saginaw St", "address_2": null, "address_3": null, "city": "Pontiac", "state_province": "Michigan", "postal_code": "48342-2182", "country": "United States", "longitude": "-83.292346", "latitude": "42.6369922", "phone": "2489773972", "website_url": "http://www.fillmore13brewery.com", "state": "Michigan", "street": "7 N Saginaw St"}, {"id": "c776ab29-500d-4679-b417-f58d712c5ab0", "name": "Final Draft Brewing Company", "brewery_type": "brewpub", "address_1": "1600 California St", "address_2": null, "address_3": null, "city": "Redding", "state_province": "California", "postal_code": "96001-1001", "country": "United States", "longitude": "-122.3913371", "latitude": "40.5820505", "phone": "3105693868", "website_url": "http://www.finaldraftbrewingcompany.com", "state": "California", "street": "1600 California St"}, {"id": "10ea014e-22e8-4c4f-b988-9a46e656c1d7", "name": "Final Gravity Brewing Co", "brewery_type": "brewpub", "address_1": "103 N Phelps St", "address_2": null, "address_3": null, "city": "Decatur", "state_province": "Michigan", "postal_code": "49045-1008", "country": "United States", "longitude": "-85.97454749", "latitude": "42.10876694", "phone": "2694368052", "website_url": "http://www.finalgravitybrew.com", "state": "Michigan", "street": "103 N Phelps St"}, {"id": "b58fc6dc-a1f6-4106-bb65-45ff5eefc03d", "name": "Final Gravity Brewing Co.", "brewery_type": "micro", "address_1": "6118 Lakeside Ave", "address_2": null, "address_3": null, "city": "Henrico", "state_province": "Virginia", "postal_code": "23228", "country": "United States", "longitude": "-77.46933476", "latitude": "37.61145549", "phone": "8042644808", "website_url": null, "state": "Virginia", "street": "6118 Lakeside Ave"}, {"id": "7bb60663-b700-4b29-80fd-f196f5c33c9d", "name": "Final Gravity Brewing Company", "brewery_type": "planning", "address_1": null, "address_2": null, "address_3": null, "city": "Decatur", "state_province": "Michigan", "postal_code": "49045-1118", "country": "United States", "longitude": null, "latitude": null, "phone": null, "website_url": "http://www.finalgravitybrew.com", "state": "Michigan", "street": null}, {"id": "493075c7-501d-4e01-ad6d-75308f0db95f", "name": "Final Gravity Brewing Company", "brewery_type": "micro", "address_1": "246 N Burdick St", "address_2": null, "address_3": null, "city": "Kalamazoo", "state_province": "Michigan", "postal_code": "49007-3828", "country": "United States", "longitude": "-85.58315888", "latitude": "42.29324471", "phone": null, "website_url": "http://www.finalgravitybrew.com", "state": "Michigan", "street": "246 N Burdick St"}, {"id": "baf0d387-d06c-492b-b435-46b0619b8149", "name": "Finback Brewery", "brewery_type": "micro", "address_1": "78-01 77th Ave", "address_2": null, "address_3": null, "city": "Queens", "state_province": "New York", "postal_code": "11385-7518", "country": "United States", "longitude": "-73.8732597", "latitude": "40.7067227", "phone": "7186288600", "website_url": "http://www.finbackbrewery.com", "state": "New York", "street": "78-01 77th Ave"}, {"id": "d9ee2acf-01b7-48d2-ae25-db12c2143eb3", "name": "Finch Beer Company", "brewery_type": "micro", "address_1": "1800 W Walnut St", "address_2": null, "address_3": null, "city": "Chicago", "state_province": "Illinois", "postal_code": "60612-2526", "country": "United States", "longitude": "-87.6721651", "latitude": "41.8861899", "phone": "3129294773", "website_url": "http://www.finchbeer.com", "state": "Illinois", "street": "1800 W Walnut St"}, {"id": "9f1fdcb0-c5f9-46c4-b1c3-18dee1027afd", "name": "Findlay Brewing Co.", "brewery_type": "micro", "address_1": "213 E. Crawford St.", "address_2": null, "address_3": null, "city": "Findlay", "state_province": "Ohio", "postal_code": "45840", "country": "United States", "longitude": "-83.64817394", "latitude": "41.03767553", "phone": "4197227395", "website_url": "http://www.findlaybrewingcompany.com", "state": "Ohio", "street": "213 E. Crawford St."}, {"id": "df2f28f2-e202-436f-a028-aedfe2837ce3", "name": "Fine Creek Brewing Company", "brewery_type": "brewpub", "address_1": "2425 Robert E Lee Rd", "address_2": null, "address_3": null, "city": "Powhatan", "state_province": "Virginia", "postal_code": "23139-4411", "country": "United States", "longitude": "-77.81761305", "latitude": "37.59794", "phone": null, "website_url": "http://www.finecreekbrewing.com", "state": "Virginia", "street": "2425 Robert E Lee Rd"}, {"id": "ca819de8-2d89-4ce2-8079-88b43bbf8330", "name": "Finger Lakes Beer Co", "brewery_type": "micro", "address_1": "8462 State Route 54", "address_2": null, "address_3": null, "city": "Hammondsport", "state_province": "New York", "postal_code": "14840-9795", "country": "United States", "longitude": null, "latitude": null, "phone": "6075693311", "website_url": null, "state": "New York", "street": "8462 State Route 54"}, {"id": "b7f0e370-efcc-4894-b0af-35e90917724f", "name": "Finkel & Garf Brewing Co.", "brewery_type": "micro", "address_1": "5455 Spine Rd Ste A", "address_2": null, "address_3": null, "city": "Boulder", "state_province": "Colorado", "postal_code": "80301-3364", "country": "United States", "longitude": null, "latitude": null, "phone": null, "website_url": "http://www.finkelandgarf.com", "state": "Colorado", "street": "5455 Spine Rd Ste A"}, {"id": "72afec57-f322-4208-b6e8-9fc4cf0975c9", "name": "FINNEGANS Brew Co", "brewery_type": "micro", "address_1": "817 5th Ave So", "address_2": null, "address_3": null, "city": "Minneapolis", "state_province": "Minnesota", "postal_code": "55404", "country": "United States", "longitude": null, "latitude": null, "phone": "2072394937", "website_url": "http://www.finnegans.com", "state": "Minnesota", "street": "817 5th Ave So"}, {"id": "aef7a136-f2e1-4aca-ad98-ab593e82f91a", "name": "Fins Big Oyster Brewery", "brewery_type": "brewpub", "address_1": "19269 Coastal Hwy", "address_2": null, "address_3": null, "city": "Rehoboth Beach", "state_province": "Delaware", "postal_code": "19971-6113", "country": "United States", "longitude": "-75.090191", "latitude": "38.7074994", "phone": "3022902410", "website_url": "http://bigoysterbrewery.com", "state": "Delaware", "street": "19269 Coastal Hwy"}, {"id": "f4558573-9e85-42ff-abcd-8d35a7d3c852", "name": "Fire Island Beer Co", "brewery_type": "micro", "address_1": "25 Drexel Dr", "address_2": null, "address_3": null, "city": "Bay Shore", "state_province": "New York", "postal_code": "11706-2234", "country": "United States", "longitude": null, "latitude": null, "phone": null, "website_url": "http://www.fireislandbeer.com", "state": "New York", "street": "25 Drexel Dr"}, {"id": "483e1e69-0687-445c-99c2-b1ec732eb580", "name": "Fire Maker Brewing Company", "brewery_type": "micro", "address_1": "975 Chattahoochee Ave NW", "address_2": null, "address_3": null, "city": "Atlanta", "state_province": "Georgia", "postal_code": "30318", "country": "United States", "longitude": "-84.41943924", "latitude": "33.80024037", "phone": "6787058777", "website_url": "https://www.firemakerbeer.com", "state": "Georgia", "street": "975 Chattahoochee Ave NW"}, {"id": "57716b50-4321-4023-bfe5-b0243722af72", "name": "Fire On the Mountain Brewing Co", "brewery_type": "brewpub", "address_1": "3443 NE 57th Ave", "address_2": null, "address_3": null, "city": "Portland", "state_province": "Oregon", "postal_code": "97213-3351", "country": "United States", "longitude": "-122.6049402", "latitude": "45.5480432", "phone": "5038948973", "website_url": "http://www.portlandwings.com", "state": "Oregon", "street": "3443 NE 57th Ave"}, {"id": "5591fbd3-5000-439c-b685-5a785829aa08", "name": "Firebird Brewing Company Ltd", "brewery_type": "taproom", "address_1": "Lynwick Street", "address_2": null, "address_3": null, "city": "Horsham", "state_province": "West Sussex", "postal_code": "RH12 3UW", "country": "England", "longitude": "-0.45414", "latitude": "51.09654", "phone": "1403823180", "website_url": "https://firebirdbrewing.com/", "state": "West Sussex", "street": "Lynwick Street"}, {"id": "dca618d0-fe3f-4829-9f56-36f9ba2dca26", "name": "Fired Up Brewing", "brewery_type": "brewpub", "address_1": "1235 S Main St", "address_2": null, "address_3": null, "city": "Colville", "state_province": "Washington", "postal_code": "99114-9504", "country": "United States", "longitude": "-117.9057561", "latitude": "48.540198", "phone": "5096843328", "website_url": "http://www.facebook.com/firedupbrewing", "state": "Washington", "street": "1235 S Main St"}, {"id": "e13762c8-53a1-48a0-a915-c096492b06d6", "name": "Firefly Hollow Brewing Co.", "brewery_type": "micro", "address_1": "139 Center St Ste 5005", "address_2": null, "address_3": null, "city": "Bristol", "state_province": "Connecticut", "postal_code": "06010-5086", "country": "United States", "longitude": null, "latitude": null, "phone": "8608458977", "website_url": "http://www.fireflyhollowbrewing.com", "state": "Connecticut", "street": "139 Center St Ste 5005"}, {"id": "4dfcdb68-1be1-4581-9283-a01ca9bc9e6d", "name": "Firehouse Brewing Co", "brewery_type": "brewpub", "address_1": "610 Main St", "address_2": null, "address_3": null, "city": "Rapid City", "state_province": "South Dakota", "postal_code": "57701-2736", "country": "United States", "longitude": "-103.2275562", "latitude": "44.08144085", "phone": "6053481915", "website_url": "http://www.firehousebrewing.com", "state": "South Dakota", "street": "610 Main St"}, {"id": "013ce0d8-b95d-45d9-9733-aaa7eb3b4586", "name": "Firehouse Grill & Brewery", "brewery_type": "brewpub", "address_1": "111 S Murphy Ave", "address_2": null, "address_3": null, "city": "Sunnyvale", "state_province": "California", "postal_code": "94086-6113", "country": "United States", "longitude": "-122.03007", "latitude": "37.37738", "phone": "4087739500", "website_url": "http://www.firehousegrill.com", "state": "California", "street": "111 S Murphy Ave"}, {"id": "daf5b513-a3e3-4103-b819-24588bf9331a", "name": "Fireman's Brew", "brewery_type": "contract", "address_1": "6433 Topanga Canyon Blvd # 189", "address_2": null, "address_3": null, "city": "Woodland Hills", "state_province": "California", "postal_code": "91303-2621", "country": "United States", "longitude": "-118.6057591", "latitude": "34.1667962", "phone": "8188832739", "website_url": "http://www.firemansbrew.com", "state": "California", "street": "6433 Topanga Canyon Blvd # 189"}, {"id": "b3fe866f-48ce-49d1-bae3-abfa6326047f", "name": "Fireside Brewing Co.", "brewery_type": "micro", "address_1": "430 W 17th St Ste 27", "address_2": null, "address_3": null, "city": "Holland", "state_province": "Michigan", "postal_code": "49423-3403", "country": "United States", "longitude": null, "latitude": null, "phone": "6162943777", "website_url": null, "state": "Michigan", "street": "430 W 17th St Ste 27"}, {"id": "43216af5-739e-43aa-8640-69c3631e4ce7", "name": "Firestone Walker Barrelworks", "brewery_type": "micro", "address_1": "620 McMurray Rd", "address_2": null, "address_3": null, "city": "Buellton", "state_province": "California", "postal_code": "93427-2511", "country": "United States", "longitude": "-120.1883447", "latitude": "34.6248627", "phone": "8056861557", "website_url": "http://www.firestonewalker.com", "state": "California", "street": "620 McMurray Rd"}, {"id": "cec5d778-9c24-46f7-841e-174976076100", "name": "Firestone Walker Brewing Co", "brewery_type": "brewpub", "address_1": "3205 Washington Blvd", "address_2": null, "address_3": null, "city": "Marina del Rey", "state_province": "California", "postal_code": "90292-5552", "country": "United States", "longitude": "-118.4485365", "latitude": "33.98999791", "phone": "3104398264", "website_url": null, "state": "California", "street": "3205 Washington Blvd"}, {"id": "209ae692-2dc3-45bd-baf5-6a2ef68c1a6e", "name": "Firestone Walker Brewing Co", "brewery_type": "regional", "address_1": "1400 Ramada Dr", "address_2": null, "address_3": null, "city": "Paso Robles", "state_province": "California", "postal_code": "93446-3993", "country": "United States", "longitude": "-120.6943059", "latitude": "35.59606059", "phone": "8052255911", "website_url": "http://www.firestonebeer.com", "state": "California", "street": "1400 Ramada Dr"}, {"id": "711f4130-d7c6-4856-8bcf-92ea1865b3ae", "name": "Firetrucker Brewery", "brewery_type": "micro", "address_1": "716 SW 3rd St", "address_2": null, "address_3": null, "city": "Ankeny", "state_province": "Iowa", "postal_code": "50023-2615", "country": "United States", "longitude": "-93.60984369", "latitude": "41.7299268", "phone": "5159641284", "website_url": "http://www.firetrucker.com", "state": "Iowa", "street": "716 SW 3rd St"}, {"id": "4909cd1a-bb81-4e07-86e9-2737ab02fd6a", "name": "Firewater Brewing Company", "brewery_type": "planning", "address_1": null, "address_2": null, "address_3": null, "city": "Kennesaw", "state_province": "Georgia", "postal_code": "30144", "country": "United States", "longitude": null, "latitude": null, "phone": null, "website_url": null, "state": "Georgia", "street": null}, {"id": "e5cb89b8-c9c7-4947-a825-9371002a12a0", "name": "First Flight Island Restaurant & Brewery", "brewery_type": "brewpub", "address_1": "301 Whitehead St", "address_2": null, "address_3": null, "city": "Key West", "state_province": "Florida", "postal_code": "33040-6542", "country": "United States", "longitude": "-81.805413", "latitude": "24.557321", "phone": null, "website_url": "http://firstflightkw.com", "state": "Florida", "street": "301 Whitehead St"}, {"id": "5654c809-0b29-49f0-855f-7ea45be8d8c0", "name": "First Magnitude Brewing Company", "brewery_type": "micro", "address_1": "1220 SE Veitch St", "address_2": null, "address_3": null, "city": "Gainesville", "state_province": "Florida", "postal_code": "32601-7917", "country": "United States", "longitude": "-82.32429908", "latitude": "29.63983022", "phone": "3527274677", "website_url": "http://www.fmbrewing.com", "state": "Florida", "street": "1220 SE Veitch St"}, {"id": "13d751c0-5894-4f61-a372-d07f9ff9a71e", "name": "First Mile Brewing Company", "brewery_type": "micro", "address_1": "28 Market St Ste 103", "address_2": null, "address_3": null, "city": "Fort Kent", "state_province": "Maine", "postal_code": "04743", "country": "United States", "longitude": null, "latitude": null, "phone": null, "website_url": null, "state": "Maine", "street": "28 Market St Ste 103"}, {"id": "5a4a3717-4640-405b-90d7-47a69be1c8e4", "name": "First State Brewing Company", "brewery_type": "planning", "address_1": null, "address_2": null, "address_3": null, "city": "Middletown", "state_province": "Delaware", "postal_code": "19709-1482", "country": "United States", "longitude": null, "latitude": null, "phone": "3022859535", "website_url": "http://www.firststatebrewing.com", "state": "Delaware", "street": null}, {"id": "78965a98-743a-4f7c-8338-ee6c548e73db", "name": "First Street Brewing", "brewery_type": "micro", "address_1": "119 N St Joseph Ave", "address_2": null, "address_3": null, "city": "Hastings", "state_province": "Nebraska", "postal_code": "68901-7553", "country": "United States", "longitude": "-98.3877198", "latitude": "40.5844989", "phone": "4028342400", "website_url": "http://www.firststreetbrewing.com", "state": "Nebraska", "street": "119 N St Joseph Ave"}, {"id": "1c7505c4-4a84-4293-990d-c3001a6ec798", "name": "First Water Brewing Company", "brewery_type": "planning", "address_1": null, "address_2": null, "address_3": null, "city": "Pasadena", "state_province": "California", "postal_code": "91106-1420", "country": "United States", "longitude": "-118.1444779", "latitude": "34.1476452", "phone": null, "website_url": "http://firstwaterbrewing.com", "state": "California", "street": null}, {"id": "2d60ec76-646d-4512-9e57-4d04406cd1e2", "name": "Fish Brewing Co", "brewery_type": "micro", "address_1": "514 Jefferson St SE", "address_2": null, "address_3": null, "city": "Olympia", "state_province": "Washington", "postal_code": "98501-1467", "country": "United States", "longitude": "-122.8954179", "latitude": "47.03437129", "phone": "3609436480", "website_url": "http://www.fishbrewing.com", "state": "Washington", "street": "514 Jefferson St SE"}, {"id": "10364982-a5d1-4595-bf95-25068d2386e3", "name": "Fish Brewing Pub & Eatery", "brewery_type": "closed", "address_1": "5108 Grand Loop", "address_2": null, "address_3": null, "city": "Ruston", "state_province": "Washington", "postal_code": "98407-3180", "country": "United States", "longitude": null, "latitude": null, "phone": null, "website_url": null, "state": "Washington", "street": "5108 Grand Loop"}, {"id": "9fbea2d8-57b9-4b17-bb19-01a96485e0d3", "name": "Fishale Taphouse and Grill", "brewery_type": "brewpub", "address_1": "7715 Front Beach Rd", "address_2": null, "address_3": null, "city": "Panama City Beach", "state_province": "Florida", "postal_code": "32407-4813", "country": "United States", "longitude": "-85.7855375", "latitude": "30.1823237", "phone": "8506401410", "website_url": null, "state": "Florida", "street": "7715 Front Beach Rd"}, {"id": "b014d168-6455-4325-9e1c-7b212daf49ef", "name": "Fisher Brewing Company", "brewery_type": "micro", "address_1": "320 W 800 S", "address_2": null, "address_3": null, "city": "Salt Lake City", "state_province": "Utah", "postal_code": "84101-2610", "country": "United States", "longitude": "-111.8817247", "latitude": "40.75187347", "phone": "8014872337", "website_url": "http://www.fisherbeer.com", "state": "Utah", "street": "320 W 800 S"}, {"id": "51922063-32fd-458f-aa48-482f612c7cca", "name": "Fishtown Brewing Co", "brewery_type": "brewpub", "address_1": "1101 Frankford Ave", "address_2": null, "address_3": null, "city": "Philadelphia", "state_province": "Pennsylvania", "postal_code": "19125-4153", "country": "United States", "longitude": "-75.0159588", "latitude": "40.0460129", "phone": "2159901396", "website_url": "http://fishtownbrewpub.com", "state": "Pennsylvania", "street": "1101 Frankford Ave"}, {"id": "cf195575-212d-4245-93a1-0a65c3e310c6", "name": "Fitgers Brewhouse", "brewery_type": "brewpub", "address_1": "600 E Superior St", "address_2": null, "address_3": null, "city": "Duluth", "state_province": "Minnesota", "postal_code": "55802-2222", "country": "United States", "longitude": "-92.09046481", "latitude": "46.79280161", "phone": "2187224825", "website_url": null, "state": "Minnesota", "street": "600 E Superior St"}, {"id": "74e468e5-ce8e-4b96-a806-382853e33d6f", "name": "Five & 20 Spirits and Brewing", "brewery_type": "brewpub", "address_1": "8398 W Route 20", "address_2": null, "address_3": null, "city": "Westfield", "state_province": "New York", "postal_code": "14787-9748", "country": "United States", "longitude": null, "latitude": null, "phone": "7167939463", "website_url": "http://www.fiveand20.com", "state": "New York", "street": "8398 W Route 20"}, {"id": "2e58d067-0e26-42d0-a3f1-818f6c5dd8c3", "name": "Five Boroughs Brewing Co", "brewery_type": "micro", "address_1": "215 47th St", "address_2": null, "address_3": null, "city": "Brooklyn", "state_province": "New York", "postal_code": "11220-1009", "country": "United States", "longitude": "-74.0144263", "latitude": "40.6505216", "phone": "7183558575", "website_url": "http://www.fiveboroughs.com", "state": "New York", "street": "215 47th St"}, {"id": "ad1ceef6-b564-422c-990a-8c98847adc0a", "name": "Five Churches Brewing", "brewery_type": "brewpub", "address_1": "193 Arch St", "address_2": null, "address_3": null, "city": "New Britain", "state_province": "Connecticut", "postal_code": "06051-2516", "country": "United States", "longitude": "-72.782706", "latitude": "41.662994", "phone": "8602238080", "website_url": "http://www.facebook.com/FiveChurchesBrewing", "state": "Connecticut", "street": "193 Arch St"}, {"id": "ef8eb443-f817-469a-8323-f3673a56b16e", "name": "Five Cities Brewing", "brewery_type": "micro", "address_1": "2255 Falcon Ave", "address_2": null, "address_3": null, "city": "Bettendorf", "state_province": "Iowa", "postal_code": "52722", "country": "United States", "longitude": "-90.50126378", "latitude": "41.57430518", "phone": "5632326105", "website_url": "http://www.fivecitiesbrewing.com", "state": "Iowa", "street": "2255 Falcon Ave"}, {"id": "b0b97e05-5db0-4825-b1c4-406e6b807bd0", "name": "Five Dolar Ranch Brewing", "brewery_type": "micro", "address_1": "1570 Beet Rd", "address_2": null, "address_3": null, "city": "Walla Walla", "state_province": "Washington", "postal_code": "99362", "country": "United States", "longitude": "-118.4191129", "latitude": "46.0036876", "phone": "5095403989", "website_url": "https://fivedollarranchbeer.com/", "state": "Washington", "street": "1570 Beet Rd"}, {"id": "d267fb22-568a-4037-83d0-2c2daf10a815", "name": "Five Dons Brewing Co", "brewery_type": "micro", "address_1": "1158 11th Ave", "address_2": null, "address_3": null, "city": "Longview", "state_province": "Washington", "postal_code": "98632-3110", "country": "United States", "longitude": "-122.9326287", "latitude": "46.13418506", "phone": "3604306440", "website_url": "http://www.fivedonsbeer.com", "state": "Washington", "street": "1158 11th Ave"}, {"id": "ede7c380-b556-4de8-b05b-8b81cc227915", "name": "Five Suns Brewing", "brewery_type": "micro", "address_1": "701 Escobar St Ste C", "address_2": null, "address_3": null, "city": "Martinez", "state_province": "California", "postal_code": "94553", "country": "United States", "longitude": "-122.1370278", "latitude": "38.01851399", "phone": "9259576706", "website_url": "http://www.fivesunsbrewing.com", "state": "California", "street": "701 Escobar St Ste C"}, {"id": "16d59447-30f9-4999-a8db-6d5773eb2d1b", "name": "Five Threads Brewing Company", "brewery_type": "micro", "address_1": "31133 Via Colinas Ste 109", "address_2": null, "address_3": null, "city": "Westlake Village", "state_province": "California", "postal_code": "91362-4525", "country": "United States", "longitude": "-118.801724", "latitude": "34.1529112", "phone": null, "website_url": null, "state": "California", "street": "31133 Via Colinas Ste 109"}, {"id": "d5090655-da65-4759-b130-60c5e256aa0e", "name": "Five Window Beer Co", "brewery_type": "micro", "address_1": "9 W Locust St", "address_2": null, "address_3": null, "city": "Lodi", "state_province": "California", "postal_code": "95240-2137", "country": "United States", "longitude": "-121.29526", "latitude": "38.136971", "phone": "2097122336", "website_url": "http://www.fivewindow.com", "state": "California", "street": "9 W Locust St"}, {"id": "90ab9e5b-da24-4624-aabf-4c7ffcb52f91", "name": "Five Wits Brewing Co.", "brewery_type": "planning", "address_1": null, "address_2": null, "address_3": null, "city": "Chattanooga", "state_province": "Tennessee", "postal_code": "37408", "country": "United States", "longitude": null, "latitude": null, "phone": "4237742991", "website_url": null, "state": "Tennessee", "street": null}, {"id": "0a17cef1-8631-4534-8b87-03bdbb33d479", "name": "Flag City Brewing", "brewery_type": "micro", "address_1": "618 W 4th St", "address_2": null, "address_3": null, "city": "Webb City", "state_province": "Missouri", "postal_code": "64870", "country": "United States", "longitude": "-94.467058", "latitude": "37.156896", "phone": null, "website_url": null, "state": "Missouri", "street": "618 W 4th St"}, {"id": "dbbf580b-32d2-4f7b-bff4-e74669267a7e", "name": "Flagship Brewery, LLC.", "brewery_type": "micro", "address_1": "40 Minthorne St", "address_2": null, "address_3": null, "city": "Staten Island", "state_province": "New York", "postal_code": "10301-3241", "country": "United States", "longitude": "-74.0756332", "latitude": "40.6372257", "phone": "7184485284", "website_url": "http://www.flagshipbrewery.nyc", "state": "New York", "street": "40 Minthorne St"}, {"id": "4b9222e3-f231-4d53-8890-c5c26c8c05fd", "name": "Flagstaff Brewing Co", "brewery_type": "brewpub", "address_1": "16 E Route 66", "address_2": null, "address_3": null, "city": "Flagstaff", "state_province": "Arizona", "postal_code": "86001-5792", "country": "United States", "longitude": "-111.523296", "latitude": "35.2109064", "phone": "9287731442", "website_url": "http://www.flagbrew.com", "state": "Arizona", "street": "16 E Route 66"}, {"id": "5cd2ba74-2f89-4e9f-9fa4-edff3aed2cf9", "name": "Flapjack Brewery", "brewery_type": "brewpub", "address_1": "6833 Stanley Ave", "address_2": null, "address_3": null, "city": "Berwyn", "state_province": "Illinois", "postal_code": "60402-5289", "country": "United States", "longitude": "-87.79436281", "latitude": "41.83342484", "phone": null, "website_url": "http://www.flapjackbrewery.com", "state": "Illinois", "street": "6833 Stanley Ave"}, {"id": "25cc1e54-693a-45a3-827c-337684e1ced7", "name": "Flat 12 Bierwerks", "brewery_type": "micro", "address_1": "414 Dorman St", "address_2": null, "address_3": null, "city": "Indianapolis", "state_province": "Indiana", "postal_code": "46202-3648", "country": "United States", "longitude": "-86.13847", "latitude": "39.77261486", "phone": "3174265851", "website_url": "http://www.flat12.me", "state": "Indiana", "street": "414 Dorman St"}, {"id": "6037fc17-102b-4137-9197-446eb6fd511d", "name": "Flat Branch Pub and Brewing", "brewery_type": "brewpub", "address_1": "115 S 5th St", "address_2": null, "address_3": null, "city": "Columbia", "state_province": "Missouri", "postal_code": "65201-4230", "country": "United States", "longitude": "-92.33196896", "latitude": "38.95030013", "phone": "5734990400", "website_url": "http://www.flatbranch.com", "state": "Missouri", "street": "115 S 5th St"}, {"id": "9a0b7dcc-f027-4812-8c83-ede412316a89", "name": "Flat Earth Brewing Co", "brewery_type": "micro", "address_1": "688 Minnehaha Ave E", "address_2": null, "address_3": null, "city": "Saint Paul", "state_province": "Minnesota", "postal_code": "55106-4462", "country": "United States", "longitude": "-93.07042082", "latitude": "44.96294245", "phone": "6516981945", "website_url": "http://www.flatearthbrewing.com", "state": "Minnesota", "street": "688 Minnehaha Ave E"}, {"id": "d4094e29-6940-41de-af54-c63b9e6f69cc", "name": "Flat Fish Brewing", "brewery_type": "micro", "address_1": "126 N Wood Rd Ste 104", "address_2": null, "address_3": null, "city": "Camarillo", "state_province": "California", "postal_code": "93010-8334", "country": "United States", "longitude": "-119.0954656", "latitude": "34.21805471", "phone": "8054849600", "website_url": "http://www.flatfishbrewing.com", "state": "California", "street": "126 N Wood Rd Ste 104"}, {"id": "90ed6777-3f0f-43d0-80e4-0e9c6a6b62b4", "name": "Flat Tail Brewing Co", "brewery_type": "brewpub", "address_1": "202 SW 1st St", "address_2": null, "address_3": null, "city": "Corvallis", "state_province": "Oregon", "postal_code": "97333-4727", "country": "United States", "longitude": "-123.2598775", "latitude": "44.56196237", "phone": "5417582229", "website_url": "http://www.flattailcorvallis.com", "state": "Oregon", "street": "202 SW 1st St"}, {"id": "b5d72612-a3e3-414b-9242-170a6bccdbea", "name": "Flat Top Mountain Brewery", "brewery_type": "micro", "address_1": "567 Main St E", "address_2": null, "address_3": null, "city": "Banner Elk", "state_province": "North Carolina", "postal_code": "28604-8974", "country": "United States", "longitude": "-81.86657602", "latitude": "36.16510256", "phone": "8288988677", "website_url": "http://www.flattopbrew.com", "state": "North Carolina", "street": "567 Main St E"}, {"id": "b44fb73c-740e-4d66-bf6e-650b1c76d0c2", "name": "Flathead Lake Brewing Co", "brewery_type": "micro", "address_1": "116 Holt Dr Ste B", "address_2": null, "address_3": null, "city": "Bigfork", "state_province": "Montana", "postal_code": "59911-3707", "country": "United States", "longitude": null, "latitude": null, "phone": "4068370085", "website_url": "http://www.flatheadlakebrewing.com", "state": "Montana", "street": "116 Holt Dr Ste B"}, {"id": "a1cc7311-aba0-4376-96e2-c46a8b82103e", "name": "Flathead Lake Brewing Co - Production Only", "brewery_type": "micro", "address_1": null, "address_2": null, "address_3": null, "city": "Bigfork", "state_province": "Montana", "postal_code": "59911-8484", "country": "United States", "longitude": null, "latitude": null, "phone": "4068370085", "website_url": "http://www.flatheadlakebrewing.com", "state": "Montana", "street": null}, {"id": "0999dab4-ac44-4694-8acf-e9e50d95cb92", "name": "Flatland Brewery", "brewery_type": "closed", "address_1": "3140 Bluestem Dr, Ste 105", "address_2": null, "address_3": null, "city": "West Fargo", "state_province": "North Dakota", "postal_code": "58078-8009", "country": "United States", "longitude": "-96.88473642", "latitude": "46.8342508", "phone": "7013531178", "website_url": "http://www.flatlandbrewery.com", "state": "North Dakota", "street": "3140 Bluestem Dr, Ste 105"}, {"id": "408a9e62-ae9a-4082-8c05-35c250f5239a", "name": "Flatland Brewing Company", "brewery_type": "micro", "address_1": "9183 Survey Rd Ste 104", "address_2": null, "address_3": null, "city": "Elk Grove", "state_province": "California", "postal_code": "95624-9712", "country": "United States", "longitude": "-121.3567686", "latitude": "38.37684711", "phone": "9167533116", "website_url": "http://www.flatlandbrewingco.com", "state": "California", "street": "9183 Survey Rd Ste 104"}, {"id": "adf91e10-69dd-4901-b617-d915d4d24bbe", "name": "Flatrock Brewery", "brewery_type": "micro", "address_1": "621 N Perry St", "address_2": null, "address_3": null, "city": "Napoleon", "state_province": "Ohio", "postal_code": "43545-1701", "country": "United States", "longitude": "-84.1245567", "latitude": "41.39090717", "phone": "4199661440", "website_url": "http://www.flatrockbrewery.com", "state": "Ohio", "street": "621 N Perry St"}, {"id": "9521ea9c-c1db-445a-8d7e-5d2ea433608a", "name": "Flesk Brewing", "brewery_type": "micro", "address_1": "200 Applebee St Ste E", "address_2": null, "address_3": null, "city": "Barrington", "state_province": "Illinois", "postal_code": "60010-3063", "country": "United States", "longitude": null, "latitude": null, "phone": "2246557291", "website_url": "http://www.fleskbrewing.com", "state": "Illinois", "street": "200 Applebee St Ste E"}, {"id": "df8780b1-b209-4209-a33f-ffbcaeab4cca", "name": "Fleur De Lis Brew Works", "brewery_type": "micro", "address_1": "3630 State Route 414", "address_2": null, "address_3": null, "city": "Seneca Falls", "state_province": "New York", "postal_code": "13148-9202", "country": "United States", "longitude": null, "latitude": null, "phone": "3156513260", "website_url": "http://www.fleurdelisbrewworks.com", "state": "New York", "street": "3630 State Route 414"}, {"id": "ef4a200b-134c-422f-94c1-8564116b05b9", "name": "Flight Deck Brewing", "brewery_type": "micro", "address_1": "11 Atlantic Dr", "address_2": null, "address_3": null, "city": "Brunswick", "state_province": "Maine", "postal_code": "04011-4400", "country": "United States", "longitude": null, "latitude": null, "phone": "2075045133", "website_url": "http://www.flightdeckbrewing.com", "state": "Maine", "street": "11 Atlantic Dr"}, {"id": "d339cf65-cab2-4797-9e89-0c2e8bf3e3fb", "name": "Flix Brewhouse", "brewery_type": "brewpub", "address_1": "2206 E 116th St", "address_2": null, "address_3": null, "city": "Carmel", "state_province": "Indiana", "postal_code": "46032-3215", "country": "United States", "longitude": "-86.0897644", "latitude": "39.9567195", "phone": "5122442739", "website_url": null, "state": "Indiana", "street": "2206 E 116th St"}, {"id": "134bb873-9fc1-4065-b516-2598450f49e3", "name": "Flix Brewhouse", "brewery_type": "brewpub", "address_1": "3800 Merle Hay Rd", "address_2": null, "address_3": null, "city": "Des Moines", "state_province": "Iowa", "postal_code": "50310-1305", "country": "United States", "longitude": "-93.6997831", "latitude": "41.6306427", "phone": "5122442739", "website_url": null, "state": "Iowa", "street": "3800 Merle Hay Rd"}, {"id": "fe89aa40-9b5d-4cb2-a8e9-54de1ec11c15", "name": "Flix Brewhouse", "brewery_type": "brewpub", "address_1": "3236 La Orilla Rd NW", "address_2": null, "address_3": null, "city": "Albuquerque", "state_province": "New Mexico", "postal_code": "87120-2630", "country": "United States", "longitude": "-106.6815896", "latitude": "35.15878955", "phone": "5054458500", "website_url": null, "state": "New Mexico", "street": "3236 La Orilla Rd NW"}, {"id": "741bf3b8-3278-497f-a3f7-2efd0cc112f8", "name": "Flix Brewhouse", "brewery_type": "micro", "address_1": "2000 S Interstate 35 Ste B1", "address_2": null, "address_3": null, "city": "Round Rock", "state_province": "Texas", "postal_code": "78681-6900", "country": "United States", "longitude": null, "latitude": null, "phone": "5122442739", "website_url": "http://www.flixbrewhouse.com", "state": "Texas", "street": "2000 S Interstate 35 Ste B1"}, {"id": "4e40d1be-52b1-4e69-b6cb-cb6391b08d71", "name": "Flix Brewhouse - Frisco/Little Elm", "brewery_type": "micro", "address_1": null, "address_2": null, "address_3": null, "city": "Frisco", "state_province": "Texas", "postal_code": "75033", "country": "United States", "longitude": null, "latitude": null, "phone": "5122442739", "website_url": null, "state": "Texas", "street": null}, {"id": "089aef1f-a14e-43bf-84c4-9df503dc637d", "name": "Flix Brewhouse - Madison", "brewery_type": "brewpub", "address_1": "85 East Towne Mall", "address_2": null, "address_3": null, "city": "Madison", "state_province": "Wisconsin", "postal_code": "53704", "country": "United States", "longitude": "-89.3040968", "latitude": "43.1283021", "phone": "5122442739", "website_url": null, "state": "Wisconsin", "street": "85 East Towne Mall"}, {"id": "73c24a7a-a78f-4958-93b0-ff937ab9bf37", "name": "Floating Bridge Brewing", "brewery_type": "micro", "address_1": "722 NE 45th St", "address_2": null, "address_3": null, "city": "Seattle", "state_province": "Washington", "postal_code": "98105-4719", "country": "United States", "longitude": "-122.3198017", "latitude": "47.6615295", "phone": "2064664784", "website_url": "http://www.floatingbridgebrewing.com", "state": "Washington", "street": "722 NE 45th St"}, {"id": "208f5a9e-de1f-4af8-a959-49ee229284d0", "name": "Floodland Brewing", "brewery_type": "micro", "address_1": "3806 Woodland Park Ave North Suite 100", "address_2": null, "address_3": null, "city": "Seattle", "state_province": "Washington", "postal_code": "98103", "country": "United States", "longitude": null, "latitude": null, "phone": "2064862854", "website_url": "http://www.floodlandbrewing.com", "state": "Washington", "street": "3806 Woodland Park Ave North Suite 100"}, {"id": "40b4dc42-bfdc-42a7-b225-7046aa6e1648", "name": "Floodstage Ale Works", "brewery_type": "brewpub", "address_1": "170 S Main St", "address_2": null, "address_3": null, "city": "Brighton", "state_province": "Colorado", "postal_code": "80601-1611", "country": "United States", "longitude": "-104.8221009", "latitude": "39.98456564", "phone": "3036547972", "website_url": "http://www.floodstagealeworks.com", "state": "Colorado", "street": "170 S Main St"}, {"id": "919330f5-af85-4dee-9277-d0189c3cc480", "name": "Florence Brewing Company", "brewery_type": "micro", "address_1": "200 S Pikes Peak Ave", "address_2": null, "address_3": null, "city": "Florence", "state_province": "Colorado", "postal_code": "81226-1433", "country": "United States", "longitude": "-105.1177755", "latitude": "38.3899222", "phone": "7197847441", "website_url": "http://www.florencebrewing.com", "state": "Colorado", "street": "200 S Pikes Peak Ave"}, {"id": "4748ee56-1199-47ee-87c2-2d9d9250885f", "name": "Florida Beer Co", "brewery_type": "regional", "address_1": "200 Imperial Blvd", "address_2": null, "address_3": null, "city": "Cape Canaveral", "state_province": "Florida", "postal_code": "32920-4245", "country": "United States", "longitude": "-80.611259", "latitude": "28.398461", "phone": "3217284114", "website_url": "http://www.floridabeer.com", "state": "Florida", "street": "200 Imperial Blvd"}, {"id": "3f4ffaca-b98e-4ebf-b3f2-35b218ad9f51", "name": "Florida Keys Brewing Co.", "brewery_type": "micro", "address_1": null, "address_2": null, "address_3": null, "city": "Islamorada", "state_province": "Florida", "postal_code": "33036", "country": "United States", "longitude": null, "latitude": null, "phone": null, "website_url": "http://www.floridakeysbrewingco.com", "state": "Florida", "street": null}, {"id": "01018209-3f1d-45f1-8848-a8d116f6884d", "name": "Flossmoor Station Brewing Co", "brewery_type": "brewpub", "address_1": "1035 Sterling Ave", "address_2": null, "address_3": null, "city": "Flossmoor", "state_province": "Illinois", "postal_code": "60422-1252", "country": "United States", "longitude": "-87.67869465", "latitude": "41.54338855", "phone": "7089572739", "website_url": "http://www.flossmoorstation.com", "state": "Illinois", "street": "1035 Sterling Ave"}, {"id": "27954ed4-72d5-47b8-8a2e-c88cc428cc6f", "name": "Flounder Brewing Co", "brewery_type": "micro", "address_1": "1 Ilene Ct Ste 8 Ste 16", "address_2": null, "address_3": null, "city": "Hillsborough", "state_province": "New Jersey", "postal_code": "08844-1916", "country": "United States", "longitude": null, "latitude": null, "phone": "9083966166", "website_url": "http://www.flounderbrewing.com", "state": "New Jersey", "street": "1 Ilene Ct Ste 8 Ste 16"}, {"id": "524c2b94-6f03-405e-86e8-6331c55b2775", "name": "Floyd County Brewing Company", "brewery_type": "brewpub", "address_1": "129 W Main St", "address_2": null, "address_3": null, "city": "New Albany", "state_province": "Indiana", "postal_code": "47150-5958", "country": "United States", "longitude": "-85.82429754", "latitude": "38.28289885", "phone": "4705882337", "website_url": "http://www.floydcountybrewing.com", "state": "Indiana", "street": "129 W Main St"}, {"id": "f80dcefb-bbb4-4a31-ac13-be85108c31f3", "name": "FlyBoy Brewing", "brewery_type": "closed", "address_1": "15630 Boones Ferry Rd Ste 1A", "address_2": null, "address_3": null, "city": "Lake Oswego", "state_province": "Oregon", "postal_code": "97035-3455", "country": "United States", "longitude": "-122.7165", "latitude": "45.41274998", "phone": "5039081281", "website_url": "http://www.flyboybeer.com", "state": "Oregon", "street": "15630 Boones Ferry Rd Ste 1A"}, {"id": "295b8a48-f12c-4f0c-8762-405a83a1b6e6", "name": "FlyBoy Brewing", "brewery_type": "micro", "address_1": "15230 SW Sequoia Parkway", "address_2": null, "address_3": null, "city": "Tigard", "state_province": "Oregon", "postal_code": "97224", "country": "United States", "longitude": "-122.7458813", "latitude": "45.41087854", "phone": "9713170137", "website_url": "http://www.flyboybrewing.com", "state": "Oregon", "street": "15230 SW Sequoia Parkway"}, {"id": "83987247-12ba-49f6-b677-6b28384d3c9d", "name": "Flycaster Brewing Co.", "brewery_type": "closed", "address_1": "12815 NE 124th St Ste I", "address_2": null, "address_3": null, "city": "Kirkland", "state_province": "Washington", "postal_code": "98034-8313", "country": "United States", "longitude": "-122.169021", "latitude": "47.711115", "phone": "2069636626", "website_url": "https://flycasterbrewing.com", "state": "Washington", "street": "12815 NE 124th St Ste I"}, {"id": "60dbcce5-f754-4a42-ac63-e3a246b7a0fb", "name": "Flyers Restaurant and Brewery", "brewery_type": "brewpub", "address_1": "32295 State Route 20", "address_2": null, "address_3": null, "city": "Oak Harbor", "state_province": "Washington", "postal_code": "98277-5923", "country": "United States", "longitude": "-122.6528474", "latitude": "48.2991197", "phone": "3606755858", "website_url": "http://www.eatatflyers.com", "state": "Washington", "street": "32295 State Route 20"}, {"id": "aecbe0a5-c680-45a0-b1dd-8bf5b04d9f3a", "name": "Flying Basset Brewing", "brewery_type": "brewpub", "address_1": "720 W Ray Rd", "address_2": null, "address_3": null, "city": "Gilbert", "state_province": "Arizona", "postal_code": "85233", "country": "United States", "longitude": "-111.8054389", "latitude": "33.32098148", "phone": "4804261373", "website_url": "http://www.flyingbassetbrewing.com", "state": "Arizona", "street": "720 W Ray Rd"}, {"id": "64596f88-a3f9-4d17-a51d-848b004ae4a1", "name": "Flying Belgian Brewery", "brewery_type": "micro", "address_1": "211 Main St", "address_2": null, "address_3": null, "city": "Farmingdale", "state_province": "New York", "postal_code": "11735-2675", "country": "United States", "longitude": "-73.44588651", "latitude": "40.73359788", "phone": "8184577548", "website_url": "http://www.flyingbelgianbrewery.com", "state": "New York", "street": "211 Main St"}, {"id": "c8b11b14-e5ba-401d-accb-d3c74a54c98e", "name": "Flying Bike Cooperative Brewery", "brewery_type": "micro", "address_1": "8570 Greenwood Ave N", "address_2": null, "address_3": null, "city": "Seattle", "state_province": "Washington", "postal_code": "98103-3614", "country": "United States", "longitude": "-122.3550721", "latitude": "47.6920561", "phone": "2064287709", "website_url": "http://www.flyingbike.coop", "state": "Washington", "street": "8570 Greenwood Ave N"}, {"id": "891b1209-e442-48c6-ac73-6cdae5cc128a", "name": "Flying Bison Brewing Co", "brewery_type": "micro", "address_1": "840 Seneca St", "address_2": null, "address_3": null, "city": "Buffalo", "state_province": "New York", "postal_code": "14210-1414", "country": "United States", "longitude": "-78.8458326", "latitude": "42.8758185", "phone": "7168731557", "website_url": "http://www.flyingbisonbrewing.com", "state": "New York", "street": "840 Seneca St"}, {"id": "f8575860-7e83-4dee-9625-b2819c053973", "name": "Flying Boat Brewing Company", "brewery_type": "micro", "address_1": "1776 11th Ave N", "address_2": null, "address_3": null, "city": "St Petersburg", "state_province": "Florida", "postal_code": "33713-5747", "country": "United States", "longitude": "-82.65719969", "latitude": "27.78284571", "phone": "7278002999", "website_url": "http://www.flyingboatbrewing.com", "state": "Florida", "street": "1776 11th Ave N"}, {"id": "e2b339ba-8984-497a-ba6b-91882dec1515", "name": "Flying Dog Brewery", "brewery_type": "regional", "address_1": "4607 Wedgewood Blvd", "address_2": null, "address_3": null, "city": "Frederick", "state_province": "Maryland", "postal_code": "21703-7120", "country": "United States", "longitude": "-77.42679107", "latitude": "39.3628322", "phone": "3016947899", "website_url": "http://www.flyingdogbrewery.com", "state": "Maryland", "street": "4607 Wedgewood Blvd"}, {"id": "942a943c-ddf3-4a7c-984b-2176a1ba8834", "name": "Flying Dreams Brewing Co.", "brewery_type": "micro", "address_1": "455B Park Ave", "address_2": null, "address_3": null, "city": "Worcester", "state_province": "Massachusetts", "postal_code": "01610", "country": "United States", "longitude": "-71.82618857", "latitude": "42.25419957", "phone": "5089268251", "website_url": "http://www.flyingdreamsbrewing.com", "state": "Massachusetts", "street": "455B Park Ave"}, {"id": "d2a781ba-48b3-4a49-8202-cafdde5fbd8d", "name": "Flying Fish Brewing Co", "brewery_type": "regional", "address_1": "900 Kennedy Blvd", "address_2": null, "address_3": null, "city": "Somerdale", "state_province": "New Jersey", "postal_code": "08083-1031", "country": "United States", "longitude": "-75.02089526", "latitude": "39.85394176", "phone": "8565043442", "website_url": "http://www.flyingfish.com", "state": "New Jersey", "street": "900 Kennedy Blvd"}, {"id": "3e264584-4208-4f8f-afcf-caa974679c1d", "name": "Flying Goose Brewpub", "brewery_type": "brewpub", "address_1": "40 Andover Rd", "address_2": null, "address_3": null, "city": "New London", "state_province": "New Hampshire", "postal_code": "03257-5901", "country": "United States", "longitude": null, "latitude": null, "phone": "6035266899", "website_url": "http://www.flyinggoose.com", "state": "New Hampshire", "street": "40 Andover Rd"}, {"id": "230482be-8886-42e9-b6ae-25948beba74c", "name": "Flying Heart Brewing", "brewery_type": "micro", "address_1": "700 Barksdale Blvd", "address_2": null, "address_3": null, "city": "Bossier City", "state_province": "Louisiana", "postal_code": "71111-4502", "country": "United States", "longitude": "-93.732075", "latitude": "32.515706", "phone": "3183448775", "website_url": "http://www.flyingheartbrewing.com", "state": "Louisiana", "street": "700 Barksdale Blvd"}, {"id": "f803556e-bc5e-4ce2-b4c0-197818963520", "name": "Flying Lion Brewing", "brewery_type": "micro", "address_1": "5041 Rainier Ave S Ste 106", "address_2": null, "address_3": null, "city": "Seattle", "state_province": "Washington", "postal_code": "98118-1946", "country": "United States", "longitude": "-122.2840136", "latitude": "47.5560348", "phone": "2066599912", "website_url": "http://www.flyinglionbrewing.com", "state": "Washington", "street": "5041 Rainier Ave S Ste 106"}, {"id": "277143dd-a012-4650-9ab5-603a9b5afe5c", "name": "Flying Machine Brewing Company", "brewery_type": "planning", "address_1": null, "address_2": null, "address_3": null, "city": "Wilmington", "state_province": "North Carolina", "postal_code": "28403", "country": "United States", "longitude": null, "latitude": null, "phone": null, "website_url": "http://www.facebook.com/flyingmachinebrewing", "state": "North Carolina", "street": null}, {"id": "7095f8fc-bb6c-4bd3-88e2-b4900e0ceee0", "name": "Flying Man Brewing Company", "brewery_type": "micro", "address_1": "2400 Patterson Industrial", "address_2": null, "address_3": null, "city": "Austin", "state_province": "Texas", "postal_code": "78660", "country": "United States", "longitude": null, "latitude": null, "phone": "5129104099", "website_url": "http://www.flyingmanbrewing.com", "state": "Texas", "street": "2400 Patterson Industrial"}, {"id": "5bb89793-bf00-4a2b-81a5-4bba78134e12", "name": "Flying Mouse Brewery", "brewery_type": "micro", "address_1": "221 Precast Way", "address_2": null, "address_3": null, "city": "Troutville", "state_province": "Virginia", "postal_code": "24175-6099", "country": "United States", "longitude": null, "latitude": null, "phone": null, "website_url": null, "state": "Virginia", "street": "221 Precast Way"}, {"id": "5714fc64-53b8-45a0-98a6-c93575828a92", "name": "Flying Rhino Brewing Company", "brewery_type": "planning", "address_1": null, "address_2": null, "address_3": null, "city": "Houston", "state_province": "Texas", "postal_code": "77077-6108", "country": "United States", "longitude": null, "latitude": null, "phone": "8326510114", "website_url": "http://flyingrhinobrewing.com/", "state": "Texas", "street": null}, {"id": "220b8569-7203-42e3-8c6a-1565f5ba0f2f", "name": "Flying Tiger Brewery", "brewery_type": "micro", "address_1": "506 N 2nd St", "address_2": null, "address_3": null, "city": "Monroe", "state_province": "Louisiana", "postal_code": "71201-6234", "country": "United States", "longitude": "-92.11970662", "latitude": "32.50586475", "phone": "3185471738", "website_url": "http://www.flyingtigerbeer.com", "state": "Louisiana", "street": "506 N 2nd St"}, {"id": "d4af7a8e-f8de-40e8-91cd-b09c827fe215", "name": "Flyover Brewing Co", "brewery_type": "brewpub", "address_1": "1824 Broadway", "address_2": null, "address_3": null, "city": "Scottsbluff", "state_province": "Nebraska", "postal_code": "69361-2458", "country": "United States", "longitude": "-103.6629749", "latitude": "41.8651034", "phone": "3085750335", "website_url": "https://www.flyoverbrewingcompany.com", "state": "Nebraska", "street": "1824 Broadway"}, {"id": "56790b8f-beb7-4218-92cf-82cfbcd04b7e", "name": "Flytrap Brewing", "brewery_type": "micro", "address_1": "319 Walnut St", "address_2": null, "address_3": null, "city": "Wilmington", "state_province": "North Carolina", "postal_code": "28401-4051", "country": "United States", "longitude": "-77.94545788", "latitude": "34.24034335", "phone": "9107692881", "website_url": "http://flytrapbrewing.com", "state": "North Carolina", "street": "319 Walnut St"}, {"id": "da405a76-eb2d-423c-8d17-04d21b76369a", "name": "Flyway Brewing Co", "brewery_type": "brewpub", "address_1": "314 Maple St", "address_2": null, "address_3": null, "city": "North Little Rock", "state_province": "Arkansas", "postal_code": "72114-5334", "country": "United States", "longitude": null, "latitude": null, "phone": "5018123192", "website_url": null, "state": "Arkansas", "street": "314 Maple St"}, {"id": "6d87f606-4479-4425-9427-9b592808ad32", "name": "Flywheel Brewing Company", "brewery_type": "micro", "address_1": "218 S Mulberry St Ste 103", "address_2": null, "address_3": null, "city": "Elizabethtown", "state_province": "Kentucky", "postal_code": "42701-1431", "country": "United States", "longitude": null, "latitude": null, "phone": null, "website_url": "http://www.flywheelbrewing.com", "state": "Kentucky", "street": "218 S Mulberry St Ste 103"}, {"id": "3567b09e-51e3-4f69-8666-8a3ff46d405b", "name": "Foam Brewers", "brewery_type": "micro", "address_1": "112 Lake St", "address_2": null, "address_3": null, "city": "Burlington", "state_province": "Vermont", "postal_code": "05401-5284", "country": "United States", "longitude": "-73.2200287", "latitude": "44.4793121", "phone": "8023992511", "website_url": "http://www.foambrewers.com", "state": "Vermont", "street": "112 Lake St"}, {"id": "82abc19c-6022-4115-9e8e-62e33cd353c1", "name": "Fogbelt Brewing Co", "brewery_type": "brewpub", "address_1": "1305 Cleveland Ave", "address_2": null, "address_3": null, "city": "Santa Rosa", "state_province": "California", "postal_code": "95401-4211", "country": "United States", "longitude": "-122.7266079", "latitude": "38.4490004", "phone": "7079783400", "website_url": "http://www.fogbeltbrewing.com", "state": "California", "street": "1305 Cleveland Ave"}, {"id": "287dfebf-9ff0-4fab-b98d-720e0d7816ef", "name": "Foggy Noggin Brewing", "brewery_type": "micro", "address_1": "22329 53rd Ave SE", "address_2": null, "address_3": null, "city": "Bothell", "state_province": "Washington", "postal_code": "98021-8017", "country": "United States", "longitude": "-122.161117", "latitude": "47.794727", "phone": "2065539223", "website_url": "http://www.foggynogginbrewing.com", "state": "Washington", "street": "22329 53rd Ave SE"}, {"id": "529f1fc8-2f98-43d1-b8b1-897a324ea20c", "name": "Fogtown Brewing Company", "brewery_type": "micro", "address_1": "25 Pine St", "address_2": null, "address_3": null, "city": "Ellsworth", "state_province": "Maine", "postal_code": "04605-2023", "country": "United States", "longitude": "-68.42259791", "latitude": "44.5408544", "phone": "6103897224", "website_url": "http://www.fogtownbrewing.com", "state": "Maine", "street": "25 Pine St"}, {"id": "87b318f5-5c45-4e21-b577-5389e650453a", "name": "Foley Brothers Brewing Co.", "brewery_type": "micro", "address_1": "79 Stone Mill Dam Rd", "address_2": null, "address_3": null, "city": "Brandon", "state_province": "Vermont", "postal_code": "05733-8945", "country": "United States", "longitude": null, "latitude": null, "phone": "8024658413", "website_url": null, "state": "Vermont", "street": "79 Stone Mill Dam Rd"}, {"id": "c5444860-29b6-491f-b5b6-a5b598fd5d2c", "name": "Folklore Brewing", "brewery_type": "micro", "address_1": "153 Mary Lou Ln", "address_2": null, "address_3": null, "city": "Dothan", "state_province": "Alabama", "postal_code": "36301-9521", "country": "United States", "longitude": null, "latitude": null, "phone": "3347022337", "website_url": "http://www.folklorebrewing.com", "state": "Alabama", "street": "153 Mary Lou Ln"}, {"id": "231bb644-13a6-4731-b570-459ba212b3f9", "name": "Folksbier", "brewery_type": "regional", "address_1": "101 Luquer St # 103", "address_2": null, "address_3": null, "city": "Brooklyn", "state_province": "New York", "postal_code": "11231-3308", "country": "United States", "longitude": "-74.00099132", "latitude": "40.6779358", "phone": null, "website_url": "http://www.folksbier.com", "state": "New York", "street": "101 Luquer St # 103"}, {"id": "a33083eb-89f0-465e-979f-4990cccb47dd", "name": "Folsom Brewery", "brewery_type": "planning", "address_1": null, "address_2": null, "address_3": null, "city": "Folsom", "state_province": "Louisiana", "postal_code": "70437-", "country": "United States", "longitude": null, "latitude": null, "phone": "9853737631", "website_url": null, "state": "Louisiana", "street": null}, {"id": "4ef2a5c4-c562-4405-acd7-c57dd4d2d6ac", "name": "Fonta Flora Brewery", "brewery_type": "micro", "address_1": "317 N Green St", "address_2": null, "address_3": null, "city": "Morganton", "state_province": "North Carolina", "postal_code": "28655-3324", "country": "United States", "longitude": "-81.69093777", "latitude": "35.7476204", "phone": "8284750153", "website_url": "http://www.fontaflora.com", "state": "North Carolina", "street": "317 N Green St"}, {"id": "7a8a42df-2b2b-4f6e-8b53-b2fabccc25a1", "name": "Fonta Flora Brewery At Whipoorwill Farm", "brewery_type": "micro", "address_1": "6751 NC HWY 126", "address_2": null, "address_3": null, "city": "Nebo", "state_province": "North Carolina", "postal_code": "28761", "country": "United States", "longitude": null, "latitude": null, "phone": "8284750153", "website_url": null, "state": "North Carolina", "street": "6751 NC HWY 126"}, {"id": "3e01b66a-8c7c-41f1-aa78-d019fe805ce7", "name": "Foolproof Brewing Company", "brewery_type": "micro", "address_1": "241 Grotto Ave", "address_2": null, "address_3": null, "city": "Pawtucket", "state_province": "Rhode Island", "postal_code": "02860-3403", "country": "United States", "longitude": "-71.41017837", "latitude": "41.86939069", "phone": "4017215970", "website_url": "http://www.foolproofbrewing.com", "state": "Rhode Island", "street": "241 Grotto Ave"}]