[{"id": "4435d82d-70bf-4e0d-90df-d9b849ed8931", "name": "Walter Station Brewery", "brewery_type": "planning", "address_1": null, "address_2": null, "address_3": null, "city": "Phoenix", "state_province": "Arizona", "postal_code": "85034-1820", "country": "United States", "longitude": "-112.0773456", "latitude": "33.4485866", "phone": "2674216316", "website_url": "http://www.walterstation.beer", "state": "Arizona", "street": null}, {"id": "1b75785d-e64b-4c39-bc06-8650d653e2a6", "name": "Waltz Brewing", "brewery_type": "micro", "address_1": "1900 A St", "address_2": null, "address_3": null, "city": "Forest Grove", "state_province": "Oregon", "postal_code": "97116-2303", "country": "United States", "longitude": "-123.1142562", "latitude": "45.5185238", "phone": "5038966057", "website_url": "http://www.waltzbrewing.com", "state": "Oregon", "street": "1900 A St"}, {"id": "b93629ce-5fd4-407e-88dc-af339c012b2e", "name": "Wander Brewing", "brewery_type": "micro", "address_1": "1807 Dean Ave", "address_2": null, "address_3": null, "city": "Bellingham", "state_province": "Washington", "postal_code": "98225-4616", "country": "United States", "longitude": "-122.4737559", "latitude": "48.75410947", "phone": "3606476152", "website_url": "http://www.wanderbrewing.com", "state": "Washington", "street": "1807 Dean Ave"}, {"id": "4bf53592-21c4-46b8-96a8-595144ed971d", "name": "Wandering Griffin", "brewery_type": "planning", "address_1": null, "address_2": null, "address_3": null, "city": "Beavercreek", "state_province": "Ohio", "postal_code": "45324-9095", "country": "United States", "longitude": null, "latitude": null, "phone": "9379565216", "website_url": "http://www.wanderinggriffin.com", "state": "Ohio", "street": null}, {"id": "e4889e72-ac10-44c1-8dc8-ede75496a898", "name": "Wandering Hop Brewery", "brewery_type": "micro", "address_1": "508 N 20th Ave", "address_2": null, "address_3": null, "city": "Yakima", "state_province": "Washington", "postal_code": "98902-1839", "country": "United States", "longitude": "-120.5356617", "latitude": "46.60627214", "phone": "5099018011", "website_url": "http://www.wanderinghop.com", "state": "Washington", "street": "508 N 20th Ave"}, {"id": "60cc92dc-9216-4fff-81cf-24d84adfe8aa", "name": "Wandering Star Brewing Co", "brewery_type": "micro", "address_1": "11 Gifford St", "address_2": null, "address_3": null, "city": "Pittsfield", "state_province": "Massachusetts", "postal_code": "01201-3701", "country": "United States", "longitude": "-73.21202303", "latitude": "42.45706449", "phone": "9175733942", "website_url": "http://www.wanderingstarbrewing.com", "state": "Massachusetts", "street": "11 Gifford St"}, {"id": "97442f4a-e025-4be1-b523-20b48e48e0b2", "name": "WanderLinger Brewing Co", "brewery_type": "planning", "address_1": null, "address_2": null, "address_3": null, "city": "Chattanooga", "state_province": "Tennessee", "postal_code": "37403-4331", "country": "United States", "longitude": null, "latitude": null, "phone": "6156535407", "website_url": "http://www.wanderlinger.com", "state": "Tennessee", "street": null}, {"id": "4c4bc3c0-81f1-483c-831f-64994ae72105", "name": "Wanderlust Brewing Company", "brewery_type": "micro", "address_1": "1519 N Main St Ste 102", "address_2": null, "address_3": null, "city": "Flagstaff", "state_province": "Arizona", "postal_code": "86004-4970", "country": "United States", "longitude": null, "latitude": null, "phone": "9283517952", "website_url": "http://www.wanderlustbrewing.com", "state": "Arizona", "street": "1519 N Main St Ste 102"}, {"id": "fe1a5d83-f9d0-4f80-9e0e-5553442a99a5", "name": "War Flag Brewing Co", "brewery_type": "proprietor", "address_1": "649 Morgan Ave Ste B16-5", "address_2": null, "address_3": null, "city": "Brooklyn", "state_province": "New York", "postal_code": "11222-3940", "country": "United States", "longitude": null, "latitude": null, "phone": "6466968096", "website_url": "http://www.warflag.nyc", "state": "New York", "street": "649 Morgan Ave Ste B16-5"}, {"id": "760e1abe-0311-49a4-b025-893d6da40335", "name": "War Horse Brewing Company", "brewery_type": "brewpub", "address_1": "623 Lerch Rd Ste 5", "address_2": null, "address_3": null, "city": "Geneva", "state_province": "New York", "postal_code": "14456-9295", "country": "United States", "longitude": null, "latitude": null, "phone": "3155854432", "website_url": "http://www.3brotherswinery.com", "state": "New York", "street": "623 Lerch Rd Ste 5"}, {"id": "86ac6974-4c49-4e84-8d51-47f97fda5ac4", "name": "WAR WATER BREWERY", "brewery_type": "brewpub", "address_1": "201 N Riverside Ave Ste C1-11", "address_2": null, "address_3": null, "city": "Saint Clair", "state_province": "Michigan", "postal_code": "48079-5498", "country": "United States", "longitude": null, "latitude": null, "phone": "8102893921", "website_url": "http://www.warwaterbrewery.com", "state": "Michigan", "street": "201 N Riverside Ave Ste C1-11"}, {"id": "8f33f7f4-d4af-4252-8db0-3acab330b602", "name": "Ward House Brewery", "brewery_type": "micro", "address_1": "111 Elm Ave W", "address_2": null, "address_3": null, "city": "Waseca", "state_province": "Minnesota", "postal_code": "56093-2433", "country": "United States", "longitude": null, "latitude": null, "phone": null, "website_url": "http://www.wardhousebrewing.com", "state": "Minnesota", "street": "111 Elm Ave W"}, {"id": "d48f7e45-6ea1-45c2-b0a7-c4e60036d903", "name": "Waredaca Brewing Company", "brewery_type": "micro", "address_1": "4017 Damascus Rd", "address_2": null, "address_3": null, "city": "Gaithersburg", "state_province": "Maryland", "postal_code": "20882-2105", "country": "United States", "longitude": null, "latitude": null, "phone": "2404322255", "website_url": "http://www.waredacabrewing.com", "state": "Maryland", "street": "4017 Damascus Rd"}, {"id": "72bfa421-0e54-45a5-877d-3c26cedfae48", "name": "Warehouse Gourmet Bistro & Brew Pub", "brewery_type": "micro", "address_1": "7 Pennsylvania Ave", "address_2": null, "address_3": null, "city": "Hanover", "state_province": "Pennsylvania", "postal_code": "17331-2432", "country": "United States", "longitude": "-76.98976977", "latitude": "39.80232948", "phone": "7174519898", "website_url": "http://www.warehousegourmet.net", "state": "Pennsylvania", "street": "7 Pennsylvania Ave"}, {"id": "c4631ee5-2531-4cce-881f-9232c75002fa", "name": "Warfield Distillery and Brewery", "brewery_type": "brewpub", "address_1": "280 N. Main St.", "address_2": null, "address_3": null, "city": "Ketchum", "state_province": "Idaho", "postal_code": "83340-2759", "country": "United States", "longitude": "-114.36394", "latitude": "43.681482", "phone": "2087262739", "website_url": "http://www.warfielddistillery.com", "state": "Idaho", "street": "280 N. Main St."}, {"id": "12af83ba-36ce-4066-b886-af36123e0644", "name": "Warped Wing Brewing Co", "brewery_type": "micro", "address_1": "26 Wyandot St", "address_2": null, "address_3": null, "city": "Dayton", "state_province": "Ohio", "postal_code": "45402-2145", "country": "United States", "longitude": null, "latitude": null, "phone": "9372227003", "website_url": "http://www.warpedwing.com", "state": "Ohio", "street": "26 Wyandot St"}, {"id": "6401037b-c1b1-42f4-98fa-1189857bc6cc", "name": "WarPigs USA Brewing Co.", "brewery_type": "contract", "address_1": "9750 Indiana Pkwy", "address_2": null, "address_3": null, "city": "Munster", "state_province": "Indiana", "postal_code": "46321-4004", "country": "United States", "longitude": null, "latitude": null, "phone": "2199223565", "website_url": "http://warpigs.com", "state": "Indiana", "street": "9750 Indiana Pkwy"}, {"id": "f1eff6f6-0871-4a67-96b5-4c5815147056", "name": "Wartega", "brewery_type": "micro", "address_1": "33 35th St Unit 6A", "address_2": null, "address_3": null, "city": "Brooklyn", "state_province": "New York", "postal_code": "11232-2210", "country": "United States", "longitude": null, "latitude": null, "phone": "9173971171", "website_url": "http://www.wartega.com", "state": "New York", "street": "33 35th St Unit 6A"}, {"id": "e7ac801e-29e3-4357-89b7-5c1e907f8f81", "name": "Wasatch Brew Pub - Park City", "brewery_type": "micro", "address_1": "250 Main St", "address_2": null, "address_3": null, "city": "Park City", "state_province": "Utah", "postal_code": "84060-5113", "country": "United States", "longitude": "-111.4945836", "latitude": "40.6418424", "phone": "4356490900", "website_url": "http://www.wasatchbeers.com", "state": "Utah", "street": "250 Main St"}, {"id": "bcc3a506-1067-482c-90a4-0979423987d9", "name": "Wasatch Brew Pub - SLC Airport", "brewery_type": "brewpub", "address_1": "2930 W Terminal Dr", "address_2": "Concourse B Level 2", "address_3": null, "city": "Salt Lake City", "state_province": "Utah", "postal_code": "84116", "country": "United States", "longitude": "-111.990646", "latitude": "8411640.789", "phone": "8018839033", "website_url": "https://www.saltlakebrewingco.com/wasatch", "state": "Utah", "street": "2930 W Terminal Dr"}, {"id": "3be60e54-c794-4df5-b7af-cae8e7b5df1e", "name": "Wasatch Brew Pub - Sugarhouse", "brewery_type": "brewpub", "address_1": "2110 S Highland Dr", "address_2": null, "address_3": null, "city": "Salt Lake City", "state_province": "Utah", "postal_code": "84106-2807", "country": "United States", "longitude": "-111.8503182", "latitude": "40.6987539", "phone": "8017831127", "website_url": "http://www.wasatchbeers.com", "state": "Utah", "street": "2110 S Highland Dr"}, {"id": "9b3c11f7-2b67-49b9-98f4-3fecf1d4e6dc", "name": "Washington Brewing Co", "brewery_type": "brewpub", "address_1": "28 E Maiden St", "address_2": null, "address_3": null, "city": "Washington", "state_province": "Pennsylvania", "postal_code": "15301-4912", "country": "United States", "longitude": "-80.02076781", "latitude": "40.07308431", "phone": "7242225050", "website_url": "http://thewashingtonbrewingcompany.com", "state": "Pennsylvania", "street": "28 E Maiden St"}, {"id": "d2f3ee61-b49c-4392-b40c-f35eafab445f", "name": "Wasser Brewing Company", "brewery_type": "brewpub", "address_1": "102 E Franklin St", "address_2": null, "address_3": null, "city": "Greencastle", "state_province": "Indiana", "postal_code": "46135-1220", "country": "United States", "longitude": "-86.86331023", "latitude": "39.64467171", "phone": "7653019363", "website_url": "http://www.wasserbrewing.com", "state": "Indiana", "street": "102 E Franklin St"}, {"id": "a4e4c217-4509-4a3a-a9c1-31e24ada83ae", "name": "Wasserhund Brewing Company", "brewery_type": "brewpub", "address_1": "1805 Laskin Rd Ste 102", "address_2": null, "address_3": null, "city": "Virginia Beach", "state_province": "Virginia", "postal_code": "23454-4553", "country": "United States", "longitude": "-76.02762147", "latitude": "36.849165", "phone": "7573511326", "website_url": "http://www.wasserhundbrewing.com", "state": "Virginia", "street": "1805 Laskin Rd Ste 102"}, {"id": "7290db73-1ca8-48bd-b2a7-2e2d3ee41fc1", "name": "Water Buffalo Brewery", "brewery_type": "micro", "address_1": "136 Russet Rd", "address_2": null, "address_3": null, "city": "Walla Walla", "state_province": "Washington", "postal_code": "99362-8253", "country": "United States", "longitude": "-118.4060748", "latitude": "46.05220327", "phone": "5092407139", "website_url": "http://www.waterbuffalobrewery.com", "state": "Washington", "street": "136 Russet Rd"}, {"id": "0a9c77ee-1b34-4746-8c96-33c22a20d95c", "name": "Water Street Brewery", "brewery_type": "micro", "address_1": "1101 N Water St", "address_2": null, "address_3": null, "city": "Milwaukee", "state_province": "Wisconsin", "postal_code": "53202-3107", "country": "United States", "longitude": "-87.9112223", "latitude": "43.0447248", "phone": "4142721195", "website_url": "http://www.waterstreetbrewery.com", "state": "Wisconsin", "street": "1101 N Water St"}, {"id": "ff58cf5e-a4d6-4cfb-9a20-fc43f8d219fa", "name": "Water Street Brewery - Grafton", "brewery_type": "brewpub", "address_1": "1251 Gateway Dr 143 & Highway 60", "address_2": null, "address_3": null, "city": "Grafton", "state_province": "Wisconsin", "postal_code": "53024-9336", "country": "United States", "longitude": null, "latitude": null, "phone": "2623752222", "website_url": "http://www.waterstreetbrewery.com", "state": "Wisconsin", "street": "1251 Gateway Dr 143 & Highway 60"}, {"id": "8c82cec9-aaad-4f63-acd9-8bd13b1b0f60", "name": "Water Street Brewery - Lake County", "brewery_type": "brewpub", "address_1": "3191 Golf Rd", "address_2": null, "address_3": null, "city": "Delafield", "state_province": "Wisconsin", "postal_code": "53018-2156", "country": "United States", "longitude": null, "latitude": null, "phone": "2626467878", "website_url": "http://www.waterstreetbrewery.com", "state": "Wisconsin", "street": "3191 Golf Rd"}, {"id": "3d232e50-e58a-4343-a372-6885c76c38c0", "name": "Water Street Brewery - Oak Creek", "brewery_type": "brewpub", "address_1": "140 W Town Square Way", "address_2": null, "address_3": null, "city": "Oak Creek", "state_province": "Wisconsin", "postal_code": "53154-6811", "country": "United States", "longitude": "-87.91210007", "latitude": "42.90064865", "phone": "4143015288", "website_url": null, "state": "Wisconsin", "street": "140 W Town Square Way"}, {"id": "7d0c32f8-09a9-4363-944f-3a836c4d8b17", "name": "Water Street Brewing Co", "brewery_type": "brewpub", "address_1": "168 Water St Fl 1", "address_2": null, "address_3": null, "city": "Binghamton", "state_province": "New York", "postal_code": "13901-2736", "country": "United States", "longitude": null, "latitude": null, "phone": "6072174546", "website_url": "http://www.waterstreetbrewingco.com", "state": "New York", "street": "168 Water St Fl 1"}, {"id": "d6e518a0-56f4-49ea-b073-3348d9e25faa", "name": "Water's End Brewery", "brewery_type": "micro", "address_1": "12425 Dillingham Sq", "address_2": null, "address_3": null, "city": "Lake Ridge", "state_province": "Virginia", "postal_code": "22192-5252", "country": "United States", "longitude": "-77.31791007", "latitude": "38.68474967", "phone": "5409075689", "website_url": "http://watersendbrewery.com", "state": "Virginia", "street": "12425 Dillingham Sq"}, {"id": "82cb77d5-b49e-43c4-b604-2ba532006d06", "name": "Waterfront Brewery LLC", "brewery_type": "brewpub", "address_1": "201 William St", "address_2": null, "address_3": null, "city": "Key West", "state_province": "Florida", "postal_code": "33040-6679", "country": "United States", "longitude": "-81.801344", "latitude": "24.561016", "phone": "3054402270", "website_url": "http://www.thewaterfrontbrewery.com", "state": "Florida", "street": "201 William St"}, {"id": "540ec31e-ebbf-40d9-858a-09f23e1ff802", "name": "Waterline Brewing Co.", "brewery_type": "micro", "address_1": "721 Surrey St", "address_2": null, "address_3": null, "city": "Wilmington", "state_province": "North Carolina", "postal_code": "28401-5043", "country": "United States", "longitude": "-77.94884067", "latitude": "34.22609746", "phone": "9107778955", "website_url": "http://www.waterlinebrewing.com", "state": "North Carolina", "street": "721 Surrey St"}, {"id": "e758d0d5-5e1e-4eb5-acfc-d8354602cc19", "name": "Waterman Brewing Company", "brewery_type": "micro", "address_1": "9824 Dino Dr Unit 150", "address_2": null, "address_3": null, "city": "Elk Grove", "state_province": "California", "postal_code": "95624-1277", "country": "United States", "longitude": "-121.3572043", "latitude": "38.40045408", "phone": "9167142337", "website_url": "http://www.watermanbrewing.com", "state": "California", "street": "9824 Dino Dr Unit 150"}, {"id": "02813c09-43d2-4f5e-a098-0b69a1278ca9", "name": "Waterman's Brewing Co", "brewery_type": "brewpub", "address_1": "1610 Pavillion Pl", "address_2": null, "address_3": null, "city": "Wilmington", "state_province": "North Carolina", "postal_code": "28403-3735", "country": "United States", "longitude": null, "latitude": null, "phone": "9108393103", "website_url": "http://www.watermansbrewing.com", "state": "North Carolina", "street": "1610 Pavillion Pl"}, {"id": "309cfb01-0cde-4775-91c6-95e492b5eb4b", "name": "Watermark Brewing Company", "brewery_type": "micro", "address_1": "5781 Saint Joseph Ave", "address_2": null, "address_3": null, "city": "Stevensville", "state_province": "Michigan", "postal_code": "49127-1238", "country": "United States", "longitude": "-86.51963025", "latitude": "42.01286668", "phone": "2692810872", "website_url": "http://www.watermarkbrewing.com", "state": "Michigan", "street": "5781 Saint Joseph Ave"}, {"id": "3a80fe8b-9d4f-43dc-81a9-4145c5132bcb", "name": "Watertown Brewing Company", "brewery_type": "micro", "address_1": "113 E Kemp Ave", "address_2": null, "address_3": null, "city": "Watertown", "state_province": "South Dakota", "postal_code": "57201-3641", "country": "United States", "longitude": "-97.11158716", "latitude": "44.90104997", "phone": "6058782739", "website_url": "http://watertownbrewing.com", "state": "South Dakota", "street": "113 E Kemp Ave"}, {"id": "e2eef525-02a8-47d0-951c-05fead8bcb7d", "name": "Watts Brewing Company", "brewery_type": "micro", "address_1": "19813 51st Ave SE", "address_2": null, "address_3": null, "city": "Bothell", "state_province": "Washington", "postal_code": "98012-7440", "country": "United States", "longitude": null, "latitude": null, "phone": "2066583646", "website_url": "http://www.wattsbrewingcompany.com", "state": "Washington", "street": "19813 51st Ave SE"}, {"id": "7796b50f-6d32-4253-8650-c7c254abba71", "name": "Wavelength Brewing Company", "brewery_type": "micro", "address_1": "236 Main St", "address_2": null, "address_3": null, "city": "Vista", "state_province": "California", "postal_code": "92084-6008", "country": "United States", "longitude": "-117.2418841", "latitude": "33.2028185", "phone": "7608209283", "website_url": "http://www.wavelengthbrewco.com", "state": "California", "street": "236 Main St"}, {"id": "b0b2d8dd-742f-40ab-8b17-fb335084e5bd", "name": "Waverly Brewing Company", "brewery_type": "micro", "address_1": "1625-C Union Ave", "address_2": null, "address_3": null, "city": "Baltimore", "state_province": "Maryland", "postal_code": "21211", "country": "United States", "longitude": null, "latitude": null, "phone": "4434385765", "website_url": "http://www.waverlybrewingcompany.com", "state": "Maryland", "street": "1625-C Union Ave"}, {"id": "3486d742-3bd5-449a-b66e-d3a881c3c103", "name": "Wayfinder Beer", "brewery_type": "brewpub", "address_1": "304 SE 2nd Ave", "address_2": null, "address_3": null, "city": "Portland", "state_province": "Oregon", "postal_code": "97214-1008", "country": "United States", "longitude": "-122.6634881", "latitude": "45.5208914", "phone": "5037182337", "website_url": "http://www.wayfinder.beer", "state": "Oregon", "street": "304 SE 2nd Ave"}, {"id": "8e46e558-55b6-4c93-bf99-2ba3f2ba2a59", "name": "Waypost Brewing Co.", "brewery_type": "planning", "address_1": null, "address_2": null, "address_3": null, "city": "Fennville", "state_province": "Michigan", "postal_code": "49408", "country": "United States", "longitude": null, "latitude": null, "phone": "6169162362", "website_url": "http://waypostbeer.com", "state": "Michigan", "street": null}, {"id": "542d689d-77a4-41ad-9ab6-1f8e8c906b1e", "name": "Wayward Owl Brewing Company", "brewery_type": "micro", "address_1": "3940 Thalia St", "address_2": null, "address_3": null, "city": "New Orleans", "state_province": "Louisiana", "postal_code": "70125-2008", "country": "United States", "longitude": "-90.09759137", "latitude": "29.9521547", "phone": "5048271646", "website_url": "http://www.waywardowlbrewing.com", "state": "Louisiana", "street": "3940 Thalia St"}, {"id": "8c7c9ef9-1232-4e9d-8bf4-ba02e30cbc78", "name": "Wayzata Brew Works, LLC", "brewery_type": "micro", "address_1": "294 Grove Lane E, ste 150", "address_2": null, "address_3": null, "city": "wayzata", "state_province": "Minnesota", "postal_code": "55391", "country": "United States", "longitude": null, "latitude": null, "phone": "9527371023", "website_url": "http://www.wayzatabrewworks.com", "state": "Minnesota", "street": "294 Grove Lane E, ste 150"}, {"id": "4a48f4f8-fa5f-48d1-9576-b9fff7d87e63", "name": "Wayzata Brew Works, LLC.", "brewery_type": "proprietor", "address_1": "294 Grove Ln E", "address_2": null, "address_3": null, "city": "Wayzata", "state_province": "Minnesota", "postal_code": "55391-1680", "country": "United States", "longitude": "-93.5172166", "latitude": "44.9696023", "phone": "9527371023", "website_url": "http://www.wayzatabrewworks.com/", "state": "Minnesota", "street": "294 Grove Ln E"}, {"id": "a828db31-d32a-4fb3-a96b-46ba8c1cb9f8", "name": "Weasel Boy Brewing Co  LLC", "brewery_type": "brewpub", "address_1": "126 Muskingum Ave Unit E", "address_2": null, "address_3": null, "city": "Zanesville", "state_province": "Ohio", "postal_code": "43701-4921", "country": "United States", "longitude": null, "latitude": null, "phone": "7404553767", "website_url": "http://www.weaselboybrewing.com", "state": "Ohio", "street": "126 Muskingum Ave Unit E"}, {"id": "c5b50d77-0a38-43e3-82fc-c240281c0139", "name": "Weathered Ground Brewery", "brewery_type": "micro", "address_1": "2027 Flat Top Rd", "address_2": null, "address_3": null, "city": "Ghent", "state_province": "West Virginia", "postal_code": "25843-9303", "country": "United States", "longitude": "-81.09682583", "latitude": "37.64833857", "phone": "3047166230", "website_url": "http://www.weatheredgroundbrewery.com", "state": "West Virginia", "street": "2027 Flat Top Rd"}, {"id": "2e8178de-963e-47fe-bb90-55cd67f2224c", "name": "Weathered Souls Brewing Co.", "brewery_type": "brewpub", "address_1": "606 Embassy Oaks Ste 500", "address_2": null, "address_3": null, "city": "San Antonio", "state_province": "Texas", "postal_code": "78216-1501", "country": "United States", "longitude": null, "latitude": null, "phone": "7047706605", "website_url": "http://www.weatheredsouls.beer", "state": "Texas", "street": "606 Embassy Oaks Ste 500"}, {"id": "d6b31994-a389-40bc-8b34-f37c71c69030", "name": "WeBe Brewing Company", "brewery_type": "micro", "address_1": "796 Pre-Emption Road", "address_2": null, "address_3": null, "city": "Geneva", "state_province": "New York", "postal_code": "14456", "country": "United States", "longitude": "-77.01110326", "latitude": "42.86463714", "phone": "3153254834", "website_url": "http://www.WeBeBrewing.com", "state": "New York", "street": "796 Pre-Emption Road"}, {"id": "cbe89f10-6763-4ed1-90d0-80cabea11a29", "name": "Wedge Brewing Co", "brewery_type": "micro", "address_1": "37 Paynes Way Ste 100", "address_2": null, "address_3": null, "city": "Asheville", "state_province": "North Carolina", "postal_code": "28801-2626", "country": "United States", "longitude": "-82.56659201", "latitude": "35.5865571", "phone": "8285052792", "website_url": "http://www.wedgebrewing.com", "state": "North Carolina", "street": "37 Paynes Way Ste 100"}, {"id": "8968d98d-b553-4b7d-ae11-1b60a0a323a1", "name": "Weeping Radish Farm Brewery", "brewery_type": "micro", "address_1": "6810 Caratoke Hwy", "address_2": null, "address_3": null, "city": "Grandy", "state_province": "North Carolina", "postal_code": "27939-9635", "country": "United States", "longitude": "-75.891944", "latitude": "36.253775", "phone": "2524915205", "website_url": "http://www.weepingradish.com", "state": "North Carolina", "street": "6810 Caratoke Hwy"}, {"id": "9fa40256-171d-4372-ab21-1d87863f677c", "name": "Weilbacher Brewery", "brewery_type": "planning", "address_1": null, "address_2": null, "address_3": null, "city": "New Braunfels", "state_province": "Texas", "postal_code": "78130-5104", "country": "United States", "longitude": null, "latitude": null, "phone": "5126637507", "website_url": "http://www.weilbacherbeer.com", "state": "Texas", "street": null}, {"id": "70f8c3ef-94c7-4e2f-8954-711bdb684bcb", "name": "WeldWerks Brewing Co.", "brewery_type": "micro", "address_1": "508 8th Ave", "address_2": null, "address_3": null, "city": "Greeley", "state_province": "Colorado", "postal_code": "80631-3921", "country": "United States", "longitude": "-104.6911497", "latitude": "40.3998251", "phone": "9705185226", "website_url": "http://www.weldwerksbrewing.com", "state": "Colorado", "street": "508 8th Ave"}, {"id": "41170ddd-2eab-483e-9dec-acf1db56e852", "name": "Well 80 Brewing Company", "brewery_type": "brewpub", "address_1": "514 4th Ave E", "address_2": null, "address_3": null, "city": "Olympia", "state_province": "Washington", "postal_code": "98501-1111", "country": "United States", "longitude": "-122.8964287", "latitude": "47.04534486", "phone": "3609156653", "website_url": "http://www.well80.com", "state": "Washington", "street": "514 4th Ave E"}, {"id": "e7f0a2c0-dd17-48ff-8d9f-5ab8b6803bb1", "name": "Wellhead Restaurant/Brewpub", "brewery_type": "brewpub", "address_1": "332 W Main St", "address_2": null, "address_3": null, "city": "Artesia", "state_province": "New Mexico", "postal_code": "88210-2161", "country": "United States", "longitude": "-104.399337", "latitude": "32.842417", "phone": "5757460640", "website_url": "http://www.thewellhead.com", "state": "New Mexico", "street": "332 W Main St"}, {"id": "6b197016-089f-4fa7-ac77-4d08c03035c2", "name": "Wellspent Brewing Company", "brewery_type": "micro", "address_1": "2917 Olive Street", "address_2": null, "address_3": null, "city": "Saint Louis", "state_province": "Missouri", "postal_code": "63103", "country": "United States", "longitude": "-90.22073676", "latitude": "38.6348785", "phone": "3143280505", "website_url": "http://www.wellspentbeer.com", "state": "Missouri", "street": "2917 Olive Street"}, {"id": "4f92a80e-b6ec-43a8-bdfe-0156c015c343", "name": "Welltown Brewing", "brewery_type": "micro", "address_1": "114 S. Archer Street", "address_2": null, "address_3": null, "city": "Tulsa", "state_province": "Oklahoma", "postal_code": "74103-2202", "country": "United States", "longitude": "-95.9950548", "latitude": "36.1565497", "phone": "9182218893", "website_url": "http://www.welltownbrewing.com", "state": "Oklahoma", "street": "114 S. Archer Street"}, {"id": "4f20644c-efbe-4c66-932e-712507f9e99e", "name": "Welpman Springs Brewing Company, LLC.", "brewery_type": "closed", "address_1": "517 Hatchery Rd", "address_2": null, "address_3": null, "city": "Stover", "state_province": "Missouri", "postal_code": "65078-1132", "country": "United States", "longitude": null, "latitude": null, "phone": "5733772343", "website_url": "http://www.welpmanspringsbrewing.weebly.com", "state": "Missouri", "street": "517 Hatchery Rd"}, {"id": "ee1c61ff-a24e-44db-87ac-a22a0add4559", "name": "Weltons Brewery", "brewery_type": "micro", "address_1": "Foundry Lane", "address_2": null, "address_3": null, "city": "Horsham", "state_province": "West Sussex", "postal_code": "RH13 5PX", "country": "England", "longitude": "-0.315544", "latitude": "51.070853", "phone": "1403242901", "website_url": "https://weltonsbeer.co.uk/", "state": "West Sussex", "street": "Foundry Lane"}, {"id": "9049078f-8094-4082-95b7-8a3173469ad2", "name": "Wenatchee Valley Brewing Co.", "brewery_type": "micro", "address_1": "108 Island Vw", "address_2": null, "address_3": null, "city": "Wenatchee", "state_province": "Washington", "postal_code": "98801-2039", "country": "United States", "longitude": null, "latitude": null, "phone": "5098888088", "website_url": "http://wenatcheevalleybrewing.com/", "state": "Washington", "street": "108 Island Vw"}, {"id": "376ea613-f4d4-400e-8bda-93cffe5e7314", "name": "Werk Force Brewing Co", "brewery_type": "micro", "address_1": "14903 S Center St # 107", "address_2": null, "address_3": null, "city": "Plainfield", "state_province": "Illinois", "postal_code": "60544-2177", "country": "United States", "longitude": null, "latitude": null, "phone": "8155315557", "website_url": "http://www.werkforcebrewing.com", "state": "Illinois", "street": "14903 S Center St # 107"}, {"id": "8a33e210-9d8a-4337-b04c-8cfe15e0c213", "name": "Werner Brewing Company", "brewery_type": "micro", "address_1": "2807 3rd St", "address_2": null, "address_3": null, "city": "Tillamook", "state_province": "Oregon", "postal_code": "97141", "country": "United States", "longitude": "-123.8425805", "latitude": "45.4563275", "phone": "5038126040", "website_url": null, "state": "Oregon", "street": "2807 3rd St"}, {"id": "97785f2d-ca0d-41a0-8aeb-fc513eb02a4e", "name": "West Bend Lithia Beer Co", "brewery_type": "contract", "address_1": "825 Schoenhaar Dr", "address_2": null, "address_3": null, "city": "West Bend", "state_province": "Wisconsin", "postal_code": "53090-2633", "country": "United States", "longitude": "-88.15775153", "latitude": "43.43136188", "phone": "2623343000", "website_url": "http://www.lithiabeer.com", "state": "Wisconsin", "street": "825 Schoenhaar Dr"}, {"id": "029d8456-c2b0-4a9e-950c-39046b1d850e", "name": "West Cork Brewing Co.", "brewery_type": "brewpub", "address_1": "C/O Casey's Hotel", "address_2": "Church Strand", "address_3": null, "city": "Baltimore", "state_province": "Cork", "postal_code": "P81 YW66", "country": "Ireland", "longitude": "-9.3708544", "latitude": "51.4870695", "phone": "353834156186", "website_url": "http://www.westcorkbrewingco.ie/", "state": "Cork", "street": "C/O Casey's Hotel"}, {"id": "80d05615-2f61-4e0e-8d1e-d3f25d70d960", "name": "West East Brewing Co", "brewery_type": "contract", "address_1": "4125 Lorain Ave", "address_2": null, "address_3": null, "city": "Cleveland", "state_province": "Ohio", "postal_code": "44113-3718", "country": "United States", "longitude": "-81.7140045", "latitude": "41.4799605", "phone": "2162021386", "website_url": null, "state": "Ohio", "street": "4125 Lorain Ave"}, {"id": "9ffda059-096e-4ae7-805b-49709737f941", "name": "West Flanders Brewing Co", "brewery_type": "brewpub", "address_1": "1125 Pearl St", "address_2": null, "address_3": null, "city": "Boulder", "state_province": "Colorado", "postal_code": "80302-5103", "country": "United States", "longitude": "-105.260866", "latitude": "40.0217453", "phone": "3034472739", "website_url": "http://www.wfbrews.com", "state": "Colorado", "street": "1125 Pearl St"}, {"id": "391847c9-a5ad-496f-a74e-586ff829fc0d", "name": "West Kill Brewing", "brewery_type": "micro", "address_1": "2173 Spruceton Rd", "address_2": null, "address_3": null, "city": "West Kill", "state_province": "New York", "postal_code": "12492-5823", "country": "United States", "longitude": "-74.382878", "latitude": "42.205758", "phone": "5189896001", "website_url": "http://www.westkillbrewing.com", "state": "New York", "street": "2173 Spruceton Rd"}, {"id": "752dfbd2-fa6e-43e8-98fd-602dcff7eb04", "name": "West O Beer", "brewery_type": "micro", "address_1": "503 Terrace Park Blvd", "address_2": null, "address_3": null, "city": "Milford", "state_province": "Iowa", "postal_code": "51351-7300", "country": "United States", "longitude": "-95.14996965", "latitude": "43.34657697", "phone": "7123328090", "website_url": "http://www.westobeer.com", "state": "Iowa", "street": "503 Terrace Park Blvd"}, {"id": "493d8254-89e2-407a-986b-5ddb06a572e2", "name": "West Palm Beach Brewery & Wine Vault", "brewery_type": "brewpub", "address_1": "332 Evernia St", "address_2": null, "address_3": null, "city": "West Palm Beach", "state_province": "Florida", "postal_code": "33401-5404", "country": "United States", "longitude": "-80.05314345", "latitude": "26.7110654", "phone": "5616198813", "website_url": "http://www.WestPalmBeer.com", "state": "Florida", "street": "332 Evernia St"}, {"id": "3107d918-5bae-4a9f-a834-3592199dffc5", "name": "West Passage Brewing Co", "brewery_type": "micro", "address_1": "7835 Post Rd", "address_2": null, "address_3": null, "city": "North Kingstown", "state_province": "Rhode Island", "postal_code": "02852-2911", "country": "United States", "longitude": "-71.4592129", "latitude": "41.5849618", "phone": "4016619662", "website_url": "http://www.westpassagebrewing.com", "state": "Rhode Island", "street": "7835 Post Rd"}, {"id": "7566cfbf-694e-43a6-8c4b-d91754906db8", "name": "West Seattle Brewing Co", "brewery_type": "micro", "address_1": "4415 Fauntleroy Way SW", "address_2": null, "address_3": null, "city": "Seattle", "state_province": "Washington", "postal_code": "98126-2631", "country": "United States", "longitude": "-122.3776296", "latitude": "47.5643605", "phone": "2064050972", "website_url": "http://www.westseattlebrewing.com", "state": "Washington", "street": "4415 Fauntleroy Way SW"}, {"id": "cb9cae9a-a133-48d8-a63e-b82fcf1c4c9e", "name": "West Seattle Brewing Co (TapShack)", "brewery_type": "micro", "address_1": "2536 Alki Ave SW", "address_2": null, "address_3": null, "city": "Seattle", "state_province": "Washington", "postal_code": "98116-2262", "country": "United States", "longitude": "-122.406811", "latitude": "47.580335", "phone": "2064204523", "website_url": "http://www.westseattlebrewing.com", "state": "Washington", "street": "2536 Alki Ave SW"}, {"id": "13bcbdcc-50e5-4669-bfad-8001c7b17d90", "name": "West Shore Brewing Co", "brewery_type": "micro", "address_1": "10995 Main St", "address_2": null, "address_3": null, "city": "Clarence", "state_province": "New York", "postal_code": "14031-1735", "country": "United States", "longitude": "-78.57810318", "latitude": "42.98200648", "phone": "7169983752", "website_url": "http://westshorebrewing.com", "state": "New York", "street": "10995 Main St"}, {"id": "6d54504b-074c-417a-bb3a-008e26e0b662", "name": "West Side Brewing", "brewery_type": "micro", "address_1": "3044 Harrison Ave", "address_2": null, "address_3": null, "city": "Cincinnati", "state_province": "Ohio", "postal_code": "45211-5752", "country": "United States", "longitude": "-84.598433", "latitude": "39.14890246", "phone": "5136612337", "website_url": "http://www.westsidebrewing.com", "state": "Ohio", "street": "3044 Harrison Ave"}, {"id": "86c32e2f-4135-4421-ad6f-03d71c73347a", "name": "West Sixth Brewing Co", "brewery_type": "micro", "address_1": "501 W Sixth St", "address_2": null, "address_3": null, "city": "Lexington", "state_province": "Kentucky", "postal_code": "40508-1341", "country": "United States", "longitude": null, "latitude": null, "phone": "8597050915", "website_url": "http://www.westsixth.com", "state": "Kentucky", "street": "501 W Sixth St"}, {"id": "11e292b9-777d-4818-b231-1de6c8a4e1cb", "name": "West Sixth Greenroom", "brewery_type": "micro", "address_1": "109 W Main St", "address_2": null, "address_3": null, "city": "Lexington", "state_province": "Kentucky", "postal_code": "40507", "country": "United States", "longitude": "-84.49712824", "latitude": "38.04658314", "phone": "8597050915", "website_url": null, "state": "Kentucky", "street": "109 W Main St"}, {"id": "22edeb4c-52ba-463e-a23f-3f27762505eb", "name": "Westallion Brewing Company", "brewery_type": "micro", "address_1": "1825 S 72nd St", "address_2": null, "address_3": null, "city": "West Allis", "state_province": "Wisconsin", "postal_code": "53214-4714", "country": "United States", "longitude": "-88.0027165", "latitude": "43.01130525", "phone": "4145787998", "website_url": "http://www.westallionbrewing.com", "state": "Wisconsin", "street": "1825 S 72nd St"}, {"id": "1ab4a268-90ec-4506-944d-545e126fa337", "name": "Westbend Winery and Brewery", "brewery_type": "micro", "address_1": "5394 Williams Rd", "address_2": null, "address_3": null, "city": "Lewisville", "state_province": "North Carolina", "postal_code": "27023-8278", "country": "United States", "longitude": "-80.50459165", "latitude": "36.08868228", "phone": "3369459999", "website_url": "http://www.westbendwineryandbrewery.com", "state": "North Carolina", "street": "5394 Williams Rd"}, {"id": "f5ec6774-0b8c-485e-ac5c-fec7ad4332d0", "name": "Westbound & Down Brewing Company", "brewery_type": "brewpub", "address_1": "1617 Miner St", "address_2": null, "address_3": null, "city": "Idaho Springs", "state_province": "Colorado", "postal_code": "80452", "country": "United States", "longitude": "-105.5155002", "latitude": "39.7419049", "phone": "7205023121", "website_url": "http://www.westboundanddown.com", "state": "Colorado", "street": "1617 Miner St"}, {"id": "d2c47650-77bb-4a11-bf6d-7be3103014d0", "name": "Westbound and Down", "brewery_type": "planning", "address_1": null, "address_2": null, "address_3": null, "city": "Denver", "state_province": "Colorado", "postal_code": "80204", "country": "United States", "longitude": null, "latitude": null, "phone": "7205023121", "website_url": null, "state": "Colorado", "street": null}, {"id": "c4176795-13f1-4e5c-8da8-275447df6cdf", "name": "Westbrook Brewing Co", "brewery_type": "regional", "address_1": "510 Ridge Rd", "address_2": null, "address_3": null, "city": "Mount Pleasant", "state_province": "South Carolina", "postal_code": "29464-7811", "country": "United States", "longitude": null, "latitude": null, "phone": "8436549114", "website_url": "http://www.westbrookbrewing.com", "state": "South Carolina", "street": "510 Ridge Rd"}, {"id": "8bc44d8f-07dd-4118-aecd-0bf08f70c26b", "name": "Western Pennsylvania Brewing Co", "brewery_type": "regional", "address_1": "119 Jefferson St", "address_2": null, "address_3": null, "city": "Latrobe", "state_province": "Pennsylvania", "postal_code": "15650", "country": "United States", "longitude": "-79.38989645", "latitude": "40.31903018", "phone": null, "website_url": "http://www.citybreiwng.com", "state": "Pennsylvania", "street": "119 Jefferson St"}, {"id": "8c1f3653-056b-40a4-8421-f9ce8b2979bd", "name": "Western Red Brewing", "brewery_type": "brewpub", "address_1": "19168 Jensen Way NE Ste 100", "address_2": null, "address_3": null, "city": "Poulsbo", "state_province": "Washington", "postal_code": "98370", "country": "United States", "longitude": null, "latitude": null, "phone": "3606261280", "website_url": "http://westernredbrewing.com", "state": "Washington", "street": "19168 Jensen Way NE Ste 100"}, {"id": "31c082a9-357c-47d6-b65c-56e28b9423a0", "name": "WestFax Brewing Co.", "brewery_type": "micro", "address_1": "6733 W Colfax Ave", "address_2": null, "address_3": null, "city": "Lakewood", "state_province": "Colorado", "postal_code": "80214-1807", "country": "United States", "longitude": "-105.0710839", "latitude": "39.7415749", "phone": "3032333742", "website_url": "http://www.westfaxbrewingcompany.com", "state": "Colorado", "street": "6733 W Colfax Ave"}, {"id": "44c00cc8-f329-452b-9d37-1ba777144535", "name": "Westfield River Brewing Co", "brewery_type": "micro", "address_1": "707 College Hwy", "address_2": null, "address_3": null, "city": "Southwick", "state_province": "Massachusetts", "postal_code": "01077-9733", "country": "United States", "longitude": "-72.765248", "latitude": "42.062268", "phone": "4133748425", "website_url": "http://www.westfieldriverbrewing.com", "state": "Massachusetts", "street": "707 College Hwy"}, {"id": "73e1509c-8410-4bf6-a752-9758781aacb7", "name": "Westlake Brewing & Libation", "brewery_type": "micro", "address_1": "31111 Via Colinas # 200", "address_2": null, "address_3": null, "city": "Thousand Oaks", "state_province": "California", "postal_code": "91362-3909", "country": "United States", "longitude": "-118.809516", "latitude": "34.161542", "phone": "7472227231", "website_url": "http://westlakebrewingcompany.com", "state": "California", "street": "31111 Via Colinas # 200"}, {"id": "00950932-b737-4232-a18b-84106a891c93", "name": "Westlake Brewing Company", "brewery_type": "planning", "address_1": null, "address_2": null, "address_3": null, "city": "Dallas", "state_province": "Texas", "postal_code": "75226-1607", "country": "United States", "longitude": null, "latitude": null, "phone": "8779942337", "website_url": "http://www.westlakebeer.com", "state": "Texas", "street": null}, {"id": "093897b0-1926-4570-a398-b0aad0f59c63", "name": "Westminster Brewing Co", "brewery_type": "micro", "address_1": "7655 W 108th Ave Ste 600", "address_2": null, "address_3": null, "city": "Westminster", "state_province": "Colorado", "postal_code": "80021-2805", "country": "United States", "longitude": null, "latitude": null, "phone": "3032841864", "website_url": "http://westminsterbrewingco.com", "state": "Colorado", "street": "7655 W 108th Ave Ste 600"}, {"id": "90b580a3-4c08-4dd4-a69e-4a69fe8499f4", "name": "Weston Brewing Co / O'Malley's Pub", "brewery_type": "micro", "address_1": "500 Welt St", "address_2": null, "address_3": null, "city": "Weston", "state_province": "Missouri", "postal_code": "64098-1242", "country": "United States", "longitude": "-94.899934", "latitude": "39.411378", "phone": "8166405235", "website_url": "http://www.westonirish.com", "state": "Missouri", "street": "500 Welt St"}, {"id": "6121940c-efce-406a-aa66-192515c4a63b", "name": "Westslope Brewing, LLC", "brewery_type": "planning", "address_1": null, "address_2": null, "address_3": null, "city": "Lolo", "state_province": "Montana", "postal_code": "59847-9757", "country": "United States", "longitude": null, "latitude": null, "phone": "4065316959", "website_url": "http://www.westslopebrewing.com", "state": "Montana", "street": null}, {"id": "54e4ea1c-6210-48c0-a3d1-c7edd491a640", "name": "Westtown Brew Works", "brewery_type": "micro", "address_1": "236 Schefflers Rd", "address_2": null, "address_3": null, "city": "Westtown", "state_province": "New York", "postal_code": "10998-", "country": "United States", "longitude": "-74.53707955", "latitude": "41.31431295", "phone": "8453044152", "website_url": "http://www.westtownbrewworks.com", "state": "New York", "street": "236 Schefflers Rd"}, {"id": "c63f9f73-f694-4668-8e90-977ec08e1604", "name": "Westwind Brewery Co.", "brewery_type": "planning", "address_1": null, "address_2": null, "address_3": null, "city": "Elkhart", "state_province": "Indiana", "postal_code": "46514-2204", "country": "United States", "longitude": null, "latitude": null, "phone": "5742745073", "website_url": "http://www.westwindbrewery.com", "state": "Indiana", "street": null}, {"id": "ab04508d-14bc-41cb-bf1d-b09d86838fb3", "name": "Wet Coast Brewing Co.", "brewery_type": "micro", "address_1": "6820 Kimball Dr Ste C", "address_2": null, "address_3": null, "city": "Gig Harbor", "state_province": "Washington", "postal_code": "98335-5124", "country": "United States", "longitude": null, "latitude": null, "phone": "2534324966", "website_url": "http://www.wetcoastbrewing.com", "state": "Washington", "street": "6820 Kimball Dr Ste C"}, {"id": "0ab3dca4-244e-4efd-bf34-92687747499a", "name": "Wet Dog Cafe & Brewery", "brewery_type": "brewpub", "address_1": "990 Astor St", "address_2": null, "address_3": null, "city": "Astoria", "state_province": "Oregon", "postal_code": "97103-4201", "country": "United States", "longitude": "-123.835821", "latitude": "46.190557", "phone": "5033256975", "website_url": "http://www.wetdogcafe.com", "state": "Oregon", "street": "990 Astor St"}, {"id": "1d5af7ca-3850-4894-8dbb-0104afcb03ce", "name": "Wet Ticket Brewing", "brewery_type": "micro", "address_1": "1435 Main St", "address_2": null, "address_3": null, "city": "Rahway", "state_province": "New Jersey", "postal_code": "07065-", "country": "United States", "longitude": "-74.27425215", "latitude": "40.60586312", "phone": "9086169091", "website_url": "http://www.wetticketbrewing.com", "state": "New Jersey", "street": "1435 Main St"}, {"id": "aa40cdb4-5b17-46fb-94e5-b972f6cc0b86", "name": "Weyerbacher Brewing Co", "brewery_type": "regional", "address_1": "905 Line St Ste G", "address_2": null, "address_3": null, "city": "Easton", "state_province": "Pennsylvania", "postal_code": "18042-7379", "country": "United States", "longitude": null, "latitude": null, "phone": "6105595561", "website_url": "http://www.weyerbacher.com", "state": "Pennsylvania", "street": "905 Line St Ste G"}, {"id": "ee09ef76-e626-48ba-8eeb-47b57db63388", "name": "Whalers Brewing Company", "brewery_type": "micro", "address_1": "1174 Kingstown Rd", "address_2": null, "address_3": null, "city": "South Kingstown", "state_province": "Rhode Island", "postal_code": "02879-8316", "country": "United States", "longitude": "-71.49706731", "latitude": "41.4506997", "phone": "4015520002", "website_url": "https://whalers.com", "state": "Rhode Island", "street": "1174 Kingstown Rd"}, {"id": "3b85a707-ff0a-483a-a5da-d2ab53aa66ce", "name": "Wharf Hill Brewing", "brewery_type": "brewpub", "address_1": "25 Main St", "address_2": null, "address_3": null, "city": "Smithfield", "state_province": "Virginia", "postal_code": "23430-1320", "country": "United States", "longitude": "-76.63061077", "latitude": "36.98242438", "phone": "7573577100", "website_url": "http://www.wharfhillbrewing.com", "state": "Virginia", "street": "25 Main St"}, {"id": "8dfd9c89-ac49-475c-8caa-b210120a8229", "name": "Wheatland Spring Brewery", "brewery_type": "planning", "address_1": null, "address_2": null, "address_3": null, "city": "Alexandria", "state_province": "Virginia", "postal_code": "22314-4308", "country": "United States", "longitude": null, "latitude": null, "phone": null, "website_url": null, "state": "Virginia", "street": null}, {"id": "ca4dec0f-a148-492a-80c5-b78aa252b288", "name": "Wheeling Brewing Co", "brewery_type": "brewpub", "address_1": "2247 Market St", "address_2": null, "address_3": null, "city": "Wheeling", "state_province": "West Virginia", "postal_code": "26003-3839", "country": "United States", "longitude": "-80.72429082", "latitude": "40.05925145", "phone": "3049058757", "website_url": "http://www.wheelingbrewing.com", "state": "West Virginia", "street": "2247 Market St"}, {"id": "0609948f-d8d4-4d29-899a-9983abe982fa", "name": "Whetstone Craft Beers @ Whetstone Station", "brewery_type": "brewpub", "address_1": "36 Bridge St", "address_2": null, "address_3": null, "city": "Brattleboro", "state_province": "Vermont", "postal_code": "05301-3301", "country": "United States", "longitude": "-72.55627012", "latitude": "42.85164595", "phone": "8024902354", "website_url": "http://www.whetstonestation.com", "state": "Vermont", "street": "36 Bridge St"}, {"id": "57d2e357-67f2-4d21-8116-ca0403eb50ce", "name": "WhichCraft Brews", "brewery_type": "brewpub", "address_1": "1900 Empire Blvd", "address_2": null, "address_3": null, "city": "Webster", "state_province": "New York", "postal_code": "14580-1934", "country": "United States", "longitude": "-77.501948", "latitude": "43.193429", "phone": "5852222739", "website_url": "http://www.whichcraftbrews.com", "state": "New York", "street": "1900 Empire Blvd"}, {"id": "7e464f88-ef88-4890-be4b-e7694f31b640", "name": "Whiner Beer Company", "brewery_type": "micro", "address_1": "1400 W 46th St", "address_2": null, "address_3": null, "city": "Chicago", "state_province": "Illinois", "postal_code": "60609-3225", "country": "United States", "longitude": "-87.6606688", "latitude": "41.810614", "phone": "3128102271", "website_url": "http://whinerbeer.com", "state": "Illinois", "street": "1400 W 46th St"}, {"id": "04fda7ff-4bf9-4a3e-b65a-1136ed3ebc87", "name": "Whiplash Brewing", "brewery_type": "micro", "address_1": "Cherry Orchard Industrial Estate", "address_2": "Unit 67B", "address_3": "Dublin 10", "city": "Ballyfermot", "state_province": "Dublin", "postal_code": "D10 F627", "country": "Ireland", "longitude": "-6.3773273", "latitude": "53.3468597", "phone": null, "website_url": "http://www.whiplashbeer.com/", "state": "Dublin", "street": "Cherry Orchard Industrial Estate"}, {"id": "85c77773-c9af-4863-9f74-43d1e690346a", "name": "Whipsaw Brewing LLC", "brewery_type": "micro", "address_1": "704 N Wenas St", "address_2": null, "address_3": null, "city": "Ellensburg", "state_province": "Washington", "postal_code": "98926-2862", "country": "United States", "longitude": "-120.5552612", "latitude": "46.9989453", "phone": "5099685111", "website_url": "http://www.whipsawbrewing.com", "state": "Washington", "street": "704 N Wenas St"}, {"id": "35279122-92ea-403b-a946-dbc578ce4bcd", "name": "Whirling Skirmish Brewing Company", "brewery_type": "planning", "address_1": null, "address_2": null, "address_3": null, "city": "Scottsdale", "state_province": "Arizona", "postal_code": "85254-2513", "country": "United States", "longitude": "-111.8992365", "latitude": "33.5091215", "phone": "6023592489", "website_url": null, "state": "Arizona", "street": null}, {"id": "debc3cf5-e1c4-4de1-adb0-d6bd5f001ec3", "name": "Whiskey Point Brewing Company", "brewery_type": "planning", "address_1": null, "address_2": null, "address_3": null, "city": "Beaver Island", "state_province": "Michigan", "postal_code": "49782-5105", "country": "United States", "longitude": null, "latitude": null, "phone": "2313737842", "website_url": "http://www.whiskeypointbrewing.com", "state": "Michigan", "street": null}, {"id": "f08836a0-a759-48a1-b8ae-22bfae945d22", "name": "Whisper Creek Farm: Kitchen and Brewery", "brewery_type": "brewpub", "address_1": "4040 Central Florida Pkwy", "address_2": null, "address_3": null, "city": "Orlando", "state_province": "Florida", "postal_code": "32837-7662", "country": "United States", "longitude": "-81.42861801", "latitude": "28.40168865", "phone": "4073934755", "website_url": "http://www.grandelakes.com", "state": "Florida", "street": "4040 Central Florida Pkwy"}, {"id": "cd74c02e-30a1-4e9e-9774-aa8d39788ae3", "name": "Whistle Hop Brewing Company", "brewery_type": "micro", "address_1": "1288 Charlotte Hwy", "address_2": null, "address_3": null, "city": "Fairview", "state_province": "North Carolina", "postal_code": "28730-8797", "country": "United States", "longitude": "-82.41693073", "latitude": "35.52314413", "phone": "8283389447", "website_url": "http://www.whistlehop.com", "state": "North Carolina", "street": "1288 Charlotte Hwy"}, {"id": "fc51057f-e541-4931-92eb-e79d1bc93f46", "name": "Whistle Pig Brewing Company", "brewery_type": "micro", "address_1": "1840 Dominion Way", "address_2": null, "address_3": null, "city": "Colorado Springs", "state_province": "Colorado", "postal_code": "80918-1467", "country": "United States", "longitude": "-104.7931723", "latitude": "38.92372675", "phone": "7195981339", "website_url": "http://www.whistlepigbrewing.com", "state": "Colorado", "street": "1840 Dominion Way"}, {"id": "55c3e8b0-3895-458b-a274-0be8a069da25", "name": "Whistle Punk Brewing Company", "brewery_type": "micro", "address_1": "122 S Monroe St", "address_2": null, "address_3": null, "city": "Spokane", "state_province": "Washington", "postal_code": "99201-4007", "country": "United States", "longitude": "-117.4267386", "latitude": "47.6564232", "phone": "5093154465", "website_url": "http://www.whistlepunkbrewing.com", "state": "Washington", "street": "122 S Monroe St"}, {"id": "6d1e42ff-6f59-4a31-afa2-e9fbdbb5661f", "name": "Whistleing Springs Brewing Company / Dark Hills Brewery", "brewery_type": "planning", "address_1": null, "address_2": null, "address_3": null, "city": "Lowell", "state_province": "Arkansas", "postal_code": "72745-9294", "country": "United States", "longitude": "-94.1307587", "latitude": "36.2553543", "phone": "4792836365", "website_url": "http://www.darkhillsbrew.com", "state": "Arkansas", "street": null}, {"id": "e3addd66-8750-4844-82de-88710adf9b49", "name": "White Birch Brewing", "brewery_type": "micro", "address_1": "1339 Hooksett Rd", "address_2": null, "address_3": null, "city": "Hooksett", "state_province": "New Hampshire", "postal_code": "03106-1847", "country": "United States", "longitude": "-71.44114457", "latitude": "43.05712534", "phone": "6032448593", "website_url": "http://www.whitebirchbrewing.com", "state": "New Hampshire", "street": "1339 Hooksett Rd"}, {"id": "9516ace5-cc78-4f2a-82d6-a7a6311b5a10", "name": "White Bluffs Brewing", "brewery_type": "micro", "address_1": "2034 Logston Blvd", "address_2": null, "address_3": null, "city": "Richland", "state_province": "Washington", "postal_code": "99354-5300", "country": "United States", "longitude": "-119.2999357", "latitude": "46.3204119", "phone": "5095547059", "website_url": "http://www.whitebluffsbrewing.com", "state": "Washington", "street": "2034 Logston Blvd"}, {"id": "d1cb2052-1155-4415-bb79-0d293a714de3", "name": "White Clay Brewing Company", "brewery_type": "planning", "address_1": null, "address_2": null, "address_3": null, "city": "Landenberg", "state_province": "Pennsylvania", "postal_code": "19350-1540", "country": "United States", "longitude": null, "latitude": null, "phone": null, "website_url": null, "state": "Pennsylvania", "street": null}, {"id": "b4835825-07a9-4210-b648-e796a460a11d", "name": "White Dog Brewing Boise", "brewery_type": "micro", "address_1": "705 W Fulton St", "address_2": null, "address_3": null, "city": "Boise", "state_province": "Idaho", "postal_code": "83702", "country": "United States", "longitude": "-116.2062186", "latitude": "43.61122761", "phone": "2089060609", "website_url": "http://www.whitedogbrewing.com", "state": "Idaho", "street": "705 W Fulton St"}, {"id": "bf11197a-a50f-4bb6-af48-0719c009eed6", "name": "White Dog Brewing Company", "brewery_type": "micro", "address_1": "121 W Main St", "address_2": null, "address_3": null, "city": "Bozeman", "state_province": "Montana", "postal_code": "59715-4644", "country": "United States", "longitude": "-111.0393894", "latitude": "45.67961135", "phone": "4065955574", "website_url": "http://www.whitedogbrewing.com", "state": "Montana", "street": "121 W Main St"}, {"id": "6001a312-5d2b-456a-a0e1-ed2c3233cacf", "name": "White Elephant Beer Company", "brewery_type": "micro", "address_1": "225 Market St", "address_2": null, "address_3": null, "city": "Mount Airy", "state_province": "North Carolina", "postal_code": "27030-3513", "country": "United States", "longitude": "-80.6090865", "latitude": "36.5006581", "phone": "3366488277", "website_url": "http://www.whiteelephantbeer.com", "state": "North Carolina", "street": "225 Market St"}, {"id": "5de62477-b829-4c11-8120-471c19fd52e6", "name": "White Elm Brewing Co", "brewery_type": "micro", "address_1": "720 Van Dorn St", "address_2": null, "address_3": null, "city": "Lincoln", "state_province": "Nebraska", "postal_code": "68502-3353", "country": "United States", "longitude": "-96.7167126", "latitude": "40.7856925", "phone": "4022616078", "website_url": "http://www.whiteelmbrewing.com", "state": "Nebraska", "street": "720 Van Dorn St"}, {"id": "dd296d03-e327-41d5-8fcb-7cf99a3682ce", "name": "White Flame Brewing Co", "brewery_type": "brewpub", "address_1": "5234 36th Ave", "address_2": null, "address_3": null, "city": "Hudsonville", "state_province": "Michigan", "postal_code": "49426-1636", "country": "United States", "longitude": null, "latitude": null, "phone": "6162095098", "website_url": "http://www.whiteflamebrewing.com", "state": "Michigan", "street": "5234 36th Ave"}, {"id": "aed12916-1c2f-48e0-8ae9-7a28f067f515", "name": "White Gypsy Brewery", "brewery_type": "micro", "address_1": "Templemore Enterprise Centre", "address_2": "Railway Rd", "address_3": "Kiltillane", "city": "Templemore", "state_province": "Tipperary", "postal_code": "E41 W110", "country": "Ireland", "longitude": "-7.8294975", "latitude": "52.7929206", "phone": "35350456572", "website_url": "http://www.whitegypsy.ie/", "state": "Tipperary", "street": "Templemore Enterprise Centre"}, {"id": "8517ebf6-2df8-488e-8fd6-87a94fe3bf1d", "name": "White Labs Kitchen and Tap", "brewery_type": "brewpub", "address_1": "172 S Charlotte St", "address_2": null, "address_3": null, "city": "Asheville", "state_province": "North Carolina", "postal_code": "28801", "country": "United States", "longitude": "-82.5490695", "latitude": "35.5911334", "phone": "8289743868", "website_url": null, "state": "North Carolina", "street": "172 S Charlotte St"}, {"id": "b2795e99-d7db-4d9d-909a-4a72f1d8bf74", "name": "White Labs Tasting Room", "brewery_type": "micro", "address_1": "9495 Candida St", "address_2": null, "address_3": null, "city": "San Diego", "state_province": "California", "postal_code": "92126-4541", "country": "United States", "longitude": "-117.121435", "latitude": "32.895843", "phone": "8586933441", "website_url": "http://www.whitelabs.com", "state": "California", "street": "9495 Candida St"}, {"id": "f7fed178-dc61-473d-a847-efc5fd887105", "name": "White Lion Brewing Company", "brewery_type": "contract", "address_1": "36 Garland St", "address_2": null, "address_3": null, "city": "Springfield", "state_province": "Massachusetts", "postal_code": "01118-2128", "country": "United States", "longitude": "-72.53380924", "latitude": "42.08981856", "phone": "4133261829", "website_url": "http://www.whitelionbrewing.com", "state": "Massachusetts", "street": "36 Garland St"}, {"id": "a65c58fa-7082-4317-bbc3-a723049bb2a5", "name": "White Marsh Brewing Co/Red Brick Station", "brewery_type": "brewpub", "address_1": "8149 Honeygo Blvd Ste A", "address_2": null, "address_3": null, "city": "Baltimore", "state_province": "Maryland", "postal_code": "21236-8209", "country": "United States", "longitude": null, "latitude": null, "phone": "4109317827", "website_url": "http://www.redbrickstation.com", "state": "Maryland", "street": "8149 Honeygo Blvd Ste A"}, {"id": "b7d35211-94cc-47f5-ae7e-840824764519", "name": "White Oak Brewing", "brewery_type": "micro", "address_1": "1801 Industrial Park Dr", "address_2": null, "address_3": null, "city": "Normal", "state_province": "Illinois", "postal_code": "61761-4378", "country": "United States", "longitude": "-89.023233", "latitude": "40.4987", "phone": "3098284077", "website_url": "http://www.WhiteOak.beer", "state": "Illinois", "street": "1801 Industrial Park Dr"}, {"id": "0b7dfe2c-2617-4aa6-9578-9aa1bc63e71f", "name": "White Raven Brewing", "brewery_type": "planning", "address_1": null, "address_2": null, "address_3": null, "city": "Warsaw", "state_province": "Indiana", "postal_code": "46582-8089", "country": "United States", "longitude": null, "latitude": null, "phone": "5747030643", "website_url": "http://www.whiteravenbrewing.com", "state": "Indiana", "street": null}, {"id": "7ebf9a9b-da69-4a31-af9f-ec7320d82f66", "name": "White River Brewing Co", "brewery_type": "micro", "address_1": "505 W Commercial St", "address_2": null, "address_3": null, "city": "Springfield", "state_province": "Missouri", "postal_code": "65803-2631", "country": "United States", "longitude": "-93.29542085", "latitude": "37.2296298", "phone": "4178691366", "website_url": "http://www.whiteriverbrewingco.com", "state": "Missouri", "street": "505 W Commercial St"}, {"id": "ee5bf449-cae4-4ae4-a626-faa1d2ea35b5", "name": "White Rock Alehouse & Brewery", "brewery_type": "brewpub", "address_1": "7331 Gaston Ave, Suite 100", "address_2": null, "address_3": null, "city": "Dallas", "state_province": "Texas", "postal_code": "75214", "country": "United States", "longitude": null, "latitude": null, "phone": "2149897570", "website_url": "http://www.whiterockalehouse.com", "state": "Texas", "street": "7331 Gaston Ave, Suite 100"}, {"id": "5c7a79ba-8fe4-4bc2-8d86-d6c5a9743c91", "name": "White Rock Vineyards & Winery", "brewery_type": "micro", "address_1": "2117 Bruno Dr", "address_2": null, "address_3": null, "city": "Goodview", "state_province": "Virginia", "postal_code": "24095-2974", "country": "United States", "longitude": "-79.70797231", "latitude": "37.23145289", "phone": "5408903359", "website_url": "http://www.whiterockwines.com", "state": "Virginia", "street": "2117 Bruno Dr"}, {"id": "4c4f077d-6ffa-44bb-aa9d-8cf3116db0a4", "name": "White Shutter Winery and Brewery", "brewery_type": "micro", "address_1": "3794 County Hwy 56", "address_2": null, "address_3": null, "city": "Nevada", "state_province": "Ohio", "postal_code": "44849", "country": "United States", "longitude": null, "latitude": null, "phone": "4198352900", "website_url": "http://www.whiteshutterwinery.com", "state": "Ohio", "street": "3794 County Hwy 56"}, {"id": "76a8347d-13dc-4c90-8bc0-7063f027312b", "name": "White Squirrel Brewery", "brewery_type": "brewpub", "address_1": "871 Broadway Ave", "address_2": null, "address_3": null, "city": "Bowling Green", "state_province": "Kentucky", "postal_code": "42101-2571", "country": "United States", "longitude": "-86.4407388", "latitude": "36.9844713", "phone": "2709041573", "website_url": "http://www.whitesquirrelbrewery.com", "state": "Kentucky", "street": "871 Broadway Ave"}, {"id": "c9a7083e-1d8a-416c-a0d5-489b04f0e1bc", "name": "White Street Brewing Company", "brewery_type": "micro", "address_1": "218 S White St", "address_2": null, "address_3": null, "city": "Wake Forest", "state_province": "North Carolina", "postal_code": "27587-2742", "country": "United States", "longitude": "-78.5100617", "latitude": "35.9774896", "phone": "9196479439", "website_url": "http://www.whitestreetbrewing.com", "state": "North Carolina", "street": "218 S White St"}, {"id": "2c2f893e-57b6-42ef-8f74-931edf8b2dc9", "name": "White Street Brewing Company - Production Facility", "brewery_type": "micro", "address_1": "400 Park Ave", "address_2": null, "address_3": null, "city": "Youngsville", "state_province": "North Carolina", "postal_code": "27596-8688", "country": "United States", "longitude": "-78.48610616", "latitude": "36.03960848", "phone": "9196479439", "website_url": null, "state": "North Carolina", "street": "400 Park Ave"}, {"id": "a627508a-fbc7-4fa4-a0e2-d8b3c6404564", "name": "Whitehorse Brewing LLC", "brewery_type": "micro", "address_1": "824 Diamond St", "address_2": null, "address_3": null, "city": "Berlin", "state_province": "Pennsylvania", "postal_code": "15530-1539", "country": "United States", "longitude": "-78.95695707", "latitude": "39.92530586", "phone": "8144442436", "website_url": null, "state": "Pennsylvania", "street": "824 Diamond St"}, {"id": "ff1c0781-35f7-4018-92cd-49ce65148a84", "name": "Whitestone Brewery", "brewery_type": "micro", "address_1": "601 E Whitestone Blvd Ste 500", "address_2": null, "address_3": null, "city": "Cedar Park", "state_province": "Texas", "postal_code": "78613-9046", "country": "United States", "longitude": null, "latitude": null, "phone": "5127654828", "website_url": "http://www.whitestonebrewery.com", "state": "Texas", "street": "601 E Whitestone Blvd Ste 500"}, {"id": "5442db20-6933-4c01-9457-32e46c304712", "name": "Whitewall Brewing Company", "brewery_type": "micro", "address_1": "14524 Smokey Point Blvd Ste 1", "address_2": null, "address_3": null, "city": "Marysville", "state_province": "Washington", "postal_code": "98271-8921", "country": "United States", "longitude": null, "latitude": null, "phone": "3604540464", "website_url": "http://www.whitewallbrewing.com", "state": "Washington", "street": "14524 Smokey Point Blvd Ste 1"}, {"id": "bb868abb-212b-4862-a8b2-0077272c9dfc", "name": "Whitis AleWorks", "brewery_type": "planning", "address_1": null, "address_2": null, "address_3": null, "city": "Houston", "state_province": "Texas", "postal_code": "77069-3424", "country": "United States", "longitude": null, "latitude": null, "phone": null, "website_url": null, "state": "Texas", "street": null}, {"id": "a299a563-434d-45ea-babc-0e0b3b0434ec", "name": "Whitman Brewing Company", "brewery_type": "planning", "address_1": null, "address_2": null, "address_3": null, "city": "Saratoga Springs", "state_province": "New York", "postal_code": "12866", "country": "United States", "longitude": null, "latitude": null, "phone": "6317868701", "website_url": "http://www.whitmanbrewing.com", "state": "New York", "street": null}, {"id": "b024ba44-162a-4194-b8b8-84c0085a58f6", "name": "Whole Foods Market Brewing Company", "brewery_type": "micro", "address_1": "1700 Post Oak Blvd Ste 1G101", "address_2": null, "address_3": null, "city": "Houston", "state_province": "Texas", "postal_code": "77056-3963", "country": "United States", "longitude": null, "latitude": null, "phone": "7133460537", "website_url": "https://www.wholefoodsmarket.com/", "state": "Texas", "street": "1700 Post Oak Blvd Ste 1G101"}, {"id": "6f0483b4-6dfe-4a12-aa04-a7e7f1f66ab4", "name": "Whole Foods Market Brewing Company- Floodcraft Brewing", "brewery_type": "brewpub", "address_1": "777 The Alameda", "address_2": null, "address_3": null, "city": "San Jose", "state_province": "California", "postal_code": "95126-3155", "country": "United States", "longitude": "-121.9087451", "latitude": "37.3315931", "phone": "4082071126", "website_url": "http://floodcraftbrewing.com/", "state": "California", "street": "777 The Alameda"}, {"id": "d070be83-d4ec-4799-b935-53d28ad8b1ca", "name": "Wibby Brewing", "brewery_type": "micro", "address_1": "209 Emery St", "address_2": null, "address_3": null, "city": "Longmont", "state_province": "Colorado", "postal_code": "80501-5910", "country": "United States", "longitude": "-105.1002098", "latitude": "40.1623965", "phone": null, "website_url": "http://www.wibbybrewing.com", "state": "Colorado", "street": "209 Emery St"}, {"id": "f89d304a-d3ac-41d9-92b8-0ea150b231f0", "name": "Wichita Brewing Co & Pizzeria", "brewery_type": "brewpub", "address_1": "8815 W 13th St N Ste 100", "address_2": null, "address_3": null, "city": "Wichita", "state_province": "Kansas", "postal_code": "67212-4072", "country": "United States", "longitude": null, "latitude": null, "phone": "3162101641", "website_url": "http://www.wichitabrew.com", "state": "Kansas", "street": "8815 W 13th St N Ste 100"}, {"id": "bf687e4e-81f9-45ff-bb1f-34aff10e95e9", "name": "Wichita Brewing Co & Pizzeria", "brewery_type": "brewpub", "address_1": "535 N Woodlawn St", "address_2": null, "address_3": null, "city": "Wichita", "state_province": "Kansas", "postal_code": "67208-3668", "country": "United States", "longitude": "-97.262463", "latitude": "37.74682", "phone": "3164404885", "website_url": "http://www.wichitabrew.com", "state": "Kansas", "street": "535 N Woodlawn St"}, {"id": "b6eb55a9-aea4-433e-bcf7-c5a99cf248af", "name": "Wichita Brewing Co Production, LLC", "brewery_type": "micro", "address_1": "727 E Osie St", "address_2": null, "address_3": null, "city": "Wichita", "state_province": "Kansas", "postal_code": "67211-4327", "country": "United States", "longitude": "-97.32983941", "latitude": "37.66244565", "phone": null, "website_url": null, "state": "Kansas", "street": "727 E Osie St"}, {"id": "529115d6-8c65-4eca-832a-72a3029ca483", "name": "Wichita Falls Brewing Co.", "brewery_type": "micro", "address_1": "701 Indiana Ave", "address_2": null, "address_3": null, "city": "Wichita Falls", "state_province": "Texas", "postal_code": "76301", "country": "United States", "longitude": "-98.491525", "latitude": "33.913486", "phone": "9402644677", "website_url": "http://www.wichitafallsbrewing.com", "state": "Texas", "street": "701 Indiana Ave"}, {"id": "69aacfb0-223a-452c-a71a-db3487dd4186", "name": "Wicked Barley Brewing Co.", "brewery_type": "brewpub", "address_1": "4100 Baymeadows Rd", "address_2": null, "address_3": null, "city": "Jacksonville", "state_province": "Florida", "postal_code": "32217-4602", "country": "United States", "longitude": "-81.5779846", "latitude": "30.2208765", "phone": "9043797077", "website_url": "http://www.wickedbarley.com", "state": "Florida", "street": "4100 Baymeadows Rd"}, {"id": "47595081-be0f-41ac-a459-888cef7be9d2", "name": "Wicked Boxer Brewing", "brewery_type": "brewpub", "address_1": "16326 Mueschke Rd # E10", "address_2": null, "address_3": null, "city": "Cypress", "state_province": "Texas", "postal_code": "77433-4953", "country": "United States", "longitude": "-95.7172092", "latitude": "29.9809872", "phone": "2819781866", "website_url": "http://www.wickedboxer.com", "state": "Texas", "street": "16326 Mueschke Rd # E10"}, {"id": "86217917-be17-4445-8056-4f8b734200af", "name": "Wicked Monkey Brewing Co", "brewery_type": "planning", "address_1": null, "address_2": null, "address_3": null, "city": "Marana", "state_province": "Arizona", "postal_code": "85653-8154", "country": "United States", "longitude": "-111.2157091", "latitude": "32.4446988", "phone": null, "website_url": null, "state": "Arizona", "street": null}, {"id": "c31d47e7-b4a4-4158-a32f-db658ea2d391", "name": "Wicked Teuton Brewing", "brewery_type": "micro", "address_1": "1341 SW Barlow St", "address_2": null, "address_3": null, "city": "Oak Harbor", "state_province": "Washington", "postal_code": "98277-3159", "country": "United States", "longitude": "-122.6599158", "latitude": "48.28728035", "phone": "3608625011", "website_url": null, "state": "Washington", "street": "1341 SW Barlow St"}]