[{"id": "7c8d69e8-5b1c-4de1-b8ce-e4368bc2a4e2", "name": "Miles Craft Ales @ Miles Wine Cellars", "brewery_type": "contract", "address_1": "168 Randall Rd", "address_2": null, "address_3": null, "city": "Himrod", "state_province": "New York", "postal_code": "14842-9715", "country": "United States", "longitude": null, "latitude": null, "phone": "6072437742", "website_url": "http://www.mileswinecellars.com", "state": "New York", "street": "168 Randall Rd"}, {"id": "5b48ea3f-2db4-4ecf-b864-de3579651928", "name": "Milford Point Brewing Company", "brewery_type": "micro", "address_1": "230 Woodmont Rd Ste 29B", "address_2": null, "address_3": null, "city": "Milford", "state_province": "Connecticut", "postal_code": "06460", "country": "United States", "longitude": null, "latitude": null, "phone": "2037019077", "website_url": null, "state": "Connecticut", "street": "230 Woodmont Rd Ste 29B"}, {"id": "d5e5313e-a58c-4076-a44a-07c37cb61d94", "name": "Milkhouse Brewery at Stillpoint Farm", "brewery_type": "micro", "address_1": "8253 Dollyhyde Rd", "address_2": null, "address_3": null, "city": "Mount Airy", "state_province": "Maryland", "postal_code": "21771-9404", "country": "United States", "longitude": null, "latitude": null, "phone": "2404011517", "website_url": "http://www.milkhousebrewery.com", "state": "Maryland", "street": "8253 Dollyhyde Rd"}, {"id": "ec4a41db-5ab0-47b2-b6a8-3fbcad469400", "name": "Mill City Brew Werks", "brewery_type": "closed", "address_1": "339 NE Cedar St", "address_2": null, "address_3": null, "city": "Camas", "state_province": "Washington", "postal_code": "98607-2142", "country": "United States", "longitude": "-122.404172", "latitude": "45.585626", "phone": "3602104761", "website_url": "http://www.mcbwbeer.com", "state": "Washington", "street": "339 NE Cedar St"}, {"id": "6630c59f-a5f1-4d38-8a77-1a4436c232b1", "name": "Mill Creek Brewing Co.", "brewery_type": "micro", "address_1": "2008B Johnson Industrial Blvd", "address_2": null, "address_3": null, "city": "Nolensville", "state_province": "Tennessee", "postal_code": "37135-9773", "country": "United States", "longitude": "-86.67009573", "latitude": "35.9575301", "phone": "6157763377", "website_url": "http://www.millcreekbrewingco.com", "state": "Tennessee", "street": "2008B Johnson Industrial Blvd"}, {"id": "91ed8c2e-960f-4c44-af5b-05e3d550f382", "name": "Mill Creek Brewpub", "brewery_type": "closed", "address_1": "11 S Palouse St", "address_2": null, "address_3": null, "city": "Walla Walla", "state_province": "Washington", "postal_code": "99362-1925", "country": "United States", "longitude": "-118.3349272", "latitude": "46.06927939", "phone": "5095222440", "website_url": "http://www.millcreek-brewpub.com", "state": "Washington", "street": "11 S Palouse St"}, {"id": "8dc2e866-7df1-4d3c-b255-7a3848f88d46", "name": "Mill House Brewing Company", "brewery_type": "brewpub", "address_1": "289 Mill St", "address_2": null, "address_3": null, "city": "Poughkeepsie", "state_province": "New York", "postal_code": "12601-3111", "country": "United States", "longitude": "-73.926472", "latitude": "41.705077", "phone": "8452345573", "website_url": "http://www.millhousebrewing.com", "state": "New York", "street": "289 Mill St"}, {"id": "f7aab246-6d54-4a53-99de-d4a2a306f60e", "name": "Mill House Brewing Company - Production", "brewery_type": "micro", "address_1": null, "address_2": null, "address_3": null, "city": "Poughkeepsie", "state_province": "New York", "postal_code": "12601", "country": "United States", "longitude": null, "latitude": null, "phone": "8452345573", "website_url": null, "state": "New York", "street": null}, {"id": "a04edd75-2b83-4aa5-9dc1-d89bf61f2e38", "name": "Mill River Brewing BBQ & Smokehouse", "brewery_type": "brewpub", "address_1": "10 Beauregard Dr", "address_2": null, "address_3": null, "city": "Saint Albans City", "state_province": "Vermont", "postal_code": "05478", "country": "United States", "longitude": null, "latitude": null, "phone": "8025824182", "website_url": "http://www.millriverbrewing.com", "state": "Vermont", "street": "10 Beauregard Dr"}, {"id": "48e6d408-34ed-41ed-8bfb-fcd23598a36c", "name": "Mill Valley Beer Works", "brewery_type": "brewpub", "address_1": "173 Throckmorton Ave", "address_2": null, "address_3": null, "city": "Mill Valley", "state_province": "California", "postal_code": "94941-1909", "country": "United States", "longitude": "-122.5493619", "latitude": "37.9053888", "phone": null, "website_url": "http://www.millvalleybeerworks.com", "state": "California", "street": "173 Throckmorton Ave"}, {"id": "c240ef6b-1834-4be5-815d-7246abfcee05", "name": "Millcreek Brewing Company", "brewery_type": "brewpub", "address_1": "4102 W Lake Rd", "address_2": null, "address_3": null, "city": "Erie", "state_province": "Pennsylvania", "postal_code": "16505-1561", "country": "United States", "longitude": "-80.3312655", "latitude": "42.029976", "phone": "8146162739", "website_url": "http://www.millcreekbrew.com", "state": "Pennsylvania", "street": "4102 W Lake Rd"}, {"id": "c6d5739a-7f19-404c-a561-009c384535d5", "name": "Millennial Brewing Company", "brewery_type": "micro", "address_1": "1811 Royal Palm Ave", "address_2": null, "address_3": null, "city": "Fort Myers", "state_province": "Florida", "postal_code": "33901-3023", "country": "United States", "longitude": "-81.8643461", "latitude": "26.6429182", "phone": "2392712255", "website_url": "http://www.millennialbrewing.com", "state": "Florida", "street": "1811 Royal Palm Ave"}, {"id": "5418e274-79d7-436c-a772-df99b4fd26ce", "name": "MillerCoors Brewing Co - Albany", "brewery_type": "large", "address_1": "405 Cordele Rd", "address_2": null, "address_3": null, "city": "Albany", "state_province": "Georgia", "postal_code": "31705-2109", "country": "United States", "longitude": "-84.08203126", "latitude": "31.58549343", "phone": null, "website_url": null, "state": "Georgia", "street": "405 Cordele Rd"}, {"id": "b79c9be7-524c-413c-ba52-575944037985", "name": "MillerCoors Brewing Co - Fort Worth", "brewery_type": "large", "address_1": "7001 South Fwy", "address_2": null, "address_3": null, "city": "Fort Worth", "state_province": "Texas", "postal_code": "76134-4001", "country": "United States", "longitude": "-97.3194181", "latitude": "32.6411318", "phone": "8175513255", "website_url": "http://www.millerbrewing.com", "state": "Texas", "street": "7001 South Fwy"}, {"id": "e58e3205-d7d2-4a33-b4c4-c5bbdaca6d88", "name": "MillerCoors Brewing Co - Golden", "brewery_type": "large", "address_1": "311 10th St", "address_2": null, "address_3": null, "city": "Golden", "state_province": "Colorado", "postal_code": "80401-5811", "country": "United States", "longitude": "-105.219592", "latitude": "39.759495", "phone": "3032776246", "website_url": null, "state": "Colorado", "street": "311 10th St"}, {"id": "bc3fa044-4efc-4fa3-aa78-de5bdc12a930", "name": "MillerCoors Brewing Co - Irwindale", "brewery_type": "large", "address_1": "15801 1st St", "address_2": null, "address_3": null, "city": "Irwindale", "state_province": "California", "postal_code": "91706-2069", "country": "United States", "longitude": "-117.9396681", "latitude": "34.12577411", "phone": "6269696225", "website_url": "http://www.millerbrewing.com", "state": "California", "street": "15801 1st St"}, {"id": "083550ee-a87a-40d1-bba1-7aeab8ace401", "name": "MillerCoors Brewing Co - Milwaukee", "brewery_type": "large", "address_1": "4251 W State St", "address_2": null, "address_3": null, "city": "Milwaukee", "state_province": "Wisconsin", "postal_code": "53208-3137", "country": "United States", "longitude": "-87.96633679", "latitude": "43.04207981", "phone": null, "website_url": null, "state": "Wisconsin", "street": "4251 W State St"}, {"id": "b667f592-f199-4e32-b401-0b296a447bde", "name": "MillerCoors Brewing Co - Shenandoah Facility", "brewery_type": "large", "address_1": "5135 South East Side Hwy", "address_2": null, "address_3": null, "city": "Elkton", "state_province": "Virginia", "postal_code": "22827-3469", "country": "United States", "longitude": "-78.68239615", "latitude": "38.35777975", "phone": "5402898201", "website_url": "http://www.coors.com", "state": "Virginia", "street": "5135 South East Side Hwy"}, {"id": "11b078bc-1356-418c-b59e-544845f135b2", "name": "MillerCoors Brewing Co - Trenton", "brewery_type": "large", "address_1": "2525 Wayne Madison Rd", "address_2": null, "address_3": null, "city": "Trenton", "state_province": "Ohio", "postal_code": "45067-9760", "country": "United States", "longitude": "-84.48297139", "latitude": "39.45673615", "phone": "5138964601", "website_url": "http://www.millerbrewing.com", "state": "Ohio", "street": "2525 Wayne Madison Rd"}, {"id": "215e7463-7bd6-446f-b20a-b7b9f55bbc09", "name": "Millersburg Brewing", "brewery_type": "brewpub", "address_1": "60 E Jackson St", "address_2": null, "address_3": null, "city": "Millersburg", "state_province": "Ohio", "postal_code": "44654-1257", "country": "United States", "longitude": "-81.91677867", "latitude": "40.55424322", "phone": "3306744728", "website_url": "http://www.millersburgbrewing.com", "state": "Ohio", "street": "60 E Jackson St"}, {"id": "93fc5696-a0b1-4e3c-b813-f8712792092e", "name": "Mills River Brewery", "brewery_type": "brewpub", "address_1": "330 Rockwood Rd Ste 103", "address_2": null, "address_3": null, "city": "Arden", "state_province": "North Carolina", "postal_code": "28704-8216", "country": "United States", "longitude": null, "latitude": null, "phone": "8285852396", "website_url": "http://www.millsriverbrewery.net", "state": "North Carolina", "street": "330 Rockwood Rd Ste 103"}, {"id": "ba4811a2-f65a-4295-b420-e7750a42fc1f", "name": "Millstream Brewing Co", "brewery_type": "brewpub", "address_1": "835 48th Ave", "address_2": null, "address_3": null, "city": "Amana", "state_province": "Iowa", "postal_code": "52203-8122", "country": "United States", "longitude": "-91.86527265", "latitude": "41.7949318", "phone": "3196223672", "website_url": "http://www.millstreambrewing.com", "state": "Iowa", "street": "835 48th Ave"}, {"id": "76361282-e0b2-47bb-a34e-4141bfd84144", "name": "Millwood Brewing Company", "brewery_type": "micro", "address_1": "9013 E Frederick Ave", "address_2": null, "address_3": null, "city": "Spokane", "state_province": "Washington", "postal_code": "99212-2108", "country": "United States", "longitude": "-117.283755", "latitude": "47.68541108", "phone": "5093689538", "website_url": "http://www.millwoodbrewery.com", "state": "Washington", "street": "9013 E Frederick Ave"}, {"id": "aa3d493d-936c-4798-beb1-ea4491de99ac", "name": "Millyard Brewing", "brewery_type": "micro", "address_1": "25 E Otterson St", "address_2": null, "address_3": null, "city": "Nashua", "state_province": "New Hampshire", "postal_code": "03060-3941", "country": "United States", "longitude": "-71.45988189", "latitude": "42.7544214", "phone": "6035055079", "website_url": "http://www.millyardbrewery.com", "state": "New Hampshire", "street": "25 E Otterson St"}, {"id": "b9875d8a-6efc-49e5-ae7a-87146be3d872", "name": "Milton's Brewing", "brewery_type": "micro", "address_1": "108 E Mermod St", "address_2": null, "address_3": null, "city": "Carlsbad", "state_province": "New Mexico", "postal_code": "88220", "country": "United States", "longitude": "-104.2256158", "latitude": "32.42061065", "phone": "5756891026", "website_url": "http://www.miltonsbrewing.com", "state": "New Mexico", "street": "108 E Mermod St"}, {"id": "71aff9bc-61b0-46b6-b7bc-b123c120f170", "name": "Milwaukee Brewing Co - Production facility", "brewery_type": "micro", "address_1": "613 S 2nd St", "address_2": null, "address_3": null, "city": "Milwaukee", "state_province": "Wisconsin", "postal_code": "53204-1616", "country": "United States", "longitude": "-87.91303682", "latitude": "43.02500965", "phone": "4142262337", "website_url": "http://www.ale-house.com", "state": "Wisconsin", "street": "613 S 2nd St"}, {"id": "37e2d21b-cd0d-4e31-90e7-be86149ec9bf", "name": "Milwaukee Brewing Company", "brewery_type": "micro", "address_1": "613 S 2nd St", "address_2": null, "address_3": null, "city": "Milwaukee", "state_province": "Wisconsin", "postal_code": "53204-1616", "country": "United States", "longitude": "-87.91303682", "latitude": "43.02500965", "phone": "4142262337", "website_url": "http://www.mkebrewing.com", "state": "Wisconsin", "street": "613 S 2nd St"}, {"id": "20aad2db-4ce7-42b7-9a72-c2d4c2b833da", "name": "Milwaukee Premium Brewing Co", "brewery_type": "contract", "address_1": "6591 N Sidney Pl", "address_2": null, "address_3": null, "city": "Glendale", "state_province": "Wisconsin", "postal_code": "53209-3215", "country": "United States", "longitude": "-87.9486093", "latitude": "43.13845743", "phone": "4143625000", "website_url": null, "state": "Wisconsin", "street": "6591 N Sidney Pl"}, {"id": "8db4719d-962f-4e0c-a20d-943f062203e7", "name": "Mindful Brewing Company", "brewery_type": "brewpub", "address_1": "3759 Library Rd", "address_2": null, "address_3": null, "city": "Castle Shannon", "state_province": "Pennsylvania", "postal_code": "15234-2232", "country": "United States", "longitude": "-80.02163298", "latitude": "40.36441782", "phone": "4126683857", "website_url": "http://Www.mindfulbrewing.com", "state": "Pennsylvania", "street": "3759 Library Rd"}, {"id": "cd685064-02d7-4276-b41c-363af29e81f2", "name": "Mine Shaft Brewing", "brewery_type": "planning", "address_1": null, "address_2": null, "address_3": null, "city": "Park City", "state_province": "Utah", "postal_code": "84098-6724", "country": "United States", "longitude": null, "latitude": null, "phone": null, "website_url": "http://www.mineshaftbrewingpc.com", "state": "Utah", "street": null}, {"id": "48bf3d71-82d6-4fec-a193-8782e5b3d5b9", "name": "Miner Brewing Co", "brewery_type": "brewpub", "address_1": "23845 Highway 385", "address_2": null, "address_3": null, "city": "Hill City", "state_province": "South Dakota", "postal_code": "57745-6517", "country": "United States", "longitude": "-103.5224249", "latitude": "43.94871384", "phone": "6055742886", "website_url": "http://www.minerbrewing.com", "state": "South Dakota", "street": "23845 Highway 385"}, {"id": "37884fdf-65bc-480f-ba9a-3f556fa5081a", "name": "Miner Brewing Co", "brewery_type": "brewpub", "address_1": "2101 W 41st St, Ste 25", "address_2": null, "address_3": null, "city": "Sioux Falls", "state_province": "South Dakota", "postal_code": "57105-6195", "country": "United States", "longitude": "-96.75352318", "latitude": "43.51296253", "phone": "6054967175", "website_url": "http://minerbrewingsiouxfalls.com/", "state": "South Dakota", "street": "2101 W 41st St, Ste 25"}, {"id": "3897f010-db31-4b2d-9373-4756987f5b5f", "name": "Miners Alley Brewing Company", "brewery_type": "brewpub", "address_1": "2053 Montgomery St", "address_2": null, "address_3": null, "city": "Oroville", "state_province": "California", "postal_code": "95965-4947", "country": "United States", "longitude": "-121.5549792", "latitude": "39.51414912", "phone": "5306934388", "website_url": "http://www.minersalleybrewingco.com", "state": "California", "street": "2053 Montgomery St"}, {"id": "7e26b37a-fa1d-4acf-8095-ae9c540098f1", "name": "Minglewood Brewery", "brewery_type": "brewpub", "address_1": "121 Broadway St", "address_2": null, "address_3": null, "city": "Cape Girardeau", "state_province": "Missouri", "postal_code": "63701-7326", "country": "United States", "longitude": "-89.51852096", "latitude": "37.30583636", "phone": "5738030524", "website_url": "http://www.minglewoodbrewery.com", "state": "Missouri", "street": "121 Broadway St"}, {"id": "b3731fa3-236f-46f9-bc36-d3556d32b4d1", "name": "Minhas Craft Brewery", "brewery_type": "regional", "address_1": "1208 14th Ave", "address_2": null, "address_3": null, "city": "Monroe", "state_province": "Wisconsin", "postal_code": "53566-2055", "country": "United States", "longitude": "-89.641509", "latitude": "42.59863051", "phone": "6083289120", "website_url": "http://www.minhasbrewery.com", "state": "Wisconsin", "street": "1208 14th Ave"}, {"id": "087974c8-a0fb-4f21-9905-06ef4bb902e4", "name": "Minibrowar Spi\u017c", "brewery_type": "brewpub", "address_1": "Rynek-Ratusz 9", "address_2": null, "address_3": null, "city": "Wroc\u0142aw", "state_province": "dolno\u015bl\u0105skie", "postal_code": "50-106", "country": "Poland", "longitude": "17.0312678", "latitude": "51.1100309", "phone": null, "website_url": null, "state": "dolno\u015bl\u0105skie", "street": "Rynek-Ratusz 9"}, {"id": "655b93f8-9108-460a-a33d-5b418b62f42c", "name": "Minneapolis Town Hall Brewery", "brewery_type": "brewpub", "address_1": "1430 Washington Ave S", "address_2": null, "address_3": null, "city": "Minneapolis", "state_province": "Minnesota", "postal_code": "55454-1038", "country": "United States", "longitude": "-93.247714", "latitude": "44.9733314", "phone": "6123398696", "website_url": "http://www.townhallbrewery.com", "state": "Minnesota", "street": "1430 Washington Ave S"}, {"id": "c5b7e295-6109-4e4a-9eb9-7ae493fb4967", "name": "Minocqua Brewing Co", "brewery_type": "brewpub", "address_1": "238 Lake Shore Dr", "address_2": null, "address_3": null, "city": "Minocqua", "state_province": "Wisconsin", "postal_code": "54548-0081", "country": "United States", "longitude": null, "latitude": null, "phone": "7153562600", "website_url": "http://minocquabrewingcompany.com", "state": "Wisconsin", "street": "238 Lake Shore Dr"}, {"id": "61941d44-a720-4174-a694-d6a438895f75", "name": "Mirage Beer Co", "brewery_type": "proprietor", "address_1": "943 NW 50th St", "address_2": null, "address_3": null, "city": "Seattle", "state_province": "Washington", "postal_code": "98107", "country": "United States", "longitude": "-122.3703933", "latitude": "47.66496474", "phone": null, "website_url": "http://miragebeer.com", "state": "Washington", "street": "943 NW 50th St"}, {"id": "ab6b4d55-6c25-46a6-a080-9b6376fe26c4", "name": "Mirror Twin Brewing", "brewery_type": "brewpub", "address_1": "725 National Ave", "address_2": null, "address_3": null, "city": "Lexington", "state_province": "Kentucky", "postal_code": "40502-1431", "country": "United States", "longitude": "-84.4784656", "latitude": "38.04042235", "phone": "8594478146", "website_url": "http://www.mirrortwinbrewing.com", "state": "Kentucky", "street": "725 National Ave"}, {"id": "4552be6f-35d3-4cd5-b4ba-fde9785eb275", "name": "Misconduct Brewing", "brewery_type": "planning", "address_1": null, "address_2": null, "address_3": null, "city": "Carmel", "state_province": "Indiana", "postal_code": "46033-9414", "country": "United States", "longitude": null, "latitude": null, "phone": null, "website_url": null, "state": "Indiana", "street": null}, {"id": "76cad617-f133-45d8-a927-3d83d3bd7d2e", "name": "Miscreation Brewing Company", "brewery_type": "brewpub", "address_1": "6 Center Sq", "address_2": null, "address_3": null, "city": "Hanover", "state_province": "Pennsylvania", "postal_code": "17331-3001", "country": "United States", "longitude": null, "latitude": null, "phone": "7176983666", "website_url": "http://www.miscreationbrewing.com", "state": "Pennsylvania", "street": "6 Center Sq"}, {"id": "0f66c4e9-7284-4ffa-ad98-7d20ad393412", "name": "Mishap! Brewing Company", "brewery_type": "micro", "address_1": "48 S Main St", "address_2": null, "address_3": null, "city": "Buffalo", "state_province": "Wyoming", "postal_code": "82834-1823", "country": "United States", "longitude": "-106.6985012", "latitude": "44.34570009", "phone": "3076205688", "website_url": "http://www.mishapbrewing.com", "state": "Wyoming", "street": "48 S Main St"}, {"id": "85bd87d6-6db4-4bac-86d1-fc8f6d2d174c", "name": "Mishigama Craft Brewing / Ypsi Alehouse", "brewery_type": "brewpub", "address_1": "124 Pearl St Ste 100", "address_2": null, "address_3": null, "city": "Ypsilanti", "state_province": "Michigan", "postal_code": "48197-5374", "country": "United States", "longitude": null, "latitude": null, "phone": "7344871555", "website_url": "http://www.ypsialehouse.com", "state": "Michigan", "street": "124 Pearl St Ste 100"}, {"id": "e3176cc4-ed3e-4aa6-862a-3327c70e981b", "name": "Miskatonic Brewing Company", "brewery_type": "micro", "address_1": "1000 N Frontage Rd Ste C", "address_2": null, "address_3": null, "city": "Darien", "state_province": "Illinois", "postal_code": "60561-6448", "country": "United States", "longitude": null, "latitude": null, "phone": "6305419414", "website_url": "http://www.miskatonicbrewing.com", "state": "Illinois", "street": "1000 N Frontage Rd Ste C"}, {"id": "8978b04f-52e6-4930-9960-0f78ae143c9c", "name": "Mispillion River Brewing", "brewery_type": "micro", "address_1": "255 Mullet Run St", "address_2": null, "address_3": null, "city": "Milford", "state_province": "Delaware", "postal_code": "19963", "country": "United States", "longitude": "-75.45083871", "latitude": "38.93078885", "phone": "3024916623", "website_url": "http://www.mispillionriverbrewing.com", "state": "Delaware", "street": "255 Mullet Run St"}, {"id": "9b62df32-e3f8-4f7e-a346-f5530a533a57", "name": "Missing Falls Brewery", "brewery_type": "planning", "address_1": null, "address_2": null, "address_3": null, "city": "Akron", "state_province": "Ohio", "postal_code": "44311-1079", "country": "United States", "longitude": null, "latitude": null, "phone": "3308086097", "website_url": null, "state": "Ohio", "street": null}, {"id": "4791280b-8d59-4ae5-9bd4-36911124cb09", "name": "Missing Link Brewery Ltd", "brewery_type": "taproom", "address_1": "Selsfield Road", "address_2": null, "address_3": null, "city": "East Grinstead", "state_province": "West Sussex", "postal_code": "RH16 4QS", "country": "England", "longitude": "-0.070719", "latitude": "51.079995", "phone": "7515336785", "website_url": "https://missinglinkbrewing.com/", "state": "West Sussex", "street": "Selsfield Road"}, {"id": "6c437cbd-0130-4559-8596-a631830eeab7", "name": "Missing Links Brewery", "brewery_type": "brewpub", "address_1": "891 Evans City Rd", "address_2": null, "address_3": null, "city": "Renfrew", "state_province": "Pennsylvania", "postal_code": "16053-9209", "country": "United States", "longitude": null, "latitude": null, "phone": "7249962948", "website_url": "http://www.missinglinksbrewery.com", "state": "Pennsylvania", "street": "891 Evans City Rd"}, {"id": "a5fb1cc5-cdcd-4b4e-ab3b-dd0ecc74d1cc", "name": "Missing Mountain Brewing Company", "brewery_type": "brewpub", "address_1": "2811 Front St", "address_2": null, "address_3": null, "city": "Cuyahoga Falls", "state_province": "Ohio", "postal_code": "44262", "country": "United States", "longitude": "-81.46928097", "latitude": "41.14838453", "phone": null, "website_url": "http://www.missingmountain.com", "state": "Ohio", "street": "2811 Front St"}, {"id": "0e8aa3fe-40d6-4d55-8d2f-2a3348f14421", "name": "Mission Brewery", "brewery_type": "micro", "address_1": "1441 L St", "address_2": null, "address_3": null, "city": "San Diego", "state_province": "California", "postal_code": "92101-8967", "country": "United States", "longitude": "-117.0682152", "latitude": "32.6220746", "phone": "6195440555", "website_url": "http://www.missionbrewery.com", "state": "California", "street": "1441 L St"}, {"id": "ab98ee50-5473-4933-83e7-8cc6645fd0c5", "name": "Missoula Brewing Company", "brewery_type": "brewpub", "address_1": "200 International Dr", "address_2": null, "address_3": null, "city": "Missoula", "state_province": "Montana", "postal_code": "59808-1584", "country": "United States", "longitude": "-114.0433078", "latitude": "46.90454835", "phone": "4065498193", "website_url": "http://www.highlanderbeer.com", "state": "Montana", "street": "200 International Dr"}, {"id": "a1274517-d0af-4c1b-8b7b-2ec4662d2681", "name": "Missouri Beer Company", "brewery_type": "micro", "address_1": "22 W Industrial Dr", "address_2": null, "address_3": null, "city": "O Fallon", "state_province": "Missouri", "postal_code": "63366-1926", "country": "United States", "longitude": "-90.75261", "latitude": "38.805938", "phone": "6362946672", "website_url": "http://www.mobeerco.com", "state": "Missouri", "street": "22 W Industrial Dr"}, {"id": "bdb7f3a3-e8fb-46ca-a28c-9ff8b6ef345b", "name": "Missouri Breaks Brewing", "brewery_type": "micro", "address_1": "326 Main St", "address_2": null, "address_3": null, "city": "Wolf Point", "state_province": "Montana", "postal_code": "59201-0654", "country": "United States", "longitude": "-105.6421748", "latitude": "48.09013004", "phone": "4066531467", "website_url": "http://www.missouribreaksbrewing.com", "state": "Montana", "street": "326 Main St"}, {"id": "e6c27506-2269-4b6e-bad9-6b9e2c16a1da", "name": "Mistress Brewing Company", "brewery_type": "micro", "address_1": "1802 N Ankeny Blvd #108", "address_2": null, "address_3": null, "city": "Ankeny", "state_province": "Iowa", "postal_code": "50023-1802", "country": "United States", "longitude": "-93.60151181", "latitude": "41.74780209", "phone": "5157712133", "website_url": "http://www.mistressbrewing.com", "state": "Iowa", "street": "1802 N Ankeny Blvd #108"}, {"id": "2519c182-f15e-47cc-9d2a-4291dfa134bc", "name": "Misty Mountain Brewery", "brewery_type": "brewpub", "address_1": "625 Chetco Ave Suite 120", "address_2": null, "address_3": null, "city": "Brookings", "state_province": "Oregon", "postal_code": "97415-9519", "country": "United States", "longitude": "-124.2824159", "latitude": "42.05228881", "phone": "5418132599", "website_url": "https://mistymountainbrewing.com/", "state": "Oregon", "street": "625 Chetco Ave Suite 120"}, {"id": "01812623-d7f6-46db-80fa-b50dbea7db36", "name": "Mitten Brewing Co - Northport", "brewery_type": "brewpub", "address_1": "112 W Nagonaba St", "address_2": null, "address_3": null, "city": "Northport", "state_province": "Michigan", "postal_code": "49670-5018", "country": "United States", "longitude": "-85.61801909", "latitude": "45.129833", "phone": "6163182448", "website_url": null, "state": "Michigan", "street": "112 W Nagonaba St"}, {"id": "f77c9b88-94ee-4033-a93c-4d32f09f155d", "name": "Moab Brewery", "brewery_type": "micro", "address_1": "686 S Main St", "address_2": null, "address_3": null, "city": "Moab", "state_province": "Utah", "postal_code": "84532-2901", "country": "United States", "longitude": "-109.549606", "latitude": "38.56263", "phone": "4352596333", "website_url": "http://www.themoabbrewery.com", "state": "Utah", "street": "686 S Main St"}, {"id": "dfe6e726-9bba-4653-8dcc-c8ec944baa1c", "name": "Moat Mountain Smoke House and Brewing Co", "brewery_type": "brewpub", "address_1": "3378 White Mountain Highway", "address_2": null, "address_3": null, "city": "North Conway", "state_province": "New Hampshire", "postal_code": "03860-1518", "country": "United States", "longitude": "-71.14358535", "latitude": "44.06850015", "phone": "6033566381", "website_url": "http://www.moatmountain.com", "state": "New Hampshire", "street": "3378 White Mountain Highway"}, {"id": "f2d6ec98-b9b1-448c-948a-93bd0e8a3528", "name": "MobCraft Beer", "brewery_type": "proprietor", "address_1": "505 S 5th St", "address_2": null, "address_3": null, "city": "Milwaukee", "state_province": "Wisconsin", "postal_code": "53204-1518", "country": "United States", "longitude": "-87.91693739", "latitude": "43.02618384", "phone": "6083463003", "website_url": "http://www.mobcraftbeer.com", "state": "Wisconsin", "street": "505 S 5th St"}, {"id": "53a0bd5c-f9f3-4ee4-b4b0-0a41cf89376e", "name": "Mobtown Brewing Co", "brewery_type": "planning", "address_1": null, "address_2": null, "address_3": null, "city": "Baltimore", "state_province": "Maryland", "postal_code": "21224-4716", "country": "United States", "longitude": null, "latitude": null, "phone": "4104198312", "website_url": null, "state": "Maryland", "street": null}, {"id": "93025041-59f2-44a9-8a2b-bec7c74c158b", "name": "Moby Dick Brewing Co.", "brewery_type": "brewpub", "address_1": "16 S Water St", "address_2": null, "address_3": null, "city": "New Bedford", "state_province": "Massachusetts", "postal_code": "02740-7235", "country": "United States", "longitude": "-70.92251325", "latitude": "41.63382101", "phone": "7742026961", "website_url": "http://www.mobydickbrewing.com", "state": "Massachusetts", "street": "16 S Water St"}, {"id": "c516f2aa-753b-484a-abb9-91312929211d", "name": "Mocama Brewing Company", "brewery_type": "planning", "address_1": null, "address_2": null, "address_3": null, "city": "Fernandina Beach", "state_province": "Florida", "postal_code": "32034", "country": "United States", "longitude": null, "latitude": null, "phone": "7062022077", "website_url": "http://www.mocama.com", "state": "Florida", "street": null}, {"id": "5fd90c67-116f-4826-ae88-83b3a5ecd603", "name": "Moccasin Bend Brewing Co", "brewery_type": "micro", "address_1": "3210 Broad St # B", "address_2": null, "address_3": null, "city": "Chattanooga", "state_province": "Tennessee", "postal_code": "37408-3059", "country": "United States", "longitude": null, "latitude": null, "phone": "4238216392", "website_url": "http://www.bendbrewingbeer.com", "state": "Tennessee", "street": "3210 Broad St # B"}, {"id": "dc6da585-1369-4b60-b00a-e39dffed1dd9", "name": "Mockery Brewing", "brewery_type": "micro", "address_1": "3501 Delgany St", "address_2": null, "address_3": null, "city": "Denver", "state_province": "Colorado", "postal_code": "80216-3617", "country": "United States", "longitude": "-104.9797349", "latitude": "39.7712389", "phone": "3039532058", "website_url": "http://Mockerybrewing.com", "state": "Colorado", "street": "3501 Delgany St"}, {"id": "73878a6f-9d44-49b4-a0b1-31ea0a115e20", "name": "Moderation Brewing", "brewery_type": "micro", "address_1": "103 Maine St", "address_2": null, "address_3": null, "city": "Brunswick", "state_province": "Maine", "postal_code": "04011-2012", "country": "United States", "longitude": "-69.96566833", "latitude": "43.91631921", "phone": "12073479918", "website_url": "http://www.moderationbrewery.com", "state": "Maine", "street": "103 Maine St"}, {"id": "5895ab5b-ba99-44f5-b9f1-48e332e7f20e", "name": "Modern Brewery", "brewery_type": "micro", "address_1": "5231 Manchester Ave # E", "address_2": null, "address_3": null, "city": "Saint Louis", "state_province": "Missouri", "postal_code": "63110-2092", "country": "United States", "longitude": "-90.273784", "latitude": "38.625149", "phone": null, "website_url": "http://www.mb314.com", "state": "Missouri", "street": "5231 Manchester Ave # E"}, {"id": "ce39bb88-81c5-4d53-b95c-da6ffaa25c3c", "name": "Modern Methods Brewing Company", "brewery_type": "micro", "address_1": "125 David Grohl Alley", "address_2": null, "address_3": null, "city": "Warren", "state_province": "Ohio", "postal_code": "44481", "country": "United States", "longitude": null, "latitude": null, "phone": "3303331594", "website_url": "http://www.modernmethodsbrew.com", "state": "Ohio", "street": "125 David Grohl Alley"}, {"id": "0203914c-a149-405a-8138-084ec3e5c1e4", "name": "Modern Romance Brewery", "brewery_type": "planning", "address_1": null, "address_2": null, "address_3": null, "city": "Durham", "state_province": "North Carolina", "postal_code": "27703-5133", "country": "United States", "longitude": null, "latitude": null, "phone": "9192594469", "website_url": "http://www.drinkmodern.com", "state": "North Carolina", "street": null}, {"id": "6794eb82-4607-4730-bd12-4d164deb365f", "name": "Modern Times - The Belmont Fermentorium", "brewery_type": "brewpub", "address_1": "630 SE Belmont St", "address_2": null, "address_3": null, "city": "Portland", "state_province": "Oregon", "postal_code": "97214-2372", "country": "United States", "longitude": "-122.6590469", "latitude": "45.516294", "phone": null, "website_url": null, "state": "Oregon", "street": "630 SE Belmont St"}, {"id": "1f33d1c9-74e4-46bb-822e-aebfa1d180b9", "name": "Modern Times - The Dankness Dojo", "brewery_type": "brewpub", "address_1": "3725 Greenwood St", "address_2": null, "address_3": null, "city": "San Diego", "state_province": "California", "postal_code": "92110-4441", "country": "United States", "longitude": "-117.206153", "latitude": "32.754233", "phone": "6195469694", "website_url": null, "state": "California", "street": "3725 Greenwood St"}, {"id": "ab1d0e1c-87ce-4556-98af-8922c0d380ad", "name": "Modern Times Barrel House", "brewery_type": "micro", "address_1": "3486 Kurtz St # 102", "address_2": null, "address_3": null, "city": "San Diego", "state_province": "California", "postal_code": "92110-4429", "country": "United States", "longitude": "-117.208725", "latitude": "32.75539325", "phone": null, "website_url": null, "state": "California", "street": "3486 Kurtz St # 102"}, {"id": "579aa3fb-9386-4a0e-b617-8b4d72cd5075", "name": "Modern Times Beer", "brewery_type": "regional", "address_1": "3725 Greenwood St", "address_2": null, "address_3": null, "city": "San Diego", "state_province": "California", "postal_code": "92110-4441", "country": "United States", "longitude": "-117.206153", "latitude": "32.754233", "phone": "6195469694", "website_url": "http://www.moderntimesbeer.com", "state": "California", "street": "3725 Greenwood St"}, {"id": "da2e1ebe-3db9-4d34-8db5-70e12becbd60", "name": "Modicum Brewing", "brewery_type": "micro", "address_1": "3732 Spooner Ave Ste A", "address_2": null, "address_3": null, "city": "Altoona", "state_province": "Wisconsin", "postal_code": "54720-1097", "country": "United States", "longitude": null, "latitude": null, "phone": "7158958585", "website_url": "http://www.modicumbrewing.com", "state": "Wisconsin", "street": "3732 Spooner Ave Ste A"}, {"id": "f5d9e0de-18c9-4763-aef9-36d71d6b1bce", "name": "Modist Brewing Company", "brewery_type": "micro", "address_1": "505 N 3rd St", "address_2": null, "address_3": null, "city": "Minneapolis", "state_province": "Minnesota", "postal_code": "55401-1201", "country": "United States", "longitude": "-93.2708126", "latitude": "44.9816901", "phone": "6124540258", "website_url": "http://www.modistbrewing.com", "state": "Minnesota", "street": "505 N 3rd St"}, {"id": "bbd537a3-ccad-4284-88a1-914527d8ed6e", "name": "Moeller Brew Barn", "brewery_type": "micro", "address_1": "8016 Marion Dr", "address_2": null, "address_3": null, "city": "Maria Stein", "state_province": "Ohio", "postal_code": "45860-8706", "country": "United States", "longitude": "-84.49312675", "latitude": "40.42144783", "phone": "4199253005", "website_url": "http://www.moellerbrewbarn.com", "state": "Ohio", "street": "8016 Marion Dr"}, {"id": "916efcdf-12c7-4c76-9a22-1312ad526e34", "name": "Moerlein Lager House", "brewery_type": "brewpub", "address_1": "115 Joe Nuxhall Way", "address_2": null, "address_3": null, "city": "Cincinnati", "state_province": "Ohio", "postal_code": "45202-4143", "country": "United States", "longitude": "-84.50871677", "latitude": "39.09630095", "phone": "5134212337", "website_url": "http://www.moerleinlagerhouse.com", "state": "Ohio", "street": "115 Joe Nuxhall Way"}, {"id": "87ed7ff9-556b-4b20-aa67-282b4db14fd6", "name": "Mohegan Cafe and Brewery", "brewery_type": "brewpub", "address_1": "213 Water St", "address_2": null, "address_3": null, "city": "Block Island", "state_province": "Rhode Island", "postal_code": "02807", "country": "United States", "longitude": "-69.32038438", "latitude": "43.7594709", "phone": "4014665911", "website_url": "https://monheganbrewing.com", "state": "Rhode Island", "street": "213 Water St"}, {"id": "a1eaf419-9ea7-4962-bc8a-bd958d2474a0", "name": "Moksa Brewing Co", "brewery_type": "micro", "address_1": "5860 Pacific St", "address_2": null, "address_3": null, "city": "Rocklin", "state_province": "California", "postal_code": "95677-3738", "country": "United States", "longitude": "-121.2418299", "latitude": "38.78184183", "phone": "9168241366", "website_url": "http://www.moksabrewing.com", "state": "California", "street": "5860 Pacific St"}, {"id": "72e9790d-9d53-4cfd-84a4-9e856ba4f8f2", "name": "Moksha Beer", "brewery_type": "contract", "address_1": null, "address_2": null, "address_3": null, "city": "San Jose", "state_province": "California", "postal_code": "95154-0279", "country": "United States", "longitude": "-121.8905833", "latitude": "37.3361905", "phone": "4157295796", "website_url": "http://www.mokshabeer.com", "state": "California", "street": null}, {"id": "40f60211-0a54-4c69-947e-5e88e928e5a4", "name": "Mollusk Brewing", "brewery_type": "brewpub", "address_1": "803 Dexter Ave N", "address_2": null, "address_3": null, "city": "Seattle", "state_province": "Washington", "postal_code": "98109-4320", "country": "United States", "longitude": "-122.3425442", "latitude": "47.6269357", "phone": "2064031228", "website_url": "http://www.molluskseattle.com", "state": "Washington", "street": "803 Dexter Ave N"}, {"id": "93795384-e211-40b3-aa93-7be4d0c83965", "name": "Molly Pitcher Brewing Co", "brewery_type": "micro", "address_1": "10 E South St", "address_2": null, "address_3": null, "city": "Carlisle", "state_province": "Pennsylvania", "postal_code": "17013-3426", "country": "United States", "longitude": "-77.1890465", "latitude": "40.1982144", "phone": "7176090969", "website_url": "http://www.mollypitcher.com", "state": "Pennsylvania", "street": "10 E South St"}, {"id": "0877aaf4-72b4-4efa-b354-19560ae7c9f2", "name": "MoMac Brewing Company", "brewery_type": "micro", "address_1": "3228 Academy Ave", "address_2": null, "address_3": null, "city": "Portsmouth", "state_province": "Virginia", "postal_code": "23703-3203", "country": "United States", "longitude": "-76.39759141", "latitude": "36.86257934", "phone": "7573839572", "website_url": "http://www.momacbrewing.com", "state": "Virginia", "street": "3228 Academy Ave"}, {"id": "a2c6c2f2-7f07-4130-a7e3-19dd8e504134", "name": "Momentum Brewhouse", "brewery_type": "micro", "address_1": "9786 Bonita Beach Rd SE Ste 1", "address_2": null, "address_3": null, "city": "Bonita Springs", "state_province": "Florida", "postal_code": "34135-4666", "country": "United States", "longitude": null, "latitude": null, "phone": "2399499945", "website_url": "http://www.momentumbrewhouse.com", "state": "Florida", "street": "9786 Bonita Beach Rd SE Ste 1"}, {"id": "11c1cf1f-22e3-429d-8cfb-ebb84b90b6f9", "name": "Monadnock Brewing Company LLC", "brewery_type": "planning", "address_1": null, "address_2": null, "address_3": null, "city": "Langdon", "state_province": "New Hampshire", "postal_code": "03602-8604", "country": "United States", "longitude": null, "latitude": null, "phone": "6033136317", "website_url": "http://www.monadnockbrewing.com", "state": "New Hampshire", "street": null}, {"id": "bb5d13ac-8842-48f3-961a-f57413264a55", "name": "Monday Night Brewing", "brewery_type": "micro", "address_1": "670 Trabert Ave NW", "address_2": null, "address_3": null, "city": "Atlanta", "state_province": "Georgia", "postal_code": "30318-4230", "country": "United States", "longitude": "-84.40989212", "latitude": "33.79480405", "phone": "4043527703", "website_url": "http://www.mondaynightbrewing.com", "state": "Georgia", "street": "670 Trabert Ave NW"}, {"id": "cddb19b7-b910-48b5-a64f-d3924eaec4e4", "name": "Monday Night Brewing - Garage", "brewery_type": "micro", "address_1": "933 Lee St SW", "address_2": null, "address_3": null, "city": "Atlanta", "state_province": "Georgia", "postal_code": "30310", "country": "United States", "longitude": "-84.41617724", "latitude": "33.72906429", "phone": null, "website_url": null, "state": "Georgia", "street": "933 Lee St SW"}, {"id": "94e299ad-65d5-422a-a3ec-e26e2354765e", "name": "Monhegan Brewing Co.", "brewery_type": "micro", "address_1": "1 Boody Lane", "address_2": null, "address_3": null, "city": "Monhegan", "state_province": "Maine", "postal_code": "04852", "country": "United States", "longitude": "-69.320989", "latitude": "43.758828", "phone": "2079753958", "website_url": "http://www.monheganbrewing.com", "state": "Maine", "street": "1 Boody Lane"}, {"id": "62009eb2-a83b-4535-8205-1b5a9ed86aef", "name": "Moniker Brewery", "brewery_type": "micro", "address_1": "432 W Fountain St", "address_2": null, "address_3": null, "city": "Providence", "state_province": "Rhode Island", "postal_code": "02903-3516", "country": "United States", "longitude": "-71.4239298", "latitude": "41.8183971", "phone": "4016480150", "website_url": "http://www.monikerbrewery.com", "state": "Rhode Island", "street": "432 W Fountain St"}, {"id": "45f21aa8-4f34-49e1-80a2-be7c155ac474", "name": "Monk's Ale House", "brewery_type": "brewpub", "address_1": "420 E 8th St", "address_2": null, "address_3": null, "city": "Sioux Falls", "state_province": "South Dakota", "postal_code": "57103-7025", "country": "United States", "longitude": "-96.7218594", "latitude": "43.5488749", "phone": "6053382328", "website_url": "http://www.monkshouseofalerepute.com", "state": "South Dakota", "street": "420 E 8th St"}, {"id": "9c9bcbad-da63-4d7d-9729-1f1e7793b65b", "name": "Monk's Cellar", "brewery_type": "brewpub", "address_1": "240 Vernon St", "address_2": null, "address_3": null, "city": "Roseville", "state_province": "California", "postal_code": "95678-2633", "country": "United States", "longitude": "-121.2833983", "latitude": "38.74958737", "phone": "9167866665", "website_url": "http://monkscellar.com", "state": "California", "street": "240 Vernon St"}, {"id": "7b95f031-e380-4eef-96c1-6c9d2b4f6ae1", "name": "Monka Brewing Co", "brewery_type": "brewpub", "address_1": "17211 15th Ave NE", "address_2": null, "address_3": null, "city": "Shoreline", "state_province": "Washington", "postal_code": "98155", "country": "United States", "longitude": "-122.3138346", "latitude": "47.75506305", "phone": null, "website_url": "http://www.monkabeer.com", "state": "Washington", "street": "17211 15th Ave NE"}, {"id": "bf0d31c6-6080-478a-9caf-164e6545931d", "name": "Monkey Paw Brewing", "brewery_type": "micro", "address_1": "807 16th St", "address_2": null, "address_3": null, "city": "San Diego", "state_province": "California", "postal_code": "92101-6610", "country": "United States", "longitude": "-117.149375", "latitude": "32.71384441", "phone": "6198672226", "website_url": "http://www.monkeypawbrewing.com", "state": "California", "street": "807 16th St"}, {"id": "5d486fcd-c217-4540-8cfb-4f3ed6a3c467", "name": "Monkey Town Brewing Company", "brewery_type": "brewpub", "address_1": "287 1st Ave", "address_2": null, "address_3": null, "city": "Dayton", "state_province": "Tennessee", "postal_code": "37321-1248", "country": "United States", "longitude": "-85.01275238", "latitude": "35.49313804", "phone": "4237751800", "website_url": "http://www.monkeytownbrewing.com", "state": "Tennessee", "street": "287 1st Ave"}, {"id": "f663c1cc-0fca-4d22-9d98-5e36d10e9cb4", "name": "Monkey Wrench Brewing Company LLC", "brewery_type": "planning", "address_1": null, "address_2": null, "address_3": null, "city": "Snellville", "state_province": "Georgia", "postal_code": "30078-6503", "country": "United States", "longitude": null, "latitude": null, "phone": "6785212142", "website_url": "http://www.monkeywrenchbrewing.com", "state": "Georgia", "street": null}, {"id": "3f894bab-a549-4431-898b-7408fbdf766d", "name": "Monkish Brewing Co", "brewery_type": "micro", "address_1": "20311 S Western Ave", "address_2": null, "address_3": null, "city": "Torrance", "state_province": "California", "postal_code": "90501-1504", "country": "United States", "longitude": "-118.3101863", "latitude": "33.8465751", "phone": "3102952157", "website_url": "http://www.monkishbrewing.com", "state": "California", "street": "20311 S Western Ave"}, {"id": "08c0b79e-eca7-4f93-9da7-7af413c7e184", "name": "Monkless Belgian Ales", "brewery_type": "micro", "address_1": "20750 High Desert Ln Suite 107", "address_2": null, "address_3": null, "city": "Bend", "state_province": "Oregon", "postal_code": "97701", "country": "United States", "longitude": "-121.3179164", "latitude": "44.0502063", "phone": "5416105492", "website_url": "http://www.monkless.com", "state": "Oregon", "street": "20750 High Desert Ln Suite 107"}, {"id": "01d5e4da-2af7-4046-aa73-5dc4a1d5249f", "name": "Monnik Beer Company", "brewery_type": "brewpub", "address_1": "1036 E Burnett Ave", "address_2": null, "address_3": null, "city": "Louisville", "state_province": "Kentucky", "postal_code": "40217-1206", "country": "United States", "longitude": "-85.739379", "latitude": "38.2225607", "phone": "5027426564", "website_url": null, "state": "Kentucky", "street": "1036 E Burnett Ave"}, {"id": "adfe0535-71ce-4c68-859d-ffdf7a96883b", "name": "Monocacy Brewing Co", "brewery_type": "micro", "address_1": "1781 N Market St", "address_2": null, "address_3": null, "city": "Frederick", "state_province": "Maryland", "postal_code": "21701-4305", "country": "United States", "longitude": "-77.3989904", "latitude": "39.4403205", "phone": "3016310671", "website_url": null, "state": "Maryland", "street": "1781 N Market St"}, {"id": "5279fe01-5f9f-41d2-b21d-e0c64d12f682", "name": "Monolitch Brewing Company", "brewery_type": "micro", "address_1": "4915 North 120th Street", "address_2": null, "address_3": null, "city": "Omaha", "state_province": "Nebraska", "postal_code": "68164", "country": "United States", "longitude": null, "latitude": null, "phone": "4025024477", "website_url": "http://monolithicbrewing.com", "state": "Nebraska", "street": "4915 North 120th Street"}, {"id": "0218dd8a-e129-4fef-b2a8-9654d0f58621", "name": "Montana Brewing Co", "brewery_type": "brewpub", "address_1": "113 N Broadway", "address_2": null, "address_3": null, "city": "Billings", "state_province": "Montana", "postal_code": "59101-2043", "country": "United States", "longitude": null, "latitude": null, "phone": "4062529200", "website_url": "http://www.montanabrewingcompany.com", "state": "Montana", "street": "113 N Broadway"}, {"id": "e5fbd122-91d8-46bf-8b3a-02b8cd4541ad", "name": "Montauk Brewing Co", "brewery_type": "micro", "address_1": "62 S Erie Ave", "address_2": null, "address_3": null, "city": "Montauk", "state_province": "New York", "postal_code": "11954-5370", "country": "United States", "longitude": "-71.9440878", "latitude": "41.0366959", "phone": "6316688471", "website_url": "http://www.montaukbrewingco.com", "state": "New York", "street": "62 S Erie Ave"}, {"id": "25f4c3e0-6925-4d69-b79f-3318762466cc", "name": "Montavilla Brew Works", "brewery_type": "micro", "address_1": "7805 SE Stark St", "address_2": null, "address_3": null, "city": "Portland", "state_province": "Oregon", "postal_code": "97215-2339", "country": "United States", "longitude": "-122.5833557", "latitude": "45.5193212", "phone": "5039543440", "website_url": "http://www.montavillabrew.com", "state": "Oregon", "street": "7805 SE Stark St"}, {"id": "f92345b4-2f02-4cb6-b66f-66c1c460ac2a", "name": "Montclair Brewery", "brewery_type": "planning", "address_1": null, "address_2": null, "address_3": null, "city": "Montclair", "state_province": "New Jersey", "postal_code": "07042-4038", "country": "United States", "longitude": null, "latitude": null, "phone": "9737807513", "website_url": "http://www.montclairbrewery.com", "state": "New Jersey", "street": null}, {"id": "716d2b8a-7d4c-413d-8ae3-ec76851eadd8", "name": "Monterey Coast Brewing", "brewery_type": "brewpub", "address_1": "165 Main Street", "address_2": null, "address_3": null, "city": "Salinas", "state_province": "California", "postal_code": "93901", "country": "United States", "longitude": "-121.6551251", "latitude": "36.67613608", "phone": "8317582337", "website_url": "http://www.montereycoastbrewing.com", "state": "California", "street": "165 Main Street"}, {"id": "fb2cd2d3-8368-455c-97f4-81376d06e4fe", "name": "Montgomery Brewing Company", "brewery_type": "micro", "address_1": "306 2nd St NW", "address_2": null, "address_3": null, "city": "Montgomery", "state_province": "Minnesota", "postal_code": "56069-1011", "country": "United States", "longitude": "-93.58265606", "latitude": "44.44107361", "phone": null, "website_url": "http://www.montgomerybrewing.com", "state": "Minnesota", "street": "306 2nd St NW"}, {"id": "eb91ff82-129b-4177-82f9-7646a4a1bb33", "name": "Montross Brewery", "brewery_type": "micro", "address_1": "15381 Kings Hwy", "address_2": null, "address_3": null, "city": "Montross", "state_province": "Virginia", "postal_code": "22520-2746", "country": "United States", "longitude": "-76.83216539", "latitude": "38.09269187", "phone": "8044527394", "website_url": "http://www.montrossbrewery.com", "state": "Virginia", "street": "15381 Kings Hwy"}, {"id": "f5873cbb-e231-4a70-8ed5-0bfd9f2beca5", "name": "Montucky Cold Snacks", "brewery_type": "contract", "address_1": "123 W Lewis St", "address_2": null, "address_3": null, "city": "Livingston", "state_province": "Montana", "postal_code": "59047-3010", "country": "United States", "longitude": null, "latitude": null, "phone": "4068718886", "website_url": "http://www.montuckycoldsnacks.com", "state": "Montana", "street": "123 W Lewis St"}, {"id": "578c6794-5cf7-492d-93ea-650309b74025", "name": "Monument City Brewing Co", "brewery_type": "micro", "address_1": "1 N Haven St Ste A", "address_2": null, "address_3": null, "city": "Baltimore", "state_province": "Maryland", "postal_code": "21224-1614", "country": "United States", "longitude": null, "latitude": null, "phone": "4105993008", "website_url": "http://www.monumentcitybrewing.com", "state": "Maryland", "street": "1 N Haven St Ste A"}, {"id": "8a895c3b-63fc-4838-981a-627e366fcf2e", "name": "Monzula Farm Brewery / Vineyard 22", "brewery_type": "micro", "address_1": "83800 Monzula Rd", "address_2": null, "address_3": null, "city": "Cadiz", "state_province": "Ohio", "postal_code": "43907", "country": "United States", "longitude": null, "latitude": null, "phone": "7404917000", "website_url": "http://www.vineyard22winery.com", "state": "Ohio", "street": "83800 Monzula Rd"}, {"id": "3aa48d79-7a78-493f-ba41-ca790a5aa3b2", "name": "Moo-Duck Brewery", "brewery_type": "brewpub", "address_1": "79 S Wilson Ave", "address_2": null, "address_3": null, "city": "Elizabethtown", "state_province": "Pennsylvania", "postal_code": "17022-2166", "country": "United States", "longitude": "-76.61161117", "latitude": "40.1473526", "phone": null, "website_url": "http://www.mooduckbrewery.com", "state": "Pennsylvania", "street": "79 S Wilson Ave"}, {"id": "f8b36211-efe3-4174-9de6-9b160719e6d6", "name": "Moody Tongue Brewing Company", "brewery_type": "micro", "address_1": "2136 S Peoria St", "address_2": null, "address_3": null, "city": "Chicago", "state_province": "Illinois", "postal_code": "60608-4526", "country": "United States", "longitude": "-87.6483419", "latitude": "41.8532798", "phone": "3126005111", "website_url": "http://www.moodytongue.com", "state": "Illinois", "street": "2136 S Peoria St"}, {"id": "ab554af2-05cd-43cf-865a-2e5442ff8f2a", "name": "Moon Hill Brewing Co., Inc.", "brewery_type": "brewpub", "address_1": "74 Parker St", "address_2": null, "address_3": null, "city": "Gardner", "state_province": "Massachusetts", "postal_code": "01440-3809", "country": "United States", "longitude": "-71.997003", "latitude": "42.57590133", "phone": "9786690122", "website_url": "http://www.gardnerale.com", "state": "Massachusetts", "street": "74 Parker St"}, {"id": "c534e94c-c5bf-4738-bd28-5c91120bbf51", "name": "Moon River Brewing Co", "brewery_type": "brewpub", "address_1": "21 W Bay St", "address_2": null, "address_3": null, "city": "Savannah", "state_province": "Georgia", "postal_code": "31401-1106", "country": "United States", "longitude": "-81.09178578", "latitude": "32.08098573", "phone": "9124470943", "website_url": "http://www.moonriverbrewing.com", "state": "Georgia", "street": "21 W Bay St"}, {"id": "9bf8c8f9-ee9a-49b5-b80b-2a8cdb5ec407", "name": "Moon Tower Sudworks", "brewery_type": "brewpub", "address_1": "3004 Canal St", "address_2": null, "address_3": null, "city": "Houston", "state_province": "Texas", "postal_code": "77003-1627", "country": "United States", "longitude": "-95.3409715", "latitude": "29.7543105", "phone": "8322660105", "website_url": "http://www.damngoodfoodcoldassbeer.com", "state": "Texas", "street": "3004 Canal St"}, {"id": "7342cee2-55da-469a-9d5b-b7d5905dec81", "name": "Moonlight Brewing Co", "brewery_type": "large", "address_1": "3350 Coffey Ln Ste A", "address_2": null, "address_3": null, "city": "Santa Rosa", "state_province": "California", "postal_code": "95403-7412", "country": "United States", "longitude": "-122.7445804", "latitude": "38.47188347", "phone": "7075282537", "website_url": "http://www.moonlightbrewing.com", "state": "California", "street": "3350 Coffey Ln Ste A"}, {"id": "e1408cf3-3932-4ca7-bbfa-4f5fda95ade3", "name": "Moonlight Meadery/Hidden Moon Brewing", "brewery_type": "contract", "address_1": "23 Londonderry Rd Unit 17", "address_2": null, "address_3": null, "city": "Londonderry", "state_province": "New Hampshire", "postal_code": "03053-3314", "country": "United States", "longitude": null, "latitude": null, "phone": "6032162162", "website_url": "http://www.moonlightmeadery.com", "state": "New Hampshire", "street": "23 Londonderry Rd Unit 17"}, {"id": "869baabc-5532-4bc8-b85c-7d96b9e584eb", "name": "Moonlight Pizza", "brewery_type": "brewpub", "address_1": "242 F St", "address_2": null, "address_3": null, "city": "Salida", "state_province": "Colorado", "postal_code": "81201-2104", "country": "United States", "longitude": "-105.9931616", "latitude": "38.53502271", "phone": "7195394277", "website_url": "http://www.moonlightpizza.biz", "state": "Colorado", "street": "242 F St"}, {"id": "4a3e3e24-96f3-4194-b154-2bf6107adae6", "name": "Moonraker Brewing Co", "brewery_type": "micro", "address_1": "12970 Earhart Ave Ste 100", "address_2": null, "address_3": null, "city": "Auburn", "state_province": "California", "postal_code": "95602-9022", "country": "United States", "longitude": "-121.0817905", "latitude": "38.95069985", "phone": "5307456816", "website_url": "http://www.moonrakerbrewing.com", "state": "California", "street": "12970 Earhart Ave Ste 100"}, {"id": "2b4f0097-357d-4eda-9a01-057406f742b6", "name": "Moonraker Brewing Company (Production Facility)", "brewery_type": "micro", "address_1": "2349 Rickenbacker Way", "address_2": null, "address_3": null, "city": "Auburn", "state_province": "California", "postal_code": "95602", "country": "United States", "longitude": "-121.0813686", "latitude": "38.95249916", "phone": "5307456816", "website_url": null, "state": "California", "street": "2349 Rickenbacker Way"}, {"id": "4d7c0a97-2e29-473d-9544-653346bb9ee5", "name": "MoonRidge Brewpub", "brewery_type": "brewpub", "address_1": "501 Bridge St", "address_2": null, "address_3": null, "city": "Cornell", "state_province": "Wisconsin", "postal_code": "54732-8392", "country": "United States", "longitude": "-91.1589648", "latitude": "45.1653752", "phone": "7152391341", "website_url": "http://www.facebook.com/MoonRidge-Brew-Pub-1501996800095070", "state": "Wisconsin", "street": "501 Bridge St"}, {"id": "758ed4ad-6805-4b88-bc78-65ecc4b13c4a", "name": "Moonshot Brewing", "brewery_type": "micro", "address_1": "8804 W Victoria Ave # 140", "address_2": null, "address_3": null, "city": "Kennewick", "state_province": "Washington", "postal_code": "99336", "country": "United States", "longitude": "-119.2412545", "latitude": "46.22937016", "phone": "5094911058", "website_url": "https://moonshotbrewing.com", "state": "Washington", "street": "8804 W Victoria Ave # 140"}, {"id": "b578ee40-d021-4d5a-bf5f-91154b9cef3d", "name": "Moonshrimp Brewing", "brewery_type": "micro", "address_1": "8428 SW 22nd Ave", "address_2": null, "address_3": null, "city": "Portland", "state_province": "Oregon", "postal_code": "97219-2856", "country": "United States", "longitude": "-122.7000809", "latitude": "45.4637206", "phone": "5039702234", "website_url": "http://www.moonshrimpbrewing.com", "state": "Oregon", "street": "8428 SW 22nd Ave"}, {"id": "327dd95c-0197-47ea-9bb2-5cf63318fcf7", "name": "Moontown Brewing", "brewery_type": "brewpub", "address_1": "345 S Bowers St", "address_2": null, "address_3": null, "city": "Whitestown", "state_province": "Indiana", "postal_code": "46075", "country": "United States", "longitude": "-86.346903", "latitude": "39.99409929", "phone": "5742503114", "website_url": "http://www.moontownbeer.com", "state": "Indiana", "street": "345 S Bowers St"}, {"id": "d64bd3bd-1e46-41ab-8c9d-f38de50db77f", "name": "Moose Lake Brewing Company", "brewery_type": "micro", "address_1": "244 Lakeshore Drive", "address_2": null, "address_3": null, "city": "Moose Lake", "state_province": "Minnesota", "postal_code": "55767", "country": "United States", "longitude": "-92.76397874", "latitude": "46.4499931", "phone": "2184854585", "website_url": "http://www.mooselakebrewing.com", "state": "Minnesota", "street": "244 Lakeshore Drive"}, {"id": "d4a564d1-c07b-47a6-bdd5-9198a97aadc3", "name": "More Brewing Co", "brewery_type": "brewpub", "address_1": "126 S Villa Ave", "address_2": null, "address_3": null, "city": "Villa Park", "state_province": "Illinois", "postal_code": "60181-2653", "country": "United States", "longitude": "-87.969272", "latitude": "41.891984", "phone": "7735517506", "website_url": "http://Www.morebrewing.com", "state": "Illinois", "street": "126 S Villa Ave"}, {"id": "ef5f2236-8173-4696-b128-1531f5f7a3c6", "name": "Morgan Ridge Railwalk Brewery & Eatery", "brewery_type": "brewpub", "address_1": "421 N Lee St", "address_2": null, "address_3": null, "city": "Salisbury", "state_province": "North Carolina", "postal_code": "28144-4424", "country": "United States", "longitude": "-80.46510306", "latitude": "35.66920051", "phone": "7047548379", "website_url": "http://www.morganridgerailwalk.com", "state": "North Carolina", "street": "421 N Lee St"}, {"id": "e17e1ab6-dfb3-4975-aa30-498b915f69d6", "name": "Morgan Ridge Vineyards & Brewhouse", "brewery_type": "brewpub", "address_1": "486 John Morgan Rd", "address_2": null, "address_3": null, "city": "Gold Hill", "state_province": "North Carolina", "postal_code": "28071-9758", "country": "United States", "longitude": null, "latitude": null, "phone": "7046390911", "website_url": "http://www.morganridgevineyard.com", "state": "North Carolina", "street": "486 John Morgan Rd"}, {"id": "c9ad889d-bf39-4366-886f-a140c0a52dd7", "name": "Morgan Street Brewery", "brewery_type": "proprietor", "address_1": "721 N 2nd St", "address_2": null, "address_3": null, "city": "Saint Louis", "state_province": "Missouri", "postal_code": "63102-2518", "country": "United States", "longitude": "-90.18465871", "latitude": "38.63032719", "phone": "3142319970", "website_url": "http://www.morganstreetbrewery.com", "state": "Missouri", "street": "721 N 2nd St"}, {"id": "679836c6-d52e-4f21-a393-1e8f47b185eb", "name": "Morgan Territory Brewing", "brewery_type": "micro", "address_1": "1885 N Macarthur Dr", "address_2": null, "address_3": null, "city": "Tracy", "state_province": "California", "postal_code": "95376-2820", "country": "United States", "longitude": "-121.4145449", "latitude": "37.7545317", "phone": "2098348664", "website_url": "http://www.morganterritorybrewing.com", "state": "California", "street": "1885 N Macarthur Dr"}, {"id": "e64f154b-6644-49e1-89b4-f1c042ae34d5", "name": "Morgantown Brewing Co", "brewery_type": "brewpub", "address_1": "1291 University Ave", "address_2": null, "address_3": null, "city": "Morgantown", "state_province": "West Virginia", "postal_code": "26505-5450", "country": "United States", "longitude": "-79.9579978", "latitude": "39.6305115", "phone": "3042926959", "website_url": "http://www.morgantownbrewing.com", "state": "West Virginia", "street": "1291 University Ave"}, {"id": "6b1fba4c-e5ae-4ffa-80d0-a4a2d0079ec8", "name": "Moriches Field Brewing Company", "brewery_type": "planning", "address_1": null, "address_2": null, "address_3": null, "city": "Center Moriches", "state_province": "New York", "postal_code": "11934-2600", "country": "United States", "longitude": null, "latitude": null, "phone": "6314495310", "website_url": null, "state": "New York", "street": null}, {"id": "c151de64-d672-4204-ae4f-9d2a97e90eb3", "name": "Mortals Key Brewing Company", "brewery_type": "brewpub", "address_1": "4224 E Lake Rd", "address_2": null, "address_3": null, "city": "Jamestown", "state_province": "Pennsylvania", "postal_code": "16134-4524", "country": "United States", "longitude": "-80.45979905", "latitude": "41.51243185", "phone": "7249321080", "website_url": "http://www.mortalskey.com", "state": "Pennsylvania", "street": "4224 E Lake Rd"}, {"id": "37c52935-6621-428b-b1ee-fc8856b6dc1c", "name": "Mosaic Brewing", "brewery_type": "planning", "address_1": null, "address_2": null, "address_3": null, "city": "Lancaster", "state_province": "Ohio", "postal_code": "43130-4308", "country": "United States", "longitude": null, "latitude": null, "phone": "6149402500", "website_url": "http://www.double.edge.beer", "state": "Ohio", "street": null}, {"id": "ce619d9e-3e13-4280-b215-8792edb06fa1", "name": "Moscow Brewing Company", "brewery_type": "micro", "address_1": "630 N Almon St Ste 130", "address_2": null, "address_3": null, "city": "Moscow", "state_province": "Idaho", "postal_code": "83843-9701", "country": "United States", "longitude": "-117.003869", "latitude": "46.740638", "phone": "2085964058", "website_url": "https://moscowbrewing.com/index.html", "state": "Idaho", "street": "630 N Almon St Ste 130"}, {"id": "4de8a934-3643-4e95-9cbc-ff98e06e2d30", "name": "Moss Mill Brewing", "brewery_type": "micro", "address_1": "109 Pike Cir Ste D", "address_2": null, "address_3": null, "city": "Huntingdon Valley", "state_province": "Pennsylvania", "postal_code": "19006-1630", "country": "United States", "longitude": null, "latitude": null, "phone": "2679822297", "website_url": "http://www.mossmillbrewing.com", "state": "Pennsylvania", "street": "109 Pike Cir Ste D"}, {"id": "c0437356-f02d-4d5d-9b2c-8e8c45aa29cf", "name": "Mother Bunch Brewing, Inc.", "brewery_type": "micro", "address_1": "825 N 7th St", "address_2": null, "address_3": null, "city": "Phoenix", "state_province": "Arizona", "postal_code": "85006-3793", "country": "United States", "longitude": "-112.0649987", "latitude": "33.4572674", "phone": "6023683580", "website_url": "http://www.motherbunchbrew.com", "state": "Arizona", "street": "825 N 7th St"}, {"id": "0cdddcb2-972d-4dc2-a268-d752d4638e6c", "name": "Mother Earth Brew Co", "brewery_type": "micro", "address_1": "1428 Madison Ave", "address_2": null, "address_3": null, "city": "Nampa", "state_province": "Idaho", "postal_code": "83687-3038", "country": "United States", "longitude": "-116.56303", "latitude": "43.597987", "phone": "7602953074", "website_url": "https://www.motherearthbrewco.com/nampa", "state": "Idaho", "street": "1428 Madison Ave"}, {"id": "c228637b-e211-45fd-9736-b838197cb25e", "name": "Mother Earth Brew Co LLC", "brewery_type": "regional", "address_1": "2055 Thibodo Rd Ste H", "address_2": null, "address_3": null, "city": "Vista", "state_province": "California", "postal_code": "92081-7991", "country": "United States", "longitude": "-117.2203174", "latitude": "33.16794678", "phone": "7605428868", "website_url": "http://www.motherearthbrewco.com", "state": "California", "street": "2055 Thibodo Rd Ste H"}, {"id": "add015c9-2bb1-4047-a365-8b9f3b263fc5", "name": "Mother Earth Brewing", "brewery_type": "regional", "address_1": "311 N Herritage St", "address_2": null, "address_3": null, "city": "Kinston", "state_province": "North Carolina", "postal_code": "28501-4823", "country": "United States", "longitude": null, "latitude": null, "phone": "2522082437", "website_url": "http://www.motherearthbrewing.com", "state": "North Carolina", "street": "311 N Herritage St"}, {"id": "83d19a6e-a9d0-4278-8407-6bb3aa54ab17", "name": "Mother Road Brewery and Taproom", "brewery_type": "micro", "address_1": "1300 East Butler Ave Ste 200", "address_2": null, "address_3": null, "city": "Flagstaff", "state_province": "Arizona", "postal_code": "86001", "country": "United States", "longitude": null, "latitude": null, "phone": "9287740492", "website_url": "http://www.motherroadbeer.com/butler-brewery", "state": "Arizona", "street": "1300 East Butler Ave Ste 200"}, {"id": "3c7df0a0-ad62-4b98-9d34-eddab912ce88", "name": "Mother Road Brewing Co", "brewery_type": "micro", "address_1": "7 S Mikes Pike", "address_2": null, "address_3": null, "city": "Flagstaff", "state_province": "Arizona", "postal_code": "86001-5589", "country": "United States", "longitude": "-111.6524478", "latitude": "35.196928", "phone": "9287749139", "website_url": "http://www.motherroadbeer.com", "state": "Arizona", "street": "7 S Mikes Pike"}, {"id": "c0329997-60e4-453b-95c1-f5a1aa5841c5", "name": "Mother Stewart's Brewing Co", "brewery_type": "micro", "address_1": "109 W North St", "address_2": null, "address_3": null, "city": "Springfield", "state_province": "Ohio", "postal_code": "45504-2546", "country": "United States", "longitude": "-83.81196566", "latitude": "39.92716841", "phone": null, "website_url": null, "state": "Ohio", "street": "109 W North St"}, {"id": "b87139f1-33d1-4281-a5e0-07780edd6c18", "name": "Mother Tucker Brewery", "brewery_type": "micro", "address_1": "2360 E 120th Ave", "address_2": null, "address_3": null, "city": "Thornton", "state_province": "Colorado", "postal_code": "80233-1408", "country": "United States", "longitude": "-104.9582581", "latitude": "39.91402476", "phone": "3035659459", "website_url": "http://mothertuckerbrewery.com", "state": "Colorado", "street": "2360 E 120th Ave"}, {"id": "69912ded-9a07-4f49-870a-85a78260bf4d", "name": "Mother's Brewing Co", "brewery_type": "micro", "address_1": "215 S Grant Ave", "address_2": null, "address_3": null, "city": "Springfield", "state_province": "Missouri", "postal_code": "65806-2001", "country": "United States", "longitude": "-93.29928282", "latitude": "37.20791735", "phone": "4178620423", "website_url": "http://www.mothersbrewing.com", "state": "Missouri", "street": "215 S Grant Ave"}, {"id": "ce476ba7-dc6c-4fae-a6b1-1b4a2a48fa96", "name": "Motobrewer", "brewery_type": "planning", "address_1": null, "address_2": null, "address_3": null, "city": "San Francisco", "state_province": "California", "postal_code": "94112-1330", "country": "United States", "longitude": "-122.4192363", "latitude": "37.7792808", "phone": null, "website_url": "http://www.motobrewer.com", "state": "California", "street": null}, {"id": "82718ba8-c506-467b-88e2-5f5b714a4999", "name": "Motor City Brewing Works", "brewery_type": "brewpub", "address_1": "470 W Canfield St", "address_2": null, "address_3": null, "city": "Detroit", "state_province": "Michigan", "postal_code": "48201-1220", "country": "United States", "longitude": "-83.06603733", "latitude": "42.3518156", "phone": "3138322700", "website_url": "http://www.motorcitybeer.com", "state": "Michigan", "street": "470 W Canfield St"}, {"id": "9a7bc77f-ac7d-4ed8-bb95-3f374523a01f", "name": "Motor City Brewing Works Warehouse", "brewery_type": "micro", "address_1": "441 W Canfield St", "address_2": null, "address_3": null, "city": "Detroit", "state_province": "Michigan", "postal_code": "48201-1231", "country": "United States", "longitude": "-83.06474893", "latitude": "42.35151997", "phone": null, "website_url": null, "state": "Michigan", "street": "441 W Canfield St"}, {"id": "84a43e6a-7223-4304-b87f-9502498ab235", "name": "Motor Row Brewing", "brewery_type": "micro", "address_1": "2337 S Michigan Ave", "address_2": null, "address_3": null, "city": "Chicago", "state_province": "Illinois", "postal_code": "60616-2104", "country": "United States", "longitude": "-87.6233063", "latitude": "41.8499832", "phone": null, "website_url": "http://www.motorrowbrewing.com", "state": "Illinois", "street": "2337 S Michigan Ave"}, {"id": "54fc97d9-c6f1-4e46-8b36-fcc628540b51", "name": "Motorworks Brewing", "brewery_type": "micro", "address_1": "1014 9th St W", "address_2": null, "address_3": null, "city": "Bradenton", "state_province": "Florida", "postal_code": "34205-7331", "country": "United States", "longitude": "-82.57129", "latitude": "27.49087629", "phone": "9415676218", "website_url": "http://www.motorworksbrewing.com", "state": "Florida", "street": "1014 9th St W"}]