[{"id": "2f6072fd-ecfc-4842-ad47-8d39c0eb2d20", "name": "Orf Brewing", "brewery_type": "micro", "address_1": "4700 Burleson Rd Ste F", "address_2": null, "address_3": null, "city": "Austin", "state_province": "Texas", "postal_code": "78744-1230", "country": "United States", "longitude": null, "latitude": null, "phone": "5124285217", "website_url": "http://www.orfbrewing.com", "state": "Texas", "street": "4700 Burleson Rd Ste F"}, {"id": "82915e82-b961-495f-8b87-a8faf71b3e13", "name": "Origin Brewer", "brewery_type": "micro", "address_1": null, "address_2": null, "address_3": null, "city": "Richmond", "state_province": "California", "postal_code": "94805-2121", "country": "United States", "longitude": "-122.3477486", "latitude": "37.9357576", "phone": null, "website_url": null, "state": "California", "street": null}, {"id": "39db40da-0ee5-465d-9a9a-38f9eb51ba09", "name": "Original Gravity Brewing Co", "brewery_type": "brewpub", "address_1": "440 County St", "address_2": null, "address_3": null, "city": "Milan", "state_province": "Michigan", "postal_code": "48160-1504", "country": "United States", "longitude": "-83.67523597", "latitude": "42.083974", "phone": "7344397490", "website_url": "http://www.ogbrewing.com", "state": "Michigan", "street": "440 County St"}, {"id": "ab675ed9-9050-41b8-81f1-c6ebf70b3106", "name": "Original Pattern Brewing Company", "brewery_type": "micro", "address_1": "292 4th St", "address_2": null, "address_3": null, "city": "Oakland", "state_province": "California", "postal_code": "94607-4332", "country": "United States", "longitude": "-122.2718245", "latitude": "37.796075", "phone": "5108444833", "website_url": "http://www.originalpatternbeer.com", "state": "California", "street": "292 4th St"}, {"id": "6b8450c8-3810-40ce-bac3-55bf20261c4c", "name": "Orlando Brewing Partners, Inc.", "brewery_type": "micro", "address_1": "1301 Atlanta Ave", "address_2": null, "address_3": null, "city": "Orlando", "state_province": "Florida", "postal_code": "32806-3908", "country": "United States", "longitude": "-81.38304499", "latitude": "28.52691826", "phone": "4078721117", "website_url": "http://www.orlandobrewing.com", "state": "Florida", "street": "1301 Atlanta Ave"}, {"id": "e9c56fbd-e001-470f-88b6-29df8e0573c9", "name": "Orlison Brewing Company", "brewery_type": "closed", "address_1": "12921 West 17th Ave", "address_2": null, "address_3": null, "city": "Airway Heights", "state_province": "Washington", "postal_code": "99001", "country": "United States", "longitude": "-117.5924443", "latitude": "47.6403069", "phone": "5093896253", "website_url": "http://www.orlisonbrewing.com", "state": "Washington", "street": "12921 West 17th Ave"}, {"id": "fcfc9ac7-49ce-4ab4-a727-0d2fa89919b9", "name": "Ormond Brewing", "brewery_type": "micro", "address_1": "301 Division Ave Unit 15", "address_2": null, "address_3": null, "city": "Ormond Beach", "state_province": "Florida", "postal_code": "32174-8812", "country": "United States", "longitude": null, "latitude": null, "phone": "3862563904", "website_url": "http://www.ormondbrewing.com", "state": "Florida", "street": "301 Division Ave Unit 15"}, {"id": "c1357ef9-d471-4c4c-98a7-b740c6c013ab", "name": "Oro Brewing Company", "brewery_type": "micro", "address_1": "210 W Main St", "address_2": null, "address_3": null, "city": "Mesa", "state_province": "Arizona", "postal_code": "85201-7312", "country": "United States", "longitude": "-111.8370503", "latitude": "33.41519982", "phone": "4803988247", "website_url": "http://www.orobrewing.com", "state": "Arizona", "street": "210 W Main St"}, {"id": "9fca7f46-6737-4633-a566-cb957ca93034", "name": "Orono Brewing Bangor Draught Room", "brewery_type": "micro", "address_1": "26 State St", "address_2": null, "address_3": null, "city": "Bangor", "state_province": "Maine", "postal_code": "04401", "country": "United States", "longitude": "-68.7428115", "latitude": "44.81159483", "phone": null, "website_url": null, "state": "Maine", "street": "26 State St"}, {"id": "91949951-a50a-430e-a009-59bc9124ed00", "name": "Orono Brewing Brewery & Draught Room", "brewery_type": "planning", "address_1": null, "address_2": null, "address_3": null, "city": "Orono", "state_province": "Maine", "postal_code": "04473", "country": "United States", "longitude": null, "latitude": null, "phone": null, "website_url": null, "state": "Maine", "street": null}, {"id": "f255ae39-f3df-4876-bbc6-28073432c3e3", "name": "Orono Brewing Company", "brewery_type": "brewpub", "address_1": "20 Main St", "address_2": null, "address_3": null, "city": "Orono", "state_province": "Maine", "postal_code": "04473", "country": "United States", "longitude": "-68.669582", "latitude": "44.88754094", "phone": "2078664677", "website_url": "http://www.oronobrewing.com", "state": "Maine", "street": "20 Main St"}, {"id": "769676e2-2a79-475b-8b35-6755a2826e47", "name": "Orpheus Brewing", "brewery_type": "micro", "address_1": "1440 Dutch Valley Pl NE Ste 2001", "address_2": null, "address_3": null, "city": "Atlanta", "state_province": "Georgia", "postal_code": "30324-5366", "country": "United States", "longitude": "-84.36858051", "latitude": "33.79314935", "phone": "4043471777", "website_url": "http://www.orpheusbrewing.com", "state": "Georgia", "street": "1440 Dutch Valley Pl NE Ste 2001"}, {"id": "3265e88f-c7af-4243-b836-5475b1e3315d", "name": "Orr's Brewing Company", "brewery_type": "brewpub", "address_1": "109 S Franklin St", "address_2": null, "address_3": null, "city": "Titusville", "state_province": "Pennsylvania", "postal_code": "16354", "country": "United States", "longitude": "-79.6733234", "latitude": "41.6230211", "phone": "8148270000", "website_url": null, "state": "Pennsylvania", "street": "109 S Franklin St"}, {"id": "b9c27692-5db5-44dd-aa88-b8b66b944f3c", "name": "Osgood Brewing", "brewery_type": "brewpub", "address_1": "4051 Chicago Dr SW", "address_2": null, "address_3": null, "city": "Grandville", "state_province": "Michigan", "postal_code": "49418-1257", "country": "United States", "longitude": "-85.76493039", "latitude": "42.90907804", "phone": null, "website_url": "http://www.osgoodbrewing.com", "state": "Michigan", "street": "4051 Chicago Dr SW"}, {"id": "d128cc62-6893-4c15-bdde-6d23b55822cc", "name": "Oskar Blues Brewery", "brewery_type": "micro", "address_1": "10420 Metric Blvd # 150", "address_2": null, "address_3": null, "city": "Austin", "state_province": "Texas", "postal_code": "78758-4939", "country": "United States", "longitude": "-97.71470248", "latitude": "30.3839295", "phone": "5122437054", "website_url": null, "state": "Texas", "street": "10420 Metric Blvd # 150"}, {"id": "b3b08e37-95c0-4756-9ad5-2a6388705534", "name": "Oskar Blues Brewery - Brevard", "brewery_type": "regional", "address_1": "342 Mountain Industrial Dr", "address_2": null, "address_3": null, "city": "Brevard", "state_province": "North Carolina", "postal_code": "28712-5122", "country": "United States", "longitude": "-82.7069595", "latitude": "35.2536956", "phone": "3037760724", "website_url": "http://www.oskarblues.com", "state": "North Carolina", "street": "342 Mountain Industrial Dr"}, {"id": "57f68c2a-2520-4c6f-a595-570aadb38358", "name": "Oskar Blues Brewery - Lyons", "brewery_type": "brewpub", "address_1": "303 Main St", "address_2": null, "address_3": null, "city": "Lyons", "state_province": "Colorado", "postal_code": "80540", "country": "United States", "longitude": "-105.2676934", "latitude": "40.22451332", "phone": "3038236685", "website_url": "http://www.oskarblues.com", "state": "Colorado", "street": "303 Main St"}, {"id": "5a28cd92-6aeb-4cac-a24f-2260802b07b7", "name": "Oskar Blues Brewery & Tasty Weasel Tap Room", "brewery_type": "regional", "address_1": "1800 Pike Rd Unit B", "address_2": null, "address_3": null, "city": "Longmont", "state_province": "Colorado", "postal_code": "80501-6794", "country": "United States", "longitude": null, "latitude": null, "phone": "3037760724", "website_url": "http://www.oskarblues.com", "state": "Colorado", "street": "1800 Pike Rd Unit B"}, {"id": "62ba2bf9-9efa-4a2d-a452-5871f84c0b3a", "name": "Osmo's Alehouse", "brewery_type": "micro", "address_1": "522 S Central Ave", "address_2": null, "address_3": null, "city": "Medford", "state_province": "Oregon", "postal_code": "97501-7246", "country": "United States", "longitude": "-122.8683277", "latitude": "42.32230438", "phone": "5418420557", "website_url": null, "state": "Oregon", "street": "522 S Central Ave"}, {"id": "c74b0536-3885-495d-b945-fb0b75d64cc8", "name": "Oswald Brewing Company", "brewery_type": "brewpub", "address_1": "110 S Main St", "address_2": null, "address_3": null, "city": "Blue Earth", "state_province": "Minnesota", "postal_code": "56013-2007", "country": "United States", "longitude": "-94.2184542", "latitude": "44.10610449", "phone": "5075263101", "website_url": "http://www.oswaldbrewingcompany.com", "state": "Minnesota", "street": "110 S Main St"}, {"id": "a5b37b60-e3c3-43b4-a6d7-16eba9218bed", "name": "Oswego Brewing Company", "brewery_type": "micro", "address_1": "61 Main St", "address_2": null, "address_3": null, "city": "Oswego", "state_province": "Illinois", "postal_code": "60543-8592", "country": "United States", "longitude": null, "latitude": null, "phone": "3319991991", "website_url": "http://www.oswegoBrewing.com", "state": "Illinois", "street": "61 Main St"}, {"id": "ab943f7d-ad10-4f0b-8292-3f4c18e46ff9", "name": "Other Half Brewing Company", "brewery_type": "micro", "address_1": "195 Centre St", "address_2": null, "address_3": null, "city": "Brooklyn", "state_province": "New York", "postal_code": "11231-3907", "country": "United States", "longitude": "-73.9991264", "latitude": "40.6737903", "phone": null, "website_url": null, "state": "New York", "street": "195 Centre St"}, {"id": "51855a0c-1fcc-40d4-b1c8-d3e1be783068", "name": "Other Side of the Moon Brewery / Full Moon Oyster Bar", "brewery_type": "brewpub", "address_1": "1477 River Ridge Dr", "address_2": null, "address_3": null, "city": "Clemmons", "state_province": "North Carolina", "postal_code": "27012", "country": "United States", "longitude": "-80.3912598", "latitude": "36.0738908", "phone": "3367128200", "website_url": "http://www.fullmoonoysterbar.com", "state": "North Carolina", "street": "1477 River Ridge Dr"}, {"id": "1cbec9c9-522a-4d61-9848-34f8d9230a99", "name": "Otter Creek Brewing Co", "brewery_type": "regional", "address_1": "793 Exchange St", "address_2": null, "address_3": null, "city": "Middlebury", "state_province": "Vermont", "postal_code": "05753-1193", "country": "United States", "longitude": "-73.17075772", "latitude": "44.03315644", "phone": "8023880727", "website_url": "http://www.ottercreekbrewing.com", "state": "Vermont", "street": "793 Exchange St"}, {"id": "77e5ec06-4cc7-485b-b35c-201984baed5e", "name": "Ottos Pub & Brewery", "brewery_type": "brewpub", "address_1": "2235 N Atherton St", "address_2": null, "address_3": null, "city": "State College", "state_province": "Pennsylvania", "postal_code": "16803-1529", "country": "United States", "longitude": "-77.8742944", "latitude": "40.7977695", "phone": "8144701394", "website_url": "http://www.ottospubandbrewery.com", "state": "Pennsylvania", "street": "2235 N Atherton St"}, {"id": "597ab1af-dcc7-4df0-9c4d-018bfcec68ff", "name": "Ouachita Brewing Company", "brewery_type": "micro", "address_1": "95 McClendon Ave", "address_2": null, "address_3": null, "city": "West Monroe", "state_province": "Louisiana", "postal_code": "71291-3299", "country": "United States", "longitude": "-92.1221749", "latitude": "32.49990448", "phone": "383879816", "website_url": "http://www.ouachitabrewing.com", "state": "Louisiana", "street": "95 McClendon Ave"}, {"id": "8565cb64-f9be-4ba3-b845-e878cffb4f05", "name": "Our Brewing Co", "brewery_type": "micro", "address_1": "76 E 8th St", "address_2": null, "address_3": null, "city": "Holland", "state_province": "Michigan", "postal_code": "49423-3556", "country": "United States", "longitude": "-86.1037537", "latitude": "42.7901898", "phone": "6169948417", "website_url": "http://www.ourbrewingcompany.com", "state": "Michigan", "street": "76 E 8th St"}, {"id": "1f0405ff-3d96-47e7-90ee-a1bc5764149b", "name": "Our Mutual Friend Brewing", "brewery_type": "micro", "address_1": "2810 Larimer St", "address_2": null, "address_3": null, "city": "Denver", "state_province": "Colorado", "postal_code": "80205-2223", "country": "United States", "longitude": "-104.9825596", "latitude": "39.7605777", "phone": "3032963441", "website_url": "http://www.omfbeer.com", "state": "Colorado", "street": "2810 Larimer St"}, {"id": "b9da27a0-7c53-4aaf-9a85-fa453d97ebf3", "name": "Ouray Brewery", "brewery_type": "brewpub", "address_1": "607 Main St", "address_2": null, "address_3": null, "city": "Ouray", "state_province": "Colorado", "postal_code": "81427-", "country": "United States", "longitude": "-107.6712878", "latitude": "38.0229071", "phone": "9703257388", "website_url": "http://www.ouraybrewery.com", "state": "Colorado", "street": "607 Main St"}, {"id": "a6d1b092-de65-4af6-a543-b752f93979ce", "name": "Ourayle House Brewery", "brewery_type": "micro", "address_1": "703 Main St", "address_2": null, "address_3": null, "city": "Ouray", "state_province": "Colorado", "postal_code": "81427-0630", "country": "United States", "longitude": "-107.6714048", "latitude": "38.02402041", "phone": "9709031824", "website_url": null, "state": "Colorado", "street": "703 Main St"}, {"id": "f9009fe3-a89e-4635-8d8b-1a92df2ebe06", "name": "Out of Bounds Brewing Company", "brewery_type": "micro", "address_1": "4480 Yankee Hill Rd Ste 100", "address_2": null, "address_3": null, "city": "Rocklin", "state_province": "California", "postal_code": "95677-1633", "country": "United States", "longitude": "-121.2289797", "latitude": "38.80045074", "phone": null, "website_url": null, "state": "California", "street": "4480 Yankee Hill Rd Ste 100"}, {"id": "74f4a6b0-9be8-401a-b320-7ad33254f2c3", "name": "Out.Haus Ales", "brewery_type": "micro", "address_1": "442 1st Nh Tpke Unit 2", "address_2": null, "address_3": null, "city": "Northwood", "state_province": "New Hampshire", "postal_code": "03261-3445", "country": "United States", "longitude": null, "latitude": null, "phone": "6035482151", "website_url": "http://www.outhausales.com", "state": "New Hampshire", "street": "442 1st Nh Tpke Unit 2"}, {"id": "ab8a8e3a-f6e0-4869-a2f3-34ada12c7cff", "name": "Outbreak Brewing Co.", "brewery_type": "micro", "address_1": "640 Main St", "address_2": null, "address_3": null, "city": "Placerville", "state_province": "California", "postal_code": "95667-5704", "country": "United States", "longitude": "-120.794212", "latitude": "38.7293661", "phone": "5307483258", "website_url": "http://www.outbreakbrewing.com", "state": "California", "street": "640 Main St"}, {"id": "8151cea5-19ff-42c4-8f3e-e3dbbeb384c2", "name": "Outer Banks Brewing Station", "brewery_type": "brewpub", "address_1": "600 S Croatan Hwy", "address_2": null, "address_3": null, "city": "Kill Devil Hills", "state_province": "North Carolina", "postal_code": "27948", "country": "United States", "longitude": "-75.65925231", "latitude": "36.00947755", "phone": "2524492739", "website_url": "http://www.obbrewing.com", "state": "North Carolina", "street": "600 S Croatan Hwy"}, {"id": "664fde9d-7114-4ad3-bbad-33bc65a1d4c9", "name": "Outer Light Brewing Company", "brewery_type": "micro", "address_1": "266 Bridge St Ste 1", "address_2": null, "address_3": null, "city": "Groton", "state_province": "Connecticut", "postal_code": "06340-3739", "country": "United States", "longitude": null, "latitude": null, "phone": "4752019972", "website_url": "http://www.outerlightbrewing.com", "state": "Connecticut", "street": "266 Bridge St Ste 1"}, {"id": "de23fb6c-55b7-4e7d-a27f-dca9ce7816f0", "name": "Outer Limits Brewing, LLC", "brewery_type": "planning", "address_1": null, "address_2": null, "address_3": null, "city": "Proctorsville", "state_province": "Vermont", "postal_code": "05153-9518", "country": "United States", "longitude": null, "latitude": null, "phone": "2072057076", "website_url": null, "state": "Vermont", "street": null}, {"id": "8280e47c-4aed-4aa0-b20f-b3217d7478be", "name": "Outer Planet Craft Brewing", "brewery_type": "micro", "address_1": "1812 12th Ave", "address_2": null, "address_3": null, "city": "Seattle", "state_province": "Washington", "postal_code": "98122-8420", "country": "United States", "longitude": "-122.3167381", "latitude": "47.6180009", "phone": "2067637000", "website_url": "http://www.outerplanetbrewing.com", "state": "Washington", "street": "1812 12th Ave"}, {"id": "65b80308-dbfd-45c1-8c7a-a76e43ed006f", "name": "Outer Range Brewing Co", "brewery_type": "micro", "address_1": "182 Lusher Court #2", "address_2": null, "address_3": null, "city": "Frisco", "state_province": "Colorado", "postal_code": "80443-6601", "country": "United States", "longitude": "-106.0989298", "latitude": "39.5892615", "phone": "9703683101", "website_url": "http://www.outerrange.com", "state": "Colorado", "street": "182 Lusher Court #2"}, {"id": "cc5bec77-94df-470f-bcaf-c2d9a5d091a7", "name": "Outerbelt Brewing Company", "brewery_type": "planning", "address_1": null, "address_2": null, "address_3": null, "city": "Carroll", "state_province": "Ohio", "postal_code": "43112", "country": "United States", "longitude": null, "latitude": null, "phone": "6143096796", "website_url": "http://www.outerbeltbrewing.com", "state": "Ohio", "street": null}, {"id": "b71e75ef-6458-4128-a39f-c3f6f0461e9d", "name": "Outland Brewing Company", "brewery_type": "planning", "address_1": null, "address_2": null, "address_3": null, "city": "Salem", "state_province": "New Hampshire", "postal_code": "03079-1867", "country": "United States", "longitude": null, "latitude": null, "phone": null, "website_url": null, "state": "New Hampshire", "street": null}, {"id": "3000da0a-9704-41be-b9e2-dad825b50e56", "name": "Outland Farm Brewery", "brewery_type": "planning", "address_1": null, "address_2": null, "address_3": null, "city": "Pittsfield", "state_province": "Maine", "postal_code": "04967-5811", "country": "United States", "longitude": null, "latitude": null, "phone": "2076168125", "website_url": "http://www.outlandfarmbrewery.com", "state": "Maine", "street": null}, {"id": "1f57f054-d4ec-473d-b2a6-12c4ac8ff5de", "name": "Outlander Brewery & Pub", "brewery_type": "brewpub", "address_1": "225 N 36th St", "address_2": null, "address_3": null, "city": "Seattle", "state_province": "Washington", "postal_code": "98103-8610", "country": "United States", "longitude": "-122.3555596", "latitude": "47.6523014", "phone": "2064864088", "website_url": "http://www.outlanderbrewing.com", "state": "Washington", "street": "225 N 36th St"}, {"id": "4763319d-b0fe-47b6-8549-47cca21ab91e", "name": "Outlaw Brewing Co", "brewery_type": "micro", "address_1": "2876 N 27th Ave", "address_2": null, "address_3": null, "city": "Bozeman", "state_province": "Montana", "postal_code": "59718-7168", "country": "United States", "longitude": "-111.0725189", "latitude": "45.70878295", "phone": "4063889182", "website_url": "http://www.outlaw-brewing.com", "state": "Montana", "street": "2876 N 27th Ave"}, {"id": "50e149c8-f205-4469-8f9c-27cc526fc78e", "name": "Outlaw Cigar / Gunslinger Saloon Brewing", "brewery_type": "planning", "address_1": null, "address_2": null, "address_3": null, "city": "Kansas City", "state_province": "Missouri", "postal_code": "64151-2026", "country": "United States", "longitude": null, "latitude": null, "phone": "8165052442", "website_url": "http://www.outlawcigar.com", "state": "Missouri", "street": null}, {"id": "816eae14-e2ae-434e-8c7d-f24481dd4c9b", "name": "Outlook Farm Brewery", "brewery_type": "micro", "address_1": "136 Main Rd", "address_2": null, "address_3": null, "city": "Westhampton", "state_province": "Massachusetts", "postal_code": "01027-9673", "country": "United States", "longitude": "-72.772262", "latitude": "42.285973", "phone": "4135299388", "website_url": "http://www.outlookfarm.com", "state": "Massachusetts", "street": "136 Main Rd"}, {"id": "38ca2684-4b26-4e6b-9cf7-32a3e727adac", "name": "Outpost Brewing Co", "brewery_type": "micro", "address_1": "932 Stateline Ave", "address_2": null, "address_3": null, "city": "South Lake Tahoe", "state_province": "California", "postal_code": "96150-6913", "country": "United States", "longitude": "-119.9450001", "latitude": "38.96097394", "phone": "5304949805", "website_url": null, "state": "California", "street": "932 Stateline Ave"}, {"id": "cf838e5b-da1b-487b-aa7f-44af17e2e121", "name": "Outstate Brewing Company LLC", "brewery_type": "planning", "address_1": null, "address_2": null, "address_3": null, "city": "Fergus Falls", "state_province": "Minnesota", "postal_code": "56537", "country": "United States", "longitude": null, "latitude": null, "phone": "9702175026", "website_url": "http://www.oustatebrew.co", "state": "Minnesota", "street": null}, {"id": "27605647-6c13-43a9-94aa-ed38ce1994f9", "name": "OVAL Craft Brewing", "brewery_type": "micro", "address_1": "111 Ohio Rd", "address_2": null, "address_3": null, "city": "Plattsburgh", "state_province": "New York", "postal_code": "12903-4403", "country": "United States", "longitude": null, "latitude": null, "phone": "5183242739", "website_url": "http://www.ovalcraftbrewing.com", "state": "New York", "street": "111 Ohio Rd"}, {"id": "bdd9f11c-9b60-4d1b-9dc9-c81cb6ba9301", "name": "Over Yonder Brewing Company", "brewery_type": "planning", "address_1": null, "address_2": null, "address_3": null, "city": "Golden", "state_province": "Colorado", "postal_code": "80403-8590", "country": "United States", "longitude": null, "latitude": null, "phone": "7203638089", "website_url": null, "state": "Colorado", "street": null}, {"id": "ecc8660b-2bf6-4e95-b4b1-a6659fc74c0f", "name": "Overflow Brewing Company", "brewery_type": "micro", "address_1": "770 1st Ave N", "address_2": null, "address_3": null, "city": "Saint Petersburg", "state_province": "Florida", "postal_code": "33701", "country": "United States", "longitude": "-82.644494", "latitude": "27.77196743", "phone": null, "website_url": "http://www.overflowbrewingco.com", "state": "Florida", "street": "770 1st Ave N"}, {"id": "fe1b7e7e-788f-492e-b69d-d7eb15497822", "name": "Overshores Brewing Co", "brewery_type": "micro", "address_1": "250 Bradley St", "address_2": null, "address_3": null, "city": "East Haven", "state_province": "Connecticut", "postal_code": "06512-", "country": "United States", "longitude": "-72.87397563", "latitude": "41.29004301", "phone": "2039096224", "website_url": "http://www.overshores.com", "state": "Connecticut", "street": "250 Bradley St"}, {"id": "093abb2e-c49c-4581-ab52-3148c1494a61", "name": "Oviedo Brewing Co", "brewery_type": "planning", "address_1": null, "address_2": null, "address_3": null, "city": "Oviedo", "state_province": "Florida", "postal_code": "32765-7426", "country": "United States", "longitude": null, "latitude": null, "phone": "4075875400", "website_url": "http://www.facebook.com/OviedoBrewingCo", "state": "Florida", "street": null}, {"id": "5e934252-53d3-4160-8021-f490d1b7eb7e", "name": "Owen OLearys Restaurant and Brewery", "brewery_type": "brewpub", "address_1": "17 Connector Rd", "address_2": null, "address_3": null, "city": "Westborough", "state_province": "Massachusetts", "postal_code": "01581-3916", "country": "United States", "longitude": "-71.58591979", "latitude": "42.28996559", "phone": "5083669262", "website_url": "http://www.owenolearys.com", "state": "Massachusetts", "street": "17 Connector Rd"}, {"id": "7ea048a2-85e4-4443-b543-a62f1fe07ce9", "name": "Owls Rest Brewery", "brewery_type": "planning", "address_1": null, "address_2": null, "address_3": null, "city": "Malone", "state_province": "New York", "postal_code": "12953-1517", "country": "United States", "longitude": null, "latitude": null, "phone": null, "website_url": null, "state": "New York", "street": null}, {"id": "18703afa-900e-4dee-a6ab-08eb0034b8e2", "name": "Owls Roost Brewing", "brewery_type": "planning", "address_1": null, "address_2": null, "address_3": null, "city": "Wake Forest", "state_province": "North Carolina", "postal_code": "27587-2958", "country": "United States", "longitude": null, "latitude": null, "phone": "9197491428", "website_url": null, "state": "North Carolina", "street": null}, {"id": "1931756b-8cf2-4dc4-9ee6-b406cdf5f5aa", "name": "Oxbow Blending & Bottling", "brewery_type": "micro", "address_1": "49 Washington Ave", "address_2": null, "address_3": null, "city": "Portland", "state_province": "Maine", "postal_code": "04101", "country": "United States", "longitude": "-70.2513253", "latitude": "43.6649414", "phone": null, "website_url": null, "state": "Maine", "street": "49 Washington Ave"}, {"id": "e37d3cfa-dc4a-46fe-ae52-e6b4d25f173a", "name": "Oxbow Brewing Co", "brewery_type": "micro", "address_1": "274 Jones Woods Rd", "address_2": null, "address_3": null, "city": "Newcastle", "state_province": "Maine", "postal_code": "04553-3123", "country": "United States", "longitude": "-69.5639953", "latitude": "44.0830789", "phone": "2073155962", "website_url": "http://www.oxbowbeer.com", "state": "Maine", "street": "274 Jones Woods Rd"}, {"id": "7768bd2f-906c-450b-9520-2fb57d0b4799", "name": "Oxford Brewing Company", "brewery_type": "nano", "address_1": "1215 N 20th St", "address_2": null, "address_3": null, "city": "Grand Forks", "state_province": "North Dakota", "postal_code": "58203-2343", "country": "United States", "longitude": "-97.05511709", "latitude": "47.93241078", "phone": "7017574565", "website_url": null, "state": "North Dakota", "street": "1215 N 20th St"}, {"id": "5f30ddff-dac4-472b-adb1-82f390c5f505", "name": "Oyster Bay Brewing", "brewery_type": "micro", "address_1": "36 Audrey Ave", "address_2": null, "address_3": null, "city": "Oyster Bay", "state_province": "New York", "postal_code": "11771-1548", "country": "United States", "longitude": "-73.53140323", "latitude": "40.87304967", "phone": "5168025546", "website_url": "http://www.oysterbaybrewing.com", "state": "New York", "street": "36 Audrey Ave"}, {"id": "43fa1fa9-3de8-45ed-b56d-b4b79349587a", "name": "Oyster City Brewing Company", "brewery_type": "micro", "address_1": "17 Avenue D", "address_2": null, "address_3": null, "city": "Apalachicola", "state_province": "Florida", "postal_code": "32320-1801", "country": "United States", "longitude": "-84.98504389", "latitude": "29.7259562", "phone": null, "website_url": "http://www.oystercitybrewingco.com", "state": "Florida", "street": "17 Avenue D"}, {"id": "8c600205-6e67-43a7-983a-0e2daba7bb93", "name": "Oyster House Brewing Co.", "brewery_type": "brewpub", "address_1": "625 Haywood Rd", "address_2": null, "address_3": null, "city": "Asheville", "state_province": "North Carolina", "postal_code": "28806-3255", "country": "United States", "longitude": null, "latitude": null, "phone": "8285759370", "website_url": "http://www.oysterhousebeers.com", "state": "North Carolina", "street": "625 Haywood Rd"}, {"id": "62783901-9445-4424-911b-291647dc2284", "name": "Ozark Beer Company", "brewery_type": "micro", "address_1": "109 N Arkansas St", "address_2": null, "address_3": null, "city": "Rogers", "state_province": "Arkansas", "postal_code": "72756-6601", "country": "United States", "longitude": "-94.1147203", "latitude": "36.3335034", "phone": "4796362337", "website_url": "http://www.ozarkbeercompany.com", "state": "Arkansas", "street": "109 N Arkansas St"}, {"id": "e80e1cb2-de57-4bc2-8330-94ea13ec1c0c", "name": "Ozarks Brewing Company", "brewery_type": "closed", "address_1": "1872 S. U.S. Hwy. 63", "address_2": null, "address_3": null, "city": "West Plains", "state_province": "Missouri", "postal_code": "65775", "country": "United States", "longitude": null, "latitude": null, "phone": "4172741507", "website_url": "http://www.ozarksbrewing.com", "state": "Missouri", "street": "1872 S. U.S. Hwy. 63"}, {"id": "9ed590d8-b54b-41f5-be70-ac9d695378a0", "name": "Ozone's Brewhouse", "brewery_type": "micro", "address_1": "305 Beaver St", "address_2": null, "address_3": null, "city": "Lansing", "state_province": "Michigan", "postal_code": "48906-4411", "country": "United States", "longitude": "-84.54860983", "latitude": "42.7505921", "phone": "5179992739", "website_url": "http://www.ozonesbrewhouse.com", "state": "Michigan", "street": "305 Beaver St"}, {"id": "95218728-13e3-4eef-9fa5-1deec394c2f6", "name": "Pabst Milwaukee Brewery", "brewery_type": "large", "address_1": "1037 W Juneau Ave", "address_2": null, "address_3": null, "city": "Milwaukee", "state_province": "Wisconsin", "postal_code": "53233-1405", "country": "United States", "longitude": "-87.9255251", "latitude": "43.04554365", "phone": "4149080025", "website_url": null, "state": "Wisconsin", "street": "1037 W Juneau Ave"}, {"id": "ad63e92d-15cf-45e1-9f5a-e1cc9fef0928", "name": "Pacific Beach Ale House", "brewery_type": "brewpub", "address_1": "721 Grand Ave", "address_2": null, "address_3": null, "city": "San Diego", "state_province": "California", "postal_code": "92109-3905", "country": "United States", "longitude": "-117.255265", "latitude": "32.794255", "phone": "8585812337", "website_url": "http://www.pbalehouse.com", "state": "California", "street": "721 Grand Ave"}, {"id": "8f3206c8-8c13-4357-875b-25fcbbc9d63f", "name": "Pacific Brew Haus", "brewery_type": "brewpub", "address_1": "220 S 1st St", "address_2": null, "address_3": null, "city": "Pacific", "state_province": "Missouri", "postal_code": "63069", "country": "United States", "longitude": "-90.741706", "latitude": "38.500322", "phone": "6362572650", "website_url": "http://www.pacificbrewhaus.com", "state": "Missouri", "street": "220 S 1st St"}, {"id": "035386c7-55dd-4d17-acec-2270d759a2ee", "name": "Pacific Brew Lab", "brewery_type": "closed", "address_1": "111 Industrial Way", "address_2": null, "address_3": null, "city": "Belmont", "state_province": "California", "postal_code": "94002-8202", "country": "United States", "longitude": "-122.2659984", "latitude": "37.52175007", "phone": "4159377843", "website_url": "http://www.pacbrewlab.com", "state": "California", "street": "111 Industrial Way"}, {"id": "5a50aa54-5ae5-4968-a8ec-fc53d5796df2", "name": "Pacific Brewing and Malting", "brewery_type": "micro", "address_1": "610 Pacific Ave", "address_2": null, "address_3": null, "city": "Tacoma", "state_province": "Washington", "postal_code": "98402-4606", "country": "United States", "longitude": "-122.437927", "latitude": "47.250289", "phone": "2533832337", "website_url": "http://www.pacificbrewingandmalting.com", "state": "Washington", "street": "610 Pacific Ave"}, {"id": "a45bef15-e043-4985-ad3b-ce0e1625c633", "name": "Pacific Islander Beer Company", "brewery_type": "micro", "address_1": "8665 Argent St ste b", "address_2": null, "address_3": null, "city": "Santee", "state_province": "California", "postal_code": "92071-4180", "country": "United States", "longitude": "-116.9893321", "latitude": "32.83323005", "phone": "6192707777", "website_url": "http://www.pibbeer.com", "state": "California", "street": "8665 Argent St ste b"}, {"id": "e8524519-a341-4027-b4ab-331fcb328f8c", "name": "Pacific Northwest Brewing Center, LLC", "brewery_type": "planning", "address_1": null, "address_2": null, "address_3": null, "city": "Everett", "state_province": "Washington", "postal_code": "98208-3320", "country": "United States", "longitude": null, "latitude": null, "phone": null, "website_url": null, "state": "Washington", "street": null}, {"id": "605b3e94-9468-42de-97b8-2e3518fec767", "name": "Pacific Plate Brewing Co", "brewery_type": "micro", "address_1": "1999 S Myrtle Ave", "address_2": null, "address_3": null, "city": "Monrovia", "state_province": "California", "postal_code": "91016-4854", "country": "United States", "longitude": "-118.0010497", "latitude": "34.1492456", "phone": "6262398456", "website_url": "http://www.pacificplatebrewing.com", "state": "California", "street": "1999 S Myrtle Ave"}, {"id": "df821931-277e-489a-9a2c-7d4a0aa7e756", "name": "Packinghouse Brewing Co, The", "brewery_type": "micro", "address_1": "6421 Central Ave Ste 101", "address_2": null, "address_3": null, "city": "Riverside", "state_province": "California", "postal_code": "92504-1450", "country": "United States", "longitude": "-117.4395735", "latitude": "33.95445847", "phone": "9513339261", "website_url": "http://pbbeer.com", "state": "California", "street": "6421 Central Ave Ste 101"}, {"id": "4c9cdd7b-ea79-4d81-b629-fbfdf899dce6", "name": "Paddle Hard Brewing", "brewery_type": "micro", "address_1": "118 Michigan Ave", "address_2": null, "address_3": null, "city": "Grayling", "state_province": "Michigan", "postal_code": "49738-1741", "country": "United States", "longitude": "-84.709584", "latitude": "44.66521", "phone": "9897456388", "website_url": "http://paddlehardbrewing.com", "state": "Michigan", "street": "118 Michigan Ave"}, {"id": "6ea02eb4-7386-46bf-ac13-fc452dabc976", "name": "Paddle Hard Brewing", "brewery_type": "brewpub", "address_1": "227 E Michigan Ave", "address_2": null, "address_3": null, "city": "Grayling", "state_province": "Michigan", "postal_code": "49738-1742", "country": "United States", "longitude": "-84.71675164", "latitude": "44.6600473", "phone": "9897456388", "website_url": null, "state": "Michigan", "street": "227 E Michigan Ave"}, {"id": "084c617f-abee-4719-b085-9d44682c00c5", "name": "Padre Island Brewing Co", "brewery_type": "brewpub", "address_1": "3400 Padre Blvd", "address_2": null, "address_3": null, "city": "South Padre Island", "state_province": "Texas", "postal_code": "78597", "country": "United States", "longitude": "-97.165899", "latitude": "26.079915", "phone": "9567619585", "website_url": "http://www.pibrewingcompany.com", "state": "Texas", "street": "3400 Padre Blvd"}, {"id": "d3ac23ba-2221-4e04-9a2d-32afec5b12bc", "name": "Paducah Beer Werks", "brewery_type": "brewpub", "address_1": "301 N 4th St", "address_2": null, "address_3": null, "city": "Paducah", "state_province": "Kentucky", "postal_code": "42001-0753", "country": "United States", "longitude": "-88.599512", "latitude": "37.088841", "phone": null, "website_url": "http://www.paducahbeerwerks.com", "state": "Kentucky", "street": "301 N 4th St"}, {"id": "208fc2d7-7b2b-494f-a1ae-a3c1331f8c38", "name": "Pagan River Brewing Company", "brewery_type": "planning", "address_1": null, "address_2": null, "address_3": null, "city": "Smithfield", "state_province": "Virginia", "postal_code": "23430-2301", "country": "United States", "longitude": null, "latitude": null, "phone": "7574143247", "website_url": "http://www.paganriverbrewing.com", "state": "Virginia", "street": null}, {"id": "1718be2e-b314-45d6-a208-8f79e31e8234", "name": "Pagosa Brewing & Grill", "brewery_type": "brewpub", "address_1": "118 N Pagosa Blvd", "address_2": null, "address_3": null, "city": "Pagosa Springs", "state_province": "Colorado", "postal_code": "81147-8470", "country": "United States", "longitude": null, "latitude": null, "phone": "9707312739", "website_url": "http://www.pagosabrewing.com", "state": "Colorado", "street": "118 N Pagosa Blvd"}, {"id": "3446ec5f-e21e-4583-83be-a3a086f212a1", "name": "Pair O' Dice Brewing Company", "brewery_type": "micro", "address_1": "4400 118th Ave N Ste 208", "address_2": null, "address_3": null, "city": "Clearwater", "state_province": "Florida", "postal_code": "33762-4433", "country": "United States", "longitude": null, "latitude": null, "phone": "7277553423", "website_url": "http://www.pairodicebrewing.com", "state": "Florida", "street": "4400 118th Ave N Ste 208"}, {"id": "b648c0ea-b1df-4f26-96fb-403d963c07e3", "name": "Paladin Brewing", "brewery_type": "micro", "address_1": "6520 Mahoning Ave", "address_2": null, "address_3": null, "city": "Austintown", "state_province": "Ohio", "postal_code": "44515-2012", "country": "United States", "longitude": "-80.78742748", "latitude": "41.099487", "phone": "3305506338", "website_url": "http://www.paladinbrewing.com", "state": "Ohio", "street": "6520 Mahoning Ave"}, {"id": "e7def3c1-ed4e-4225-ba15-454a3c96ddb1", "name": "Pale Fire Brewing Co", "brewery_type": "micro", "address_1": "217 S Liberty St Ste 105", "address_2": null, "address_3": null, "city": "Harrisonburg", "state_province": "Virginia", "postal_code": "22801-3675", "country": "United States", "longitude": null, "latitude": null, "phone": "5402175452", "website_url": "http://www.palefirebrewing.com", "state": "Virginia", "street": "217 S Liberty St Ste 105"}, {"id": "cf834341-f73a-4e54-b4ff-e8bc965dbf0b", "name": "Palisade Brewing Company", "brewery_type": "brewpub", "address_1": "200 Peach Ave", "address_2": null, "address_3": null, "city": "Palisade", "state_province": "Colorado", "postal_code": "81526", "country": "United States", "longitude": "-108.3542553", "latitude": "39.11109565", "phone": "9704641462", "website_url": "http://www.palisadebrewingcompany.com", "state": "Colorado", "street": "200 Peach Ave"}, {"id": "699d53b0-0296-411c-8d95-8a7f6637448a", "name": "Pallister Brothers Brewing Company", "brewery_type": "micro", "address_1": "116 N Market St", "address_2": null, "address_3": null, "city": "Ottumwa", "state_province": "Iowa", "postal_code": "52501", "country": "United States", "longitude": "-92.4101724", "latitude": "41.0180942", "phone": null, "website_url": null, "state": "Iowa", "street": "116 N Market St"}, {"id": "2439bcd8-7ffc-4e87-8a39-c093ada01419", "name": "Palm City Brewing", "brewery_type": "micro", "address_1": "7887 Drew Cir Ste 130", "address_2": null, "address_3": null, "city": "Fort Myers", "state_province": "Florida", "postal_code": "33967-6083", "country": "United States", "longitude": null, "latitude": null, "phone": "2393622862", "website_url": null, "state": "Florida", "street": "7887 Drew Cir Ste 130"}, {"id": "7c3cbcf7-16f2-41af-a384-804acd5261c1", "name": "Palm Harbor Brewery", "brewery_type": "brewpub", "address_1": "1022 Georgia Ave", "address_2": null, "address_3": null, "city": "Palm Harbor", "state_province": "Florida", "postal_code": "34683-4317", "country": "United States", "longitude": "-82.76688529", "latitude": "28.07707237", "phone": "7277868039", "website_url": null, "state": "Florida", "street": "1022 Georgia Ave"}, {"id": "a3045868-5a15-46de-9eb3-d721be2231e5", "name": "Palmer Brewery & Cider House", "brewery_type": "micro", "address_1": "2926 Girard Blvd NE", "address_2": null, "address_3": null, "city": "Albuquerque", "state_province": "New Mexico", "postal_code": "87107-1935", "country": "United States", "longitude": "-106.6136878", "latitude": "35.11493302", "phone": "5055080508", "website_url": null, "state": "New Mexico", "street": "2926 Girard Blvd NE"}, {"id": "7157dd7f-0dd1-4d2e-a87c-a153a762a691", "name": "Palmetto Brewing Co", "brewery_type": "regional", "address_1": "289 Huger St Bldg B", "address_2": null, "address_3": null, "city": "Charleston", "state_province": "South Carolina", "postal_code": "29403-4560", "country": "United States", "longitude": null, "latitude": null, "phone": "8439370903", "website_url": "http://www.palmettobrewery.com", "state": "South Carolina", "street": "289 Huger St Bldg B"}, {"id": "244bd051-831b-41c1-9d86-a0b1c5d6af13", "name": "Palmia", "brewery_type": "proprietor", "address_1": "3749 Divisadero St", "address_2": null, "address_3": null, "city": "San Francisco", "state_province": "California", "postal_code": "94123-1010", "country": "United States", "longitude": "-122.4438993", "latitude": "37.804342", "phone": "4153853100", "website_url": "http://www.palmiabeer.com", "state": "California", "street": "3749 Divisadero St"}, {"id": "568ece36-a3d7-40ad-9364-592642a1cdd3", "name": "Palo Alto Brewing Co", "brewery_type": "contract", "address_1": "1080B La Avenida St", "address_2": null, "address_3": null, "city": "Mountain View", "state_province": "California", "postal_code": "94043-1422", "country": "United States", "longitude": "-122.0717657", "latitude": "37.41326789", "phone": null, "website_url": "http://www.paloaltobrewing.com", "state": "California", "street": "1080B La Avenida St"}, {"id": "68e10e91-616a-4760-99ad-1be117ebafcf", "name": "Pals Brewing Company", "brewery_type": "brewpub", "address_1": "4520 South Buffalo Bill Avenue", "address_2": null, "address_3": null, "city": "North Platte", "state_province": "Nebraska", "postal_code": "69101", "country": "United States", "longitude": "-100.7916041", "latitude": "41.12294", "phone": "6088079332", "website_url": "http://www.palsbrewingcompany.com", "state": "Nebraska", "street": "4520 South Buffalo Bill Avenue"}, {"id": "fcc5674e-befb-4eab-bfb6-ec508720b7a0", "name": "Panacea Brewing Company / Remedy Brewing Company", "brewery_type": "brewpub", "address_1": "401 E 8th St Ste 120", "address_2": null, "address_3": null, "city": "Sioux Falls", "state_province": "South Dakota", "postal_code": "57103-7012", "country": "United States", "longitude": "-96.7221603", "latitude": "43.54794988", "phone": "6052141327", "website_url": "http://www.remedybrewco.com", "state": "South Dakota", "street": "401 E 8th St Ste 120"}, {"id": "6baeae2b-3797-4e73-84ec-1687f7f669cc", "name": "Panther Creek Brews", "brewery_type": "planning", "address_1": null, "address_2": null, "address_3": null, "city": "Christiana", "state_province": "Tennessee", "postal_code": "37037-5122", "country": "United States", "longitude": null, "latitude": null, "phone": "6155891401", "website_url": "http://www.panthercreekbrews.com", "state": "Tennessee", "street": null}, {"id": "67d27756-36a8-402d-be42-843cfe015bd5", "name": "Panther Island Brewing Company", "brewery_type": "micro", "address_1": "501 N Main St", "address_2": null, "address_3": null, "city": "Fort Worth", "state_province": "Texas", "postal_code": "76164-9508", "country": "United States", "longitude": "-97.33793538", "latitude": "32.7636809", "phone": "8178828121", "website_url": "http://www.pantherislandbrewing.com", "state": "Texas", "street": "501 N Main St"}, {"id": "c7c2ba11-d41c-48a4-a5c5-fbd6977fe0c9", "name": "Pantomime Mixtures", "brewery_type": "planning", "address_1": null, "address_2": null, "address_3": null, "city": "Hector", "state_province": "New York", "postal_code": "14841-9629", "country": "United States", "longitude": null, "latitude": null, "phone": "6319442668", "website_url": "http://www.pantomimemxitures.com", "state": "New York", "street": null}, {"id": "b4364f80-3e30-40fc-bae8-00b3fa7b9c58", "name": "Pantown Brewing Company", "brewery_type": "planning", "address_1": null, "address_2": null, "address_3": null, "city": "Saint Cloud", "state_province": "Minnesota", "postal_code": "56303-3047", "country": "United States", "longitude": null, "latitude": null, "phone": "3209803100", "website_url": "http://www.pantownBrewing.com", "state": "Minnesota", "street": null}, {"id": "4a6351a8-2ec1-42b0-8c6a-ca6c630df76b", "name": "Paonia United Brewing Company", "brewery_type": "micro", "address_1": "325 Grand Ave", "address_2": null, "address_3": null, "city": "Paonia", "state_province": "Colorado", "postal_code": "81428", "country": "United States", "longitude": "-107.5976969", "latitude": "38.86899455", "phone": "9704177759", "website_url": "http://www.paoniaunitedbrew.com", "state": "Colorado", "street": "325 Grand Ave"}, {"id": "b96b43ff-31cd-46f3-8c14-e225aeec0841", "name": "Papa Marce's Cerveceria", "brewery_type": "planning", "address_1": null, "address_2": null, "address_3": null, "city": "Carlsbad", "state_province": "California", "postal_code": "92008", "country": "United States", "longitude": "-117.3505966", "latitude": "33.1580933", "phone": "8584146976", "website_url": "http://www.papamarces.com", "state": "California", "street": null}, {"id": "ceb076d0-abb4-41df-b085-6799d5356f13", "name": "Paper City Development LLC", "brewery_type": "planning", "address_1": null, "address_2": null, "address_3": null, "city": "Vicksburg", "state_province": "Michigan", "postal_code": "49097", "country": "United States", "longitude": null, "latitude": null, "phone": "6049961400", "website_url": "http://papercitymillworks.com", "state": "Michigan", "street": null}, {"id": "6c521aa8-180a-4e57-a711-ea6018b3f219", "name": "Paper Street Brewing Company", "brewery_type": "brewpub", "address_1": "701 The Parkway", "address_2": null, "address_3": null, "city": "Richland", "state_province": "Washington", "postal_code": "99352-4251", "country": "United States", "longitude": "-119.274455", "latitude": "46.274953", "phone": "5097137088", "website_url": "http://www.paperstbrewing.com", "state": "Washington", "street": "701 The Parkway"}, {"id": "0f1246e4-cd74-4090-a807-e3cbbadac148", "name": "Paperback Brewing Company", "brewery_type": "planning", "address_1": null, "address_2": null, "address_3": null, "city": "Woodland Hills", "state_province": "California", "postal_code": "91367-2912", "country": "United States", "longitude": "-118.6059197", "latitude": "34.1683386", "phone": null, "website_url": "http://www.paperback.la", "state": "California", "street": null}, {"id": "6309c11e-0f36-4621-80b9-33e7645e0a85", "name": "Pappy Slokum Brewing Co.", "brewery_type": "micro", "address_1": "409 S Treadaway Blvd", "address_2": null, "address_3": null, "city": "Abilene", "state_province": "Texas", "postal_code": "79602-1750", "country": "United States", "longitude": "-99.726991", "latitude": "32.444828", "phone": "3252014112", "website_url": "http://waggonerr@gmail.com", "state": "Texas", "street": "409 S Treadaway Blvd"}, {"id": "f2376e93-a30f-4e71-9476-b56f98957f16", "name": "Paradigm Shift Brewing", "brewery_type": "micro", "address_1": "128 North Ave NE", "address_2": null, "address_3": null, "city": "Massillon", "state_province": "Ohio", "postal_code": "44646-5526", "country": "United States", "longitude": "-81.52183929", "latitude": "40.79865814", "phone": "3308800008", "website_url": "http://www.paradigmshiftbrew.com", "state": "Ohio", "street": "128 North Ave NE"}, {"id": "1923b722-bc48-4f2f-b003-5b52a77695c1", "name": "Paradise Creek Brewery", "brewery_type": "micro", "address_1": "505 SE Riverview St Ste C", "address_2": null, "address_3": null, "city": "Pullman", "state_province": "Washington", "postal_code": "99163-5262", "country": "United States", "longitude": null, "latitude": null, "phone": "5095920114", "website_url": "http://www.paradisecreekbrewery.com", "state": "Washington", "street": "505 SE Riverview St Ste C"}, {"id": "ecde2a37-e88b-4637-933e-ebd02cbff2b8", "name": "Paradox Beer Co", "brewery_type": "micro", "address_1": "10 Buffalo Ct", "address_2": null, "address_3": null, "city": "Divide", "state_province": "Colorado", "postal_code": "80814-9178", "country": "United States", "longitude": "-105.1550486", "latitude": "38.94440915", "phone": null, "website_url": "http://www.paradoxbeercompany.com", "state": "Colorado", "street": "10 Buffalo Ct"}, {"id": "88ae082b-ea43-4367-90e5-bba2aa64f7ea", "name": "Paradox Brewery", "brewery_type": "micro", "address_1": "154 State Route 9", "address_2": null, "address_3": null, "city": "Schroon Lake", "state_province": "New York", "postal_code": "12870", "country": "United States", "longitude": null, "latitude": null, "phone": "5183515036", "website_url": "http://www.paradoxbrewery.com", "state": "New York", "street": "154 State Route 9"}, {"id": "5b34875f-fccf-447f-a85e-f363efe9e2d0", "name": "Paradox Brewery / Gateway To the Adirondacks", "brewery_type": "planning", "address_1": null, "address_2": null, "address_3": null, "city": "Schroon Lake", "state_province": "New York", "postal_code": "12870", "country": "United States", "longitude": null, "latitude": null, "phone": null, "website_url": null, "state": "New York", "street": null}, {"id": "5bd1f033-c140-4d10-9e22-ba828de064ea", "name": "Paradune Brewing", "brewery_type": "micro", "address_1": "10551 1/2 County Rd 286", "address_2": null, "address_3": null, "city": "Huntsville", "state_province": "Ohio", "postal_code": "43324", "country": "United States", "longitude": null, "latitude": null, "phone": null, "website_url": null, "state": "Ohio", "street": "10551 1/2 County Rd 286"}, {"id": "a48cf2bc-b38c-493f-8c15-c5d6c572b561", "name": "Paradune Brewing Company", "brewery_type": "micro", "address_1": "20707 Township Rd 119", "address_2": null, "address_3": null, "city": "Belle Center", "state_province": "Ohio", "postal_code": "43310", "country": "United States", "longitude": null, "latitude": null, "phone": "9375891730", "website_url": "http://www.paradunebrewing.com", "state": "Ohio", "street": "20707 Township Rd 119"}, {"id": "c3bd276d-0168-4060-9055-e997af4ab18a", "name": "Paragon Brewing", "brewery_type": "proprietor", "address_1": "5785 N Government Way", "address_2": null, "address_3": null, "city": "Coeur D Alene", "state_province": "Idaho", "postal_code": "83815-7329", "country": "United States", "longitude": "-116.787369", "latitude": "47.725118", "phone": "2087729292", "website_url": "http://www.paragonbrewing.com", "state": "Idaho", "street": "5785 N Government Way"}, {"id": "51d30268-e015-4b21-9500-147c2109c7bc", "name": "Paraiso Brewery", "brewery_type": "micro", "address_1": "80 W G St", "address_2": null, "address_3": null, "city": "Los Banos", "state_province": "California", "postal_code": "93635-3659", "country": "United States", "longitude": "-120.8549566", "latitude": "37.06775432", "phone": "2098552337", "website_url": "http://paraisobrewery.com", "state": "California", "street": "80 W G St"}, {"id": "a17858d1-e5aa-41c5-a429-8418b7890d9d", "name": "Paramount Brewing Company", "brewery_type": "planning", "address_1": null, "address_2": null, "address_3": null, "city": "Andover", "state_province": "Massachusetts", "postal_code": "01810-5011", "country": "United States", "longitude": null, "latitude": null, "phone": "6178691388", "website_url": null, "state": "Massachusetts", "street": null}, {"id": "581a681e-b5e8-4595-8cc6-f579304f804e", "name": "Parched Eagle Brewpub", "brewery_type": "brewpub", "address_1": "5440 Willow Rd Ste 112", "address_2": null, "address_3": null, "city": "Waunakee", "state_province": "Wisconsin", "postal_code": "53597-8431", "country": "United States", "longitude": null, "latitude": null, "phone": "6082049192", "website_url": "http://www.parchedeaglebrewpub.com", "state": "Wisconsin", "street": "5440 Willow Rd Ste 112"}, {"id": "77b2e1c4-db34-4c4b-b0ed-55b2553f1191", "name": "Pareidolia Brewing Co.", "brewery_type": "brewpub", "address_1": "712 Cleveland St", "address_2": null, "address_3": null, "city": "Sebastian", "state_province": "Florida", "postal_code": "32958-4178", "country": "United States", "longitude": "-80.46645659", "latitude": "27.81084556", "phone": "7725840331", "website_url": "http://www.pareidoliabeer.com", "state": "Florida", "street": "712 Cleveland St"}, {"id": "21446025-be15-4477-9ef8-e4686bc7ec90", "name": "Pariah Brewing Company", "brewery_type": "micro", "address_1": "3052 El Cajon Blvd Ste B", "address_2": null, "address_3": null, "city": "San Diego", "state_province": "California", "postal_code": "92104-1618", "country": "United States", "longitude": "-117.1286268", "latitude": "32.75594166", "phone": "6196420545", "website_url": "http://www.pariahbrewingco.com", "state": "California", "street": "3052 El Cajon Blvd Ste B"}, {"id": "703a9282-97f8-4305-8d39-b06b9814d34c", "name": "Parish Brewing Company", "brewery_type": "micro", "address_1": "229 Jared Dr", "address_2": null, "address_3": null, "city": "Broussard", "state_province": "Louisiana", "postal_code": "70518-4362", "country": "United States", "longitude": "-91.9485237", "latitude": "30.1592466", "phone": "3373308601", "website_url": "http://www.parishbeer.com", "state": "Louisiana", "street": "229 Jared Dr"}, {"id": "437725f5-e51b-407f-be9b-1fed4e71cc7c", "name": "Park City Brewery", "brewery_type": "closed", "address_1": "2720 Rasmussen Rd Ste A1", "address_2": null, "address_3": null, "city": "Park City", "state_province": "Utah", "postal_code": "84098-5751", "country": "United States", "longitude": null, "latitude": null, "phone": "4352008906", "website_url": "http://www.parkcitybrewery.com", "state": "Utah", "street": "2720 Rasmussen Rd Ste A1"}, {"id": "1f09c9cd-5e78-4c69-a3df-28d7728a6862", "name": "Park Tavern Brewery", "brewery_type": "brewpub", "address_1": "500 10th St NE", "address_2": null, "address_3": null, "city": "Atlanta", "state_province": "Georgia", "postal_code": "30309-4272", "country": "United States", "longitude": "-84.377744", "latitude": "33.781867", "phone": "4042490001", "website_url": "http://www.parktavern.com", "state": "Georgia", "street": "500 10th St NE"}, {"id": "877e9636-df9e-46af-b667-eee6930cffaf", "name": "Parker's Steakhouse and Brewery", "brewery_type": "brewpub", "address_1": "1300 Mt Saint Helens Way NE", "address_2": null, "address_3": null, "city": "Castle Rock", "state_province": "Washington", "postal_code": "98611-9014", "country": "United States", "longitude": "-122.898886", "latitude": "46.287285", "phone": "3609672333", "website_url": "http://www.parkerssteakhouse.com", "state": "Washington", "street": "1300 Mt Saint Helens Way NE"}, {"id": "fb80ac7b-2db7-4d36-83a8-0b32ca21140a", "name": "Parkers Hilltop Brewery", "brewery_type": "brewpub", "address_1": "6110 Dixie Hwy", "address_2": null, "address_3": null, "city": "Clarkston", "state_province": "Michigan", "postal_code": "48346-3409", "country": "United States", "longitude": "-83.4149011", "latitude": "42.7174413", "phone": "2483838444", "website_url": "http://www.hilltopbrew.com", "state": "Michigan", "street": "6110 Dixie Hwy"}, {"id": "536453ac-c66c-4cd2-b3c4-34095183ed62", "name": "Parkersburg Brewing Co", "brewery_type": "brewpub", "address_1": "707 Market St", "address_2": null, "address_3": null, "city": "Parkersburg", "state_province": "West Virginia", "postal_code": "26101-4628", "country": "United States", "longitude": "-81.55823029", "latitude": "39.26705857", "phone": "3049161502", "website_url": "http://www.parkersburgbrewing.com", "state": "West Virginia", "street": "707 Market St"}, {"id": "69f0e786-deae-48b2-9320-8dae1f85a1a5", "name": "Parkside Brewing Company", "brewery_type": "brewpub", "address_1": "2601 Madison Ave", "address_2": null, "address_3": null, "city": "Burlington", "state_province": "Iowa", "postal_code": "52601-6622", "country": "United States", "longitude": "-91.1079175", "latitude": "40.77905391", "phone": "3192092739", "website_url": "http://www.parksidebrewing.com", "state": "Iowa", "street": "2601 Madison Ave"}, {"id": "12b5ad73-b4d0-4030-b7de-486e4b16c792", "name": "Parkway Brewing", "brewery_type": "micro", "address_1": "739 Kessler Mill Rd", "address_2": null, "address_3": null, "city": "Salem", "state_province": "Virginia", "postal_code": "24153-3035", "country": "United States", "longitude": "-80.0332665", "latitude": "37.30925145", "phone": "5404049810", "website_url": "http://www.parkwaybrewing.com", "state": "Virginia", "street": "739 Kessler Mill Rd"}, {"id": "fff36b1b-b208-4477-8652-8eb64bee33c9", "name": "Parleaux Beer Lab", "brewery_type": "micro", "address_1": "634 Lesseps St", "address_2": null, "address_3": null, "city": "New Orleans", "state_province": "Louisiana", "postal_code": "70117", "country": "United States", "longitude": "-90.03400238", "latitude": "29.9607459", "phone": "5047028433", "website_url": "http://www.parleauxbeerlab.com", "state": "Louisiana", "street": "634 Lesseps St"}, {"id": "d58fa2dc-0c5d-4eaa-9252-f25f59c3025e", "name": "Parts & Labor Brewing Company", "brewery_type": "brewpub", "address_1": "402 Main St Unit B", "address_2": null, "address_3": null, "city": "Sterling", "state_province": "Colorado", "postal_code": "80751-4343", "country": "United States", "longitude": null, "latitude": null, "phone": "9702228221", "website_url": "http://www.partsandlaborbrewing.com", "state": "Colorado", "street": "402 Main St Unit B"}, {"id": "fc875d84-2f1d-4076-b67f-594fff2b00d7", "name": "Pastime Brewery Bar and Grill", "brewery_type": "brewpub", "address_1": "1307 Main St", "address_2": null, "address_3": null, "city": "Oroville", "state_province": "Washington", "postal_code": "98844-9384", "country": "United States", "longitude": "-119.4363091", "latitude": "48.93797078", "phone": "5094763007", "website_url": "http://www.pastimebarandgrill.com", "state": "Washington", "street": "1307 Main St"}, {"id": "a7d5823a-039b-49d2-9747-ae947815a394", "name": "Pat O'Hara Brewing Company", "brewery_type": "brewpub", "address_1": "1019 15th St", "address_2": null, "address_3": null, "city": "Cody", "state_province": "Wyoming", "postal_code": "82414-3721", "country": "United States", "longitude": "-109.058375", "latitude": "44.52678265", "phone": "3075865410", "website_url": null, "state": "Wyoming", "street": "1019 15th St"}, {"id": "0afdca59-0ed4-44dc-80d8-7a952e1924f6", "name": "Pato Brewing", "brewery_type": "micro", "address_1": "Centro Empresarial Sintra-Estoril I", "address_2": "Av. Pedro \u00c1lvares Cabral 177 ARMAZ\u00c9M G", "address_3": "Beloura", "city": "Sintra", "state_province": "Lisboa", "postal_code": "2710-144", "country": "Portugal", "longitude": "-9.374911626904721", "latitude": "38.7592461545261", "phone": "+351 96 280 0847", "website_url": "http://www.patobrewing.com", "state": "Lisboa", "street": "Centro Empresarial Sintra-Estoril I"}, {"id": "a3525861-0aba-40f8-aff8-1af8bba01946", "name": "Patriot Acres Farm Brewery", "brewery_type": "micro", "address_1": "1621 Millington Rd", "address_2": null, "address_3": null, "city": "Sudlersville", "state_province": "Maryland", "postal_code": "21668-1427", "country": "United States", "longitude": "-75.86736136", "latitude": "39.22228298", "phone": "4107085424", "website_url": "http://www.patriotacresfarmbrewery.com", "state": "Maryland", "street": "1621 Millington Rd"}, {"id": "239ea12a-9340-4a7b-81c5-d819af331f2c", "name": "Patron Saints Brewery", "brewery_type": "micro", "address_1": "4730 W Bancroft St #8", "address_2": null, "address_3": null, "city": "Toledo", "state_province": "Ohio", "postal_code": "43615", "country": "United States", "longitude": "-83.650886", "latitude": "41.662495", "phone": null, "website_url": "http://www.PatronSaintsBrewery.com", "state": "Ohio", "street": "4730 W Bancroft St #8"}, {"id": "5575c888-ae31-4c95-93af-3f76a5f11242", "name": "Paw Paw Brewing Company", "brewery_type": "brewpub", "address_1": "929 E Michigan Ave", "address_2": null, "address_3": null, "city": "Paw Paw", "state_province": "Michigan", "postal_code": "49079-9488", "country": "United States", "longitude": "-85.87748984", "latitude": "42.2192304", "phone": "2694150145", "website_url": "http://pawpawbrewery.com", "state": "Michigan", "street": "929 E Michigan Ave"}, {"id": "f6ae3e02-e4dd-4aa3-961b-107a6b9706ae", "name": "Paw Paw Brewing Company LLC", "brewery_type": "micro", "address_1": "780 S Gremps street", "address_2": null, "address_3": null, "city": "PAW PAW", "state_province": "Michigan", "postal_code": "49079", "country": "United States", "longitude": "-85.89437423", "latitude": "42.2131394", "phone": "2695015241", "website_url": "http://www.pawpawbrewing.com", "state": "Michigan", "street": "780 S Gremps street"}, {"id": "3d619b2b-ece6-478b-a46b-752087ff4a10", "name": "Paw Paw Brewing Company Production Facility", "brewery_type": "micro", "address_1": "780 S Gremps St", "address_2": null, "address_3": null, "city": "Paw Paw", "state_province": "Michigan", "postal_code": "49079", "country": "United States", "longitude": "-85.89437423", "latitude": "42.2131394", "phone": null, "website_url": null, "state": "Michigan", "street": "780 S Gremps St"}, {"id": "42ff6091-e237-43c8-93ab-0b8d5e170721", "name": "Pawleys Island Brewing Company", "brewery_type": "brewpub", "address_1": "2668 Industrial Ave", "address_2": null, "address_3": null, "city": "North Charleston", "state_province": "South Carolina", "postal_code": "29405-7429", "country": "United States", "longitude": "-80.00423049", "latitude": "32.8533504", "phone": "8432258292", "website_url": "http://www.pawleysislandbrewing.com", "state": "South Carolina", "street": "2668 Industrial Ave"}, {"id": "e041442e-c7f9-4896-a0b5-4c4f0bc66c9b", "name": "Pax Verum Brewing", "brewery_type": "micro", "address_1": "908 N Main St", "address_2": null, "address_3": null, "city": "Lapel", "state_province": "Indiana", "postal_code": "46051-", "country": "United States", "longitude": "-85.84802957", "latitude": "40.0686988", "phone": "3172858819", "website_url": "http://www.paxverum.com", "state": "Indiana", "street": "908 N Main St"}, {"id": "061be81d-5cc0-44e9-b474-ad1b046ff25b", "name": "Payette Brewing Co", "brewery_type": "micro", "address_1": "733 S Pioneer St", "address_2": null, "address_3": null, "city": "Boise", "state_province": "Idaho", "postal_code": "83702-5219", "country": "United States", "longitude": "-116.2145033", "latitude": "43.61301363", "phone": "2083440011", "website_url": "http://www.payettebrewing.com", "state": "Idaho", "street": "733 S Pioneer St"}, {"id": "63062c41-f06b-4562-b723-eab8f21a4fe6", "name": "Paystreak Brewing", "brewery_type": "brewpub", "address_1": "449 Main Street", "address_2": null, "address_3": null, "city": "Etna", "state_province": "California", "postal_code": "96027", "country": "United States", "longitude": "-122.8937015", "latitude": "41.4565805", "phone": "5304672337", "website_url": "http://www.paystreakbrewing.com", "state": "California", "street": "449 Main Street"}, {"id": "8759cc82-6616-436e-b9ed-50b897439a8e", "name": "Pdub Brewing Co", "brewery_type": "brewpub", "address_1": "187 S Purcell Blvd", "address_2": null, "address_3": null, "city": "Pueblo", "state_province": "Colorado", "postal_code": "81007-5081", "country": "United States", "longitude": "-104.7084175", "latitude": "38.3164023", "phone": "7196478864", "website_url": "http://www.pdubbrewing.com", "state": "Colorado", "street": "187 S Purcell Blvd"}, {"id": "79e4d05e-14c1-4af7-b2a9-192eebe502c0", "name": "Peabody Heights Brewery", "brewery_type": "micro", "address_1": "401 E 30th St", "address_2": null, "address_3": null, "city": "Baltimore", "state_province": "Maryland", "postal_code": "21218-3935", "country": "United States", "longitude": "-76.61041505", "latitude": "39.32410525", "phone": "4104677837", "website_url": "http://www.peabodyheightsbrewery.com", "state": "Maryland", "street": "401 E 30th St"}, {"id": "686a7573-f9de-4f70-a03d-1c8a225ca092", "name": "Peace Tree Brewing Company", "brewery_type": "micro", "address_1": "107 W Main St", "address_2": null, "address_3": null, "city": "Knoxville", "state_province": "Iowa", "postal_code": "50138-2528", "country": "United States", "longitude": "-93.09970823", "latitude": "41.31903523", "phone": "6418422739", "website_url": "http://www.peacetreebrewing.com", "state": "Iowa", "street": "107 W Main St"}, {"id": "2944a16b-b018-42bb-9c9e-48a05ec26739", "name": "Peace Tree Brewing Company - Des Moines Branch", "brewery_type": "micro", "address_1": "317 E Court Ave", "address_2": null, "address_3": null, "city": "Des Moines", "state_province": "Iowa", "postal_code": "50309-2014", "country": "United States", "longitude": "-93.6121558", "latitude": "41.5867046", "phone": "5158832739", "website_url": "http://www.peacetreebrewing.com", "state": "Iowa", "street": "317 E Court Ave"}, {"id": "1c0f1498-1b85-4472-946d-eae8385c6118", "name": "Peacemaker Brewing Company", "brewery_type": "micro", "address_1": "20 Pleasant St", "address_2": null, "address_3": null, "city": "Canandaigua", "state_province": "New York", "postal_code": "14424-2047", "country": "United States", "longitude": "-77.27866055", "latitude": "42.88851165", "phone": "5853963561", "website_url": "http://www.peacemakerbrewing.com", "state": "New York", "street": "20 Pleasant St"}, {"id": "a8882009-9fd1-4cab-a8e8-c19bf22d6dea", "name": "Peak Organic Brewing Co", "brewery_type": "proprietor", "address_1": "110 Marginal Way # 802", "address_2": null, "address_3": null, "city": "Portland", "state_province": "Maine", "postal_code": "04101-2442", "country": "United States", "longitude": "-70.26454878", "latitude": "43.66244776", "phone": "2075865586", "website_url": "http://www.peakbrewing.com", "state": "Maine", "street": "110 Marginal Way # 802"}, {"id": "3c4ee320-98f6-4949-9ec1-8a24f16619d8", "name": "Peak To Peak Tap & Brew", "brewery_type": "brewpub", "address_1": "16701 E Iliff Ave", "address_2": null, "address_3": null, "city": "Aurora", "state_province": "Colorado", "postal_code": "80013-1148", "country": "United States", "longitude": "-104.8366181", "latitude": "39.6750535", "phone": "7204468714", "website_url": "http://www.peakbrews.com", "state": "Colorado", "street": "16701 E Iliff Ave"}, {"id": "8eb28987-4959-4f49-b410-757b110e5356", "name": "Peak To Peak Tap & Brew", "brewery_type": "micro", "address_1": "9735 E Colfax Ave", "address_2": null, "address_3": null, "city": "Aurora", "state_province": "Colorado", "postal_code": "80010", "country": "United States", "longitude": "-104.8505299", "latitude": "39.7402157", "phone": null, "website_url": null, "state": "Colorado", "street": "9735 E Colfax Ave"}, {"id": "ec411fb6-0238-45ae-a312-8c3d6133d140", "name": "Peak View Brewing Company", "brewery_type": "planning", "address_1": null, "address_2": null, "address_3": null, "city": "Greenwood Village", "state_province": "Colorado", "postal_code": "80112", "country": "United States", "longitude": null, "latitude": null, "phone": "3036418731", "website_url": "http://www.peakviewbrewing.com", "state": "Colorado", "street": null}, {"id": "e0f10443-62fe-48ca-a9d5-3b1c3cb426f0", "name": "Peaks and Creeks Brewing Company", "brewery_type": "micro", "address_1": "212 King St Ste B", "address_2": null, "address_3": null, "city": "Brevard", "state_province": "North Carolina", "postal_code": "28712", "country": "United States", "longitude": null, "latitude": null, "phone": "8285504765", "website_url": "http://www.brevardlumberyard.com", "state": "North Carolina", "street": "212 King St Ste B"}, {"id": "02552dfe-2893-4ef1-82d6-b4713015c61f", "name": "Peaks N Pines Brewing Company", "brewery_type": "micro", "address_1": "4005 Tutt Blvd", "address_2": null, "address_3": null, "city": "Colorado Springs", "state_province": "Colorado", "postal_code": "80922-2508", "country": "United States", "longitude": "-104.7146045", "latitude": "38.88965993", "phone": "7193586758", "website_url": "http://www.peaksnpinesbrewery.com", "state": "Colorado", "street": "4005 Tutt Blvd"}, {"id": "49c63f60-1304-43cb-839f-d4b05eb592be", "name": "Pearl Street Brewery", "brewery_type": "micro", "address_1": "1401 Saint Andrew St", "address_2": null, "address_3": null, "city": "La Crosse", "state_province": "Wisconsin", "postal_code": "54603-2866", "country": "United States", "longitude": "-91.23526334", "latitude": "43.835173", "phone": null, "website_url": "http://pearlstreetbrewery.com/", "state": "Wisconsin", "street": "1401 Saint Andrew St"}, {"id": "a4ce36e6-21d4-41c4-9af4-0da93bb98581", "name": "Pearl Street Grill and Brewery", "brewery_type": "brewpub", "address_1": "76 Pearl St", "address_2": null, "address_3": null, "city": "Buffalo", "state_province": "New York", "postal_code": "14202-4106", "country": "United States", "longitude": "-78.87722544", "latitude": "42.88105759", "phone": "7168562337", "website_url": "http://www.pearlstreetgrill.com", "state": "New York", "street": "76 Pearl St"}]