[{"id": "078e3dba-53a7-4d26-b6a5-e43588a234f2", "name": "Revolution Brewing - Brewpub", "brewery_type": "brewpub", "address_1": "2323 N Milwaukee Ave", "address_2": null, "address_3": null, "city": "Chicago", "state_province": "Illinois", "postal_code": "60647-2924", "country": "United States", "longitude": "-87.6981447", "latitude": "41.923586", "phone": "7732272739", "website_url": "http://www.revbrew.com", "state": "Illinois", "street": "2323 N Milwaukee Ave"}, {"id": "7675c62e-c161-46dc-ac96-fdf9f934054f", "name": "Revolver Brewing", "brewery_type": "large", "address_1": "5650 Matlock Rd", "address_2": null, "address_3": null, "city": "Granbury", "state_province": "Texas", "postal_code": "76049-5347", "country": "United States", "longitude": null, "latitude": null, "phone": "8177368034", "website_url": "http://www.revolverbrewing.com", "state": "Texas", "street": "5650 Matlock Rd"}, {"id": "ce15d565-16a3-4292-a00f-5285788158ea", "name": "RG Brewery / Five Sons Winery", "brewery_type": "micro", "address_1": "1360 W Sweden Rd", "address_2": null, "address_3": null, "city": "Brockport", "state_province": "New York", "postal_code": "14420-", "country": "United States", "longitude": null, "latitude": null, "phone": "5853913569", "website_url": "http://www.rgbrewery.com", "state": "New York", "street": "1360 W Sweden Rd"}, {"id": "6e5f19f9-b0cb-424d-ac2a-828ea580bddd", "name": "Rhinegeist Brewery", "brewery_type": "regional", "address_1": "1910 Elm St", "address_2": null, "address_3": null, "city": "Cincinnati", "state_province": "Ohio", "postal_code": "45202-7751", "country": "United States", "longitude": "-84.51992076", "latitude": "39.1172", "phone": "5133811356", "website_url": "http://www.rhinegeist.com", "state": "Ohio", "street": "1910 Elm St"}, {"id": "b360441e-a145-4059-a49c-92b6c47e95ff", "name": "Rhinelander Brewing Co", "brewery_type": "contract", "address_1": "59 S Brown St", "address_2": null, "address_3": null, "city": "Rhinelander", "state_province": "Wisconsin", "postal_code": "54501-3450", "country": "United States", "longitude": "-89.41264622", "latitude": "45.63733288", "phone": "7155502337", "website_url": "http://www.rhinelanderbrewery.com", "state": "Wisconsin", "street": "59 S Brown St"}, {"id": "5917501f-0771-4345-8d0f-b1bb591bc319", "name": "Rhombus Guys Brewing Co", "brewery_type": "brewpub", "address_1": "116 S 3rd St", "address_2": null, "address_3": null, "city": "Grand Forks", "state_province": "North Dakota", "postal_code": "58201-4784", "country": "United States", "longitude": "-97.0286822", "latitude": "47.923923", "phone": "7017570598", "website_url": "http://www.rhombusguysbrewing.com", "state": "North Dakota", "street": "116 S 3rd St"}, {"id": "78afc551-cb96-427b-972f-61840aa2636c", "name": "Rhythm River Brewing Company", "brewery_type": "planning", "address_1": null, "address_2": null, "address_3": null, "city": "Longmont", "state_province": "Colorado", "postal_code": "80504-2226", "country": "United States", "longitude": null, "latitude": null, "phone": null, "website_url": "http://www.rhythmriverbrewing.com", "state": "Colorado", "street": null}, {"id": "60c3cc1d-7647-4325-ac74-e2c6f40cd2b5", "name": "Richbrau Brewing", "brewery_type": "micro", "address_1": "5 S 20th St", "address_2": null, "address_3": null, "city": "Richmond", "state_province": "Virginia", "postal_code": "23223", "country": "United States", "longitude": null, "latitude": null, "phone": "8046214100", "website_url": "https://www.richbraubrewing.com/", "state": "Virginia", "street": "5 S 20th St"}, {"id": "536187da-6f21-4ccd-89f1-33a0c47516cb", "name": "Richter Aleworks", "brewery_type": "micro", "address_1": "8279 W Lake Pleasant Pkwy Ste 110", "address_2": null, "address_3": null, "city": "Peoria", "state_province": "Arizona", "postal_code": "85382-7434", "country": "United States", "longitude": "-112.2380541", "latitude": "33.6687745", "phone": "6029086553", "website_url": "http://www.richteraleworks.com", "state": "Arizona", "street": "8279 W Lake Pleasant Pkwy Ste 110"}, {"id": "88e5f229-e9d3-43b2-9a45-2b4939c5d292", "name": "Small Town Brewery", "brewery_type": "large", "address_1": "1000 N Rand Rd Ste 204", "address_2": null, "address_3": null, "city": "Wauconda", "state_province": "Illinois", "postal_code": "60084-1182", "country": "United States", "longitude": null, "latitude": null, "phone": "3142768277", "website_url": null, "state": "Illinois", "street": "1000 N Rand Rd Ste 204"}, {"id": "f473913e-7ac7-4da3-8257-896ededee890", "name": "Rick Tanner's Grille & Bar/Cherry Street Brewing Cooperative", "brewery_type": "brewpub", "address_1": "5810 Bond St # E-2", "address_2": null, "address_3": null, "city": "Cumming", "state_province": "Georgia", "postal_code": "30040-0301", "country": "United States", "longitude": null, "latitude": null, "phone": "7702055512", "website_url": "http://www.rtanners.com", "state": "Georgia", "street": "5810 Bond St # E-2"}, {"id": "4dc524ab-af98-4f2d-828e-e6df7078ad9f", "name": "Rickety Cricket Brewing", "brewery_type": "brewpub", "address_1": "312 E Beale St", "address_2": null, "address_3": null, "city": "Kingman", "state_province": "Arizona", "postal_code": "86401-5832", "country": "United States", "longitude": "-114.0614981", "latitude": "35.19028906", "phone": "9287532337", "website_url": "http://www.ricketycricketbrewing.com", "state": "Arizona", "street": "312 E Beale St"}, {"id": "46a30b10-a4bb-43f1-9219-d0e6ffbde56f", "name": "Ridge Runner Brewing LLC", "brewery_type": "planning", "address_1": null, "address_2": null, "address_3": null, "city": "Wauseon", "state_province": "Ohio", "postal_code": "43567-9294", "country": "United States", "longitude": null, "latitude": null, "phone": null, "website_url": null, "state": "Ohio", "street": null}, {"id": "e1c59d70-ad1b-435a-ba5d-f4c682d0e323", "name": "Ridgewalker Brewing", "brewery_type": "brewpub", "address_1": "1921 21st Ave", "address_2": null, "address_3": null, "city": "Forest Grove", "state_province": "Oregon", "postal_code": "97116-1637", "country": "United States", "longitude": "-123.1129966", "latitude": "45.52115845", "phone": "5038671634", "website_url": null, "state": "Oregon", "street": "1921 21st Ave"}, {"id": "a35ee2c4-d008-466c-b071-5d7f97041c13", "name": "Riepstines Pub", "brewery_type": "brewpub", "address_1": "913 Arch St", "address_2": null, "address_3": null, "city": "Williamsport", "state_province": "Pennsylvania", "postal_code": "17701-5630", "country": "United States", "longitude": "-77.05299603", "latitude": "41.23997285", "phone": "5703292739", "website_url": "http://www.riepstinespub.com", "state": "Pennsylvania", "street": "913 Arch St"}, {"id": "bf79bd79-aca0-4f04-8e49-316917becaaf", "name": "Riff Raff Brewing", "brewery_type": "brewpub", "address_1": "274 Pagosa St", "address_2": null, "address_3": null, "city": "Pagosa Springs", "state_province": "Colorado", "postal_code": "81147", "country": "United States", "longitude": "-107.0081546", "latitude": "37.26874006", "phone": "9702644677", "website_url": "http://www.riffraffbrewing.com", "state": "Colorado", "street": "274 Pagosa St"}, {"id": "ea79f476-a0cb-4f50-a88d-3412ba6776ce", "name": "Riggs Beer Company", "brewery_type": "micro", "address_1": "1901 S High Cross Rd", "address_2": null, "address_3": null, "city": "Urbana", "state_province": "Illinois", "postal_code": "61802-7843", "country": "United States", "longitude": "-88.16245188", "latitude": "40.09367288", "phone": "2177185345", "website_url": "http://www.riggsbeer.com", "state": "Illinois", "street": "1901 S High Cross Rd"}, {"id": "b08522ec-5b52-4510-90a7-e82dc1d8f5a7", "name": "Right Around The Corner", "brewery_type": "micro", "address_1": "2244 Central Ave", "address_2": null, "address_3": null, "city": "Saint Petersburg", "state_province": "Florida", "postal_code": "33712", "country": "United States", "longitude": "-82.66369394", "latitude": "27.77095137", "phone": "7273319395", "website_url": null, "state": "Florida", "street": "2244 Central Ave"}, {"id": "a1867f65-c945-46c3-90df-68b176d61d2a", "name": "Right Brain Brewery", "brewery_type": "micro", "address_1": "225 E Sixteenth St Ste A", "address_2": null, "address_3": null, "city": "Traverse City", "state_province": "Michigan", "postal_code": "49684-4190", "country": "United States", "longitude": null, "latitude": null, "phone": "2319441239", "website_url": "http://www.rightbrainbrewery.com", "state": "Michigan", "street": "225 E Sixteenth St Ste A"}, {"id": "3cd77720-c957-416f-aa4a-ee76c4c435ce", "name": "Right Eye Brewing Co", "brewery_type": "micro", "address_1": "301 Spring St", "address_2": null, "address_3": null, "city": "Suisun City", "state_province": "California", "postal_code": "94585", "country": "United States", "longitude": "-122.041544", "latitude": "38.242484", "phone": "7074161347", "website_url": "http://www.righteyebrewing.com", "state": "California", "street": "301 Spring St"}, {"id": "7cc98456-1649-45d4-8860-a6e1a83019b1", "name": "Right Mind Brewing", "brewery_type": "brewpub", "address_1": "1410 S Main St", "address_2": null, "address_3": null, "city": "Blacksburg", "state_province": "Virginia", "postal_code": "24060-5528", "country": "United States", "longitude": "-80.4010083", "latitude": "37.2152422", "phone": "5405527000", "website_url": "http://www.rightmindbrewing.com", "state": "Virginia", "street": "1410 S Main St"}, {"id": "477df372-74d7-4555-a942-1258a05a4c73", "name": "Right Proper Brewing Company", "brewery_type": "micro", "address_1": "920 Girard St NE", "address_2": null, "address_3": null, "city": "Washington", "state_province": "District of Columbia", "postal_code": "20017-3424", "country": "United States", "longitude": "-76.99307078", "latitude": "38.9267988", "phone": "2026072337", "website_url": "http://www.rightproperbrewing.com", "state": "District of Columbia", "street": "920 Girard St NE"}, {"id": "72ed4fa8-abbe-4e03-bed3-ed13798b2528", "name": "Right Proper Brewing Company", "brewery_type": "brewpub", "address_1": "624 T St NW", "address_2": null, "address_3": null, "city": "Washington", "state_province": "District of Columbia", "postal_code": "20001-5119", "country": "United States", "longitude": "-77.0213751", "latitude": "38.9154119", "phone": "2026072337", "website_url": "http://www.rightproperbrewery.com", "state": "District of Columbia", "street": "624 T St NW"}, {"id": "bb99377f-b0f7-4f40-b10d-9be58c9426b5", "name": "Right Turn, Clyde Brewing Company", "brewery_type": "micro", "address_1": "300 Main St", "address_2": null, "address_3": null, "city": "Narrows", "state_province": "Virginia", "postal_code": "24124-1317", "country": "United States", "longitude": "-80.807605", "latitude": "37.330026", "phone": "5409217283", "website_url": "http://www.rtcbrewing.com", "state": "Virginia", "street": "300 Main St"}, {"id": "b33bd5fc-16a9-49c7-8096-a01d2ac8f0c5", "name": "Riip Beer Company", "brewery_type": "micro", "address_1": "17216 Pacific Coast Hwy", "address_2": null, "address_3": null, "city": "Huntington Beach", "state_province": "California", "postal_code": "92649-4116", "country": "United States", "longitude": "-117.9872302", "latitude": "33.6480028", "phone": "7142486710", "website_url": "http://www.riipbeer.com", "state": "California", "street": "17216 Pacific Coast Hwy"}, {"id": "e9406c68-9114-4dc5-8d0a-d29595a7ae15", "name": "Riley's Brew Pub", "brewery_type": "brewpub", "address_1": "2674 Owens Mountain Pkwy Ste 104", "address_2": null, "address_3": null, "city": "Clovis", "state_province": "California", "postal_code": "93611-9588", "country": "United States", "longitude": "-119.6452626", "latitude": "36.855494", "phone": "5598622925", "website_url": "http://rileysbrew.pub", "state": "California", "street": "2674 Owens Mountain Pkwy Ste 104"}, {"id": "8191369a-6f5c-4a6e-ba33-d6bc65abe913", "name": "Riley's Brewing Co", "brewery_type": "micro", "address_1": "28777 Avenue 15 1/2", "address_2": null, "address_3": null, "city": "Madera", "state_province": "California", "postal_code": "93638-2316", "country": "United States", "longitude": "-120.0206226", "latitude": "36.97445553", "phone": "5596738021", "website_url": "http://www.rileysbrewing.us", "state": "California", "street": "28777 Avenue 15 1/2"}, {"id": "32a93d07-2b80-4078-8493-cb27f3613eb1", "name": "Rincon Brewery", "brewery_type": "brewpub", "address_1": "5065 Carpinteria Ave", "address_2": null, "address_3": null, "city": "Carpinteria", "state_province": "California", "postal_code": "93013-2046", "country": "United States", "longitude": "-119.5178586", "latitude": "34.39834", "phone": "8056846044", "website_url": "http://www.rinconbrewery.com", "state": "California", "street": "5065 Carpinteria Ave"}, {"id": "c97eae38-c4a8-437d-ace0-6a0c5eeb1539", "name": "Rinn Duin Brewing", "brewery_type": "micro", "address_1": "1540 Route 37 W", "address_2": null, "address_3": null, "city": "Toms River", "state_province": "New Jersey", "postal_code": "08755-5055", "country": "United States", "longitude": null, "latitude": null, "phone": "7325693261", "website_url": "http://www.rinnduinbrewing.com", "state": "New Jersey", "street": "1540 Route 37 W"}, {"id": "ef794faa-d294-40fd-82c2-ed36b366a0c3", "name": "Rio Bravo Brewing Company", "brewery_type": "brewpub", "address_1": "1912 2nd Street NW", "address_2": null, "address_3": null, "city": "Albuquerque", "state_province": "New Mexico", "postal_code": "87102", "country": "United States", "longitude": "-106.6454774", "latitude": "35.10343814", "phone": "5059003909", "website_url": "http://www.riobravobrewing.com", "state": "New Mexico", "street": "1912 2nd Street NW"}, {"id": "e5eeb341-f557-498b-bee8-23ef2acceca9", "name": "Rip Current Brewery", "brewery_type": "micro", "address_1": "1325 Grand Ave Ste 100", "address_2": null, "address_3": null, "city": "San Marcos", "state_province": "California", "postal_code": "92078-2451", "country": "United States", "longitude": "-117.1924461", "latitude": "33.14309526", "phone": "7604813141", "website_url": "http://www.ripcurrentbrewing.com", "state": "California", "street": "1325 Grand Ave Ste 100"}, {"id": "89976434-a6fd-4f51-bc94-54a7cc72a49d", "name": "Rip Current Brewing North Park", "brewery_type": "brewpub", "address_1": "4101 30th St", "address_2": null, "address_3": null, "city": "San Diego", "state_province": "California", "postal_code": "92104-1905", "country": "United States", "longitude": "-117.129808", "latitude": "32.752388", "phone": "7604813141", "website_url": "http://www.ripcurrentbrewing.com", "state": "California", "street": "4101 30th St"}, {"id": "b5cba653-66c1-48df-b466-18747f2aa478", "name": "Rip Rap Brewing Company", "brewery_type": "micro", "address_1": "116 E 25th St", "address_2": null, "address_3": null, "city": "Norfolk", "state_province": "Virginia", "postal_code": "23517-1408", "country": "United States", "longitude": "-76.28310937", "latitude": "36.8703271", "phone": null, "website_url": "http://www.riprapbrewing.com", "state": "Virginia", "street": "116 E 25th St"}, {"id": "7bbdd581-c041-4afd-8819-8ae19b1afc97", "name": "Rip Van Winkle Brewing Co.", "brewery_type": "brewpub", "address_1": "4545 Route 32", "address_2": null, "address_3": null, "city": "Catskill", "state_province": "New York", "postal_code": "12414-6623", "country": "United States", "longitude": null, "latitude": null, "phone": "5186789275", "website_url": "http://www.ripvanwinklebrewingco.com", "state": "New York", "street": "4545 Route 32"}, {"id": "65781162-e6bc-4aa7-a98e-fbf609fc2a79", "name": "Rippon Brewing Company", "brewery_type": "micro", "address_1": "2153 Berryville Pike", "address_2": null, "address_3": null, "city": "Rippon", "state_province": "West Virginia", "postal_code": "25441", "country": "United States", "longitude": "-77.905289", "latitude": "39.21862", "phone": "3048392263", "website_url": "http://www.ripponbrewing.com", "state": "West Virginia", "street": "2153 Berryville Pike"}, {"id": "0d3ae8be-740a-47f8-b76c-1e1f871e79de", "name": "Riptide Brewing Company", "brewery_type": "micro", "address_1": "987 3rd Ave N", "address_2": null, "address_3": null, "city": "Naples", "state_province": "Florida", "postal_code": "34102-5810", "country": "United States", "longitude": "-81.7949268", "latitude": "26.15088596", "phone": "2392286533", "website_url": "http://www.riptidebrewingcompany.com", "state": "Florida", "street": "987 3rd Ave N"}, {"id": "a4eff54c-48b6-4f39-950c-75b7ecd13019", "name": "Rising Silo Brewery", "brewery_type": "brewpub", "address_1": "2351 Glade Rd", "address_2": null, "address_3": null, "city": "Blacksburg", "state_province": "Virginia", "postal_code": "24060-1928", "country": "United States", "longitude": "-80.4630874", "latitude": "37.2361304", "phone": "5407500796", "website_url": "http://www.risingsilobrewery.com", "state": "Virginia", "street": "2351 Glade Rd"}, {"id": "5907fe0d-00b1-4e2d-a5b9-e082af0e42a1", "name": "Rising Sons Brewery", "brewery_type": "micro", "address_1": "Cornmarket St", "address_2": null, "address_3": null, "city": "Cork", "state_province": "Cork", "postal_code": "T12 WK27", "country": "Ireland", "longitude": "-8.4787177", "latitude": "51.8995943", "phone": "353212414764", "website_url": "http://www.risingsonsbrewery.com/", "state": "Cork", "street": "Cornmarket St"}, {"id": "52639e4f-8a95-4c65-b241-a3cc1b3afb3c", "name": "Rising Tide Brewing Co", "brewery_type": "micro", "address_1": "103 Fox St", "address_2": null, "address_3": null, "city": "Portland", "state_province": "Maine", "postal_code": "04101-2539", "country": "United States", "longitude": "-70.2570974", "latitude": "43.6655545", "phone": "2073702337", "website_url": "http://www.risingtidebrewing.com", "state": "Maine", "street": "103 Fox St"}, {"id": "98952c82-f47d-437b-9a54-871736d5b9dc", "name": "Ritt Brewing Company", "brewery_type": "planning", "address_1": null, "address_2": null, "address_3": null, "city": "Chicago", "state_province": "Illinois", "postal_code": "60634-2319", "country": "United States", "longitude": null, "latitude": null, "phone": "8475618203", "website_url": null, "state": "Illinois", "street": null}, {"id": "d5b0b7ee-23a6-4a1c-aca6-1df93bb9f65e", "name": "Ritter Brewing Company LLC", "brewery_type": "micro", "address_1": "449 Gino Merli Dr", "address_2": null, "address_3": null, "city": "Peckville", "state_province": "Pennsylvania", "postal_code": "18452-1631", "country": "United States", "longitude": null, "latitude": null, "phone": null, "website_url": "http://www.Ritterbrewing.com", "state": "Pennsylvania", "street": "449 Gino Merli Dr"}, {"id": "b31957a1-12ef-4544-b7b8-790dc7e9136d", "name": "Ritual Brewing Co", "brewery_type": "micro", "address_1": "1315 Research Dr", "address_2": null, "address_3": null, "city": "Redlands", "state_province": "California", "postal_code": "92374-4583", "country": "United States", "longitude": "-117.2369995", "latitude": "34.0705986", "phone": "9094787800", "website_url": "http://www.ritualbrewing.com", "state": "California", "street": "1315 Research Dr"}, {"id": "50f46329-bc95-4781-b109-dd71958479b0", "name": "Rivals Brewing Company", "brewery_type": "planning", "address_1": null, "address_2": null, "address_3": null, "city": "middleburg hts", "state_province": "Ohio", "postal_code": "44130", "country": "United States", "longitude": null, "latitude": null, "phone": "3306316700", "website_url": "https://www.facebook.com/RivalsBrewingCo/", "state": "Ohio", "street": null}, {"id": "7104bc4a-20af-46c5-9f5f-eca71eddbf9e", "name": "Rivals Sports Grille", "brewery_type": "contract", "address_1": "6710 Smith Rd", "address_2": null, "address_3": null, "city": "Middleburg Heights", "state_province": "Ohio", "postal_code": "44130-2656", "country": "United States", "longitude": "-81.80433472", "latitude": "41.38531549", "phone": "2162670005", "website_url": "http://www.rivalscleveland.com", "state": "Ohio", "street": "6710 Smith Rd"}, {"id": "7a724ea4-eab4-434c-ac98-25b39a1c8b05", "name": "River Barge Brewing", "brewery_type": "brewpub", "address_1": "71 Grovedale Ln", "address_2": null, "address_3": null, "city": "Wyalusing", "state_province": "Pennsylvania", "postal_code": "18853-7854", "country": "United States", "longitude": null, "latitude": null, "phone": "5707461400", "website_url": "http://www.riverbargebrewing.com", "state": "Pennsylvania", "street": "71 Grovedale Ln"}, {"id": "aede08a5-8286-46f7-b426-90a21ba259cb", "name": "River Bend Brewing", "brewery_type": "closed", "address_1": "113 River Bend Rd", "address_2": null, "address_3": null, "city": "Hailey", "state_province": "Idaho", "postal_code": "83333-", "country": "United States", "longitude": null, "latitude": null, "phone": "2087888087", "website_url": null, "state": "Idaho", "street": "113 River Bend Rd"}, {"id": "49d641f4-8390-4ba4-bfe1-ee5f7a16d220", "name": "River Bend Hop Farm And Brewery", "brewery_type": "micro", "address_1": "1800 Lower Bailey Rd", "address_2": null, "address_3": null, "city": "Newport", "state_province": "Pennsylvania", "postal_code": "17074-7622", "country": "United States", "longitude": null, "latitude": null, "phone": "7173156764", "website_url": "http://www.riverbendhopfarmandbrewery.com", "state": "Pennsylvania", "street": "1800 Lower Bailey Rd"}, {"id": "f292442b-c5ce-457d-bb84-371e4189d687", "name": "River Bluff Brewing", "brewery_type": "micro", "address_1": "1224 Frederick Ave", "address_2": null, "address_3": null, "city": "St Joseph", "state_province": "Missouri", "postal_code": "64501-2334", "country": "United States", "longitude": "-94.844399", "latitude": "39.770343", "phone": "8162595339", "website_url": "http://www.riverbluffbrew.com", "state": "Missouri", "street": "1224 Frederick Ave"}, {"id": "8b916006-84bf-455e-8aa8-7590e4c72bc8", "name": "River Bottoms Brewing Company", "brewery_type": "brewpub", "address_1": "12 W Benton St", "address_2": null, "address_3": null, "city": "Carrollton", "state_province": "Missouri", "postal_code": "64633", "country": "United States", "longitude": "-93.497006", "latitude": "39.405185", "phone": "6603226110", "website_url": "http://www.riverbottomsbrewing.com", "state": "Missouri", "street": "12 W Benton St"}, {"id": "431908ce-6f85-4d24-bf4a-da70495754a5", "name": "River City Brewing", "brewery_type": "micro", "address_1": "121 S Cedar St", "address_2": null, "address_3": null, "city": "Spokane", "state_province": "Washington", "postal_code": "99201-6500", "country": "United States", "longitude": "-117.4323508", "latitude": "47.65605308", "phone": "9043982299", "website_url": "http://www.rivercitybrew.com", "state": "Washington", "street": "121 S Cedar St"}, {"id": "db09f911-a566-463c-b6de-a42d540f4dd1", "name": "River City Brewing Co", "brewery_type": "brewpub", "address_1": "6241 Fair Oaks Blvd Ste G", "address_2": null, "address_3": null, "city": "Sacramento", "state_province": "California", "postal_code": "95814-3338", "country": "United States", "longitude": "-121.3297812", "latitude": "38.61512607", "phone": "9165505093", "website_url": "http://www.rivercitybrewing.net", "state": "California", "street": "6241 Fair Oaks Blvd Ste G"}, {"id": "fcc98f37-d0d3-459f-8e38-85bf9d9367f0", "name": "River City Brewing Co", "brewery_type": "brewpub", "address_1": "835 Museum Cir", "address_2": null, "address_3": null, "city": "Jacksonville", "state_province": "Florida", "postal_code": "32207-9003", "country": "United States", "longitude": "-81.66111727", "latitude": "30.31862639", "phone": "9043982299", "website_url": "http://www.rivercitybrewing.com", "state": "Florida", "street": "835 Museum Cir"}, {"id": "a3c97ac8-ab6b-4812-b918-b5485ab461cb", "name": "River City Brewing Co", "brewery_type": "brewpub", "address_1": "150 N Mosley St", "address_2": null, "address_3": null, "city": "Wichita", "state_province": "Kansas", "postal_code": "67202-2804", "country": "United States", "longitude": null, "latitude": null, "phone": "3162632739", "website_url": "http://rivercitybrewingco.com", "state": "Kansas", "street": "150 N Mosley St"}, {"id": "a14fa9cd-bfe0-4c80-a928-0e8d97547e02", "name": "River Company Restaurant & Brewery Inc, The", "brewery_type": "brewpub", "address_1": "6633 Viscoe Rd", "address_2": null, "address_3": null, "city": "Fairlawn", "state_province": "Virginia", "postal_code": "24141-6903", "country": "United States", "longitude": "-80.54498015", "latitude": "37.1460358", "phone": "5406333940", "website_url": "http://www.therivercompanybrewery.com", "state": "Virginia", "street": "6633 Viscoe Rd"}, {"id": "d6dbff7d-aba1-4ff4-8c87-4aa479bbb8fb", "name": "River Dog Brewing Co", "brewery_type": "micro", "address_1": "591 Browns Cove Rd Unit H", "address_2": null, "address_3": null, "city": "Ridgeland", "state_province": "South Carolina", "postal_code": "29936-7281", "country": "United States", "longitude": null, "latitude": null, "phone": "8436452302", "website_url": "http://www.riverdogbrewing.com", "state": "South Carolina", "street": "591 Browns Cove Rd Unit H"}, {"id": "3120822f-e867-44e5-b293-241fb32dcca7", "name": "River Hawk Brewing", "brewery_type": "micro", "address_1": "24735 W Eames St", "address_2": null, "address_3": null, "city": "Channahon", "state_province": "Illinois", "postal_code": "60410-8705", "country": "United States", "longitude": "-88.21732025", "latitude": "41.43542539", "phone": "8152552202", "website_url": "http://www.riverhawkbrewing.com", "state": "Illinois", "street": "24735 W Eames St"}, {"id": "fc966601-8786-44df-a2f0-3dc4c1ff566f", "name": "River Horse Brewing Company", "brewery_type": "micro", "address_1": "2 Graphics Dr", "address_2": null, "address_3": null, "city": "Ewing", "state_province": "New Jersey", "postal_code": "08628-1546", "country": "United States", "longitude": "-74.79656178", "latitude": "40.2765378", "phone": "6098830890", "website_url": "http://www.riverhorse.com", "state": "New Jersey", "street": "2 Graphics Dr"}, {"id": "e8c5b1f3-a823-485f-8f68-050c88adbe12", "name": "River Mile 38 Brewing Co", "brewery_type": "micro", "address_1": "285 3rd St", "address_2": null, "address_3": null, "city": "Cathlamet", "state_province": "Washington", "postal_code": "98612-9561", "country": "United States", "longitude": "-123.3853742", "latitude": "46.2054338", "phone": "3603554662", "website_url": "http://www.rivermile38.com", "state": "Washington", "street": "285 3rd St"}, {"id": "cbdb28e4-633a-4b27-95f9-f8383c53298c", "name": "River North Brewery", "brewery_type": "micro", "address_1": "6021 Washington St Unit A", "address_2": null, "address_3": null, "city": "Denver", "state_province": "Colorado", "postal_code": "80216-1153", "country": "United States", "longitude": null, "latitude": null, "phone": "7858656057", "website_url": "http://www.rivernorthbrewery.com", "state": "Colorado", "street": "6021 Washington St Unit A"}, {"id": "48f9049b-e240-4e4f-80ae-d6e2ec181912", "name": "River North Brewery - RiNo", "brewery_type": "planning", "address_1": null, "address_2": null, "address_3": null, "city": "Denver", "state_province": "Colorado", "postal_code": "80205-2440", "country": "United States", "longitude": null, "latitude": null, "phone": "7858656057", "website_url": "http://www.rivernorthbrewery.com", "state": "Colorado", "street": null}, {"id": "faf0e458-0f8c-4ad0-990a-e803c574a1e2", "name": "River of No Return Brewing Co", "brewery_type": "closed", "address_1": "810 S Hwy 93", "address_2": null, "address_3": null, "city": "Challis", "state_province": "Idaho", "postal_code": "83226", "country": "United States", "longitude": "-114.224139", "latitude": "44.50008", "phone": "2088797667", "website_url": null, "state": "Idaho", "street": "810 S Hwy 93"}, {"id": "b2800c76-3e90-4b98-8f0c-dc5d58a240dc", "name": "River Rat Brewery", "brewery_type": "brewpub", "address_1": "1231 Shop Rd", "address_2": null, "address_3": null, "city": "Columbia", "state_province": "South Carolina", "postal_code": "29201-4744", "country": "United States", "longitude": "-81.01125386", "latitude": "33.97325589", "phone": "8037245712", "website_url": "http://www.riverratbrewery.com", "state": "South Carolina", "street": "1231 Shop Rd"}, {"id": "49867107-1f94-468e-9a6f-4e5505b6ce9e", "name": "River Ridge Brewing", "brewery_type": "micro", "address_1": "303 S Riverview St", "address_2": null, "address_3": null, "city": "Bellevue", "state_province": "Iowa", "postal_code": "52031-1353", "country": "United States", "longitude": "-90.4223409", "latitude": "42.2567622", "phone": "5632310299", "website_url": "http://www.riverridgebrewing.com", "state": "Iowa", "street": "303 S Riverview St"}, {"id": "ccc58e3b-3eb4-4932-a843-afe6593ab96d", "name": "River Rock Brewery", "brewery_type": "micro", "address_1": "807 C St", "address_2": null, "address_3": null, "city": "Galt", "state_province": "California", "postal_code": "95632-1706", "country": "United States", "longitude": "-121.3004126", "latitude": "38.2532789", "phone": "2093316071", "website_url": "http://riverrockbrewery.com", "state": "California", "street": "807 C St"}, {"id": "3bcfdd00-3126-4d97-8a75-7236d477b6cf", "name": "River Roost Brewery", "brewery_type": "micro", "address_1": "230 S Main St", "address_2": null, "address_3": null, "city": "White River Junction", "state_province": "Vermont", "postal_code": "05001-7204", "country": "United States", "longitude": "-72.31821547", "latitude": "43.64560685", "phone": null, "website_url": "http://www.riverroostbrewery.com", "state": "Vermont", "street": "230 S Main St"}, {"id": "dd8e7ee8-f9d4-4f2b-8b74-dc76d840264e", "name": "River Rouge Brewing Company", "brewery_type": "micro", "address_1": "406 E 4th St", "address_2": null, "address_3": null, "city": "Royal Oak", "state_province": "Michigan", "postal_code": "48067-2757", "country": "United States", "longitude": "-83.14059587", "latitude": "42.48726531", "phone": "2488020555", "website_url": "http://www.riverrougebrew.com", "state": "Michigan", "street": "406 E 4th St"}, {"id": "f3aeb883-5ed4-41c2-a4da-0ca55516affd", "name": "River Styx Brewing", "brewery_type": "micro", "address_1": "166 Boulder Dr Ste 112", "address_2": null, "address_3": null, "city": "Fitchburg", "state_province": "Massachusetts", "postal_code": "01420-3168", "country": "United States", "longitude": "-71.7946112", "latitude": "42.5817291", "phone": "9786965176", "website_url": "http://www.riverstyxbrewing.com", "state": "Massachusetts", "street": "166 Boulder Dr Ste 112"}, {"id": "9d9082d8-b3f1-47c4-b068-b3b8a272b2b5", "name": "River Time Brewing", "brewery_type": "brewpub", "address_1": "650 Emens Ave S", "address_2": null, "address_3": null, "city": "Darrington", "state_province": "Washington", "postal_code": "98241", "country": "United States", "longitude": "-121.6020402", "latitude": "48.24905291", "phone": "2674837411", "website_url": "http://www.rivertimebrewing.com", "state": "Washington", "street": "650 Emens Ave S"}, {"id": "cad4e26e-fb01-4cda-be91-070fc3503e23", "name": "River's Edge Brewing Co", "brewery_type": "brewpub", "address_1": "125 S Main St Ste 400", "address_2": null, "address_3": null, "city": "Milford", "state_province": "Michigan", "postal_code": "48381-1976", "country": "United States", "longitude": null, "latitude": null, "phone": "2486851625", "website_url": "http://www.riversedgebrew.com", "state": "Michigan", "street": "125 S Main St Ste 400"}, {"id": "d2f56aea-e533-4819-872d-f5ae1f7289f6", "name": "RiverBend Brewing Pub", "brewery_type": "closed", "address_1": "2650 NE Division St", "address_2": null, "address_3": null, "city": "Bend", "state_province": "Oregon", "postal_code": "97703-3569", "country": "United States", "longitude": "-121.3051834", "latitude": "44.0760099", "phone": "5415507550", "website_url": "http://www.riverbendbrewing.com", "state": "Oregon", "street": "2650 NE Division St"}, {"id": "302a399c-c230-4e4d-a906-c438f006d953", "name": "Rivermen Brewing Co", "brewery_type": "brewpub", "address_1": "1500 River Dr", "address_2": null, "address_3": null, "city": "Belmont", "state_province": "North Carolina", "postal_code": "28012-3586", "country": "United States", "longitude": "-81.015546", "latitude": "35.240249", "phone": "7043634698", "website_url": "http://www.rivermenbrewingcompany.com", "state": "North Carolina", "street": "1500 River Dr"}, {"id": "bce76e42-8b32-4f50-a8fd-81e718747856", "name": "Riverport Brewing Co", "brewery_type": "micro", "address_1": "150 9th St Ste B", "address_2": null, "address_3": null, "city": "Clarkston", "state_province": "Washington", "postal_code": "99403-1856", "country": "United States", "longitude": null, "latitude": null, "phone": "5097588889", "website_url": "http://www.riverportbrewing.com", "state": "Washington", "street": "150 9th St Ste B"}, {"id": "81de27d4-0ccb-4810-b0b8-074f30983f3c", "name": "Riverside Brewery &  Restaurant", "brewery_type": "brewpub", "address_1": "255 S Main St", "address_2": null, "address_3": null, "city": "West Bend", "state_province": "Wisconsin", "postal_code": "53095-3323", "country": "United States", "longitude": "-88.18128088", "latitude": "43.42164792", "phone": "2623342739", "website_url": null, "state": "Wisconsin", "street": "255 S Main St"}, {"id": "4413789e-c56c-4c2b-935e-de2e5e334cb2", "name": "Riverside Brewing Ltd", "brewery_type": "micro", "address_1": "Shoreham Road", "address_2": null, "address_3": null, "city": "Steyning", "state_province": "West Sussex", "postal_code": "BN44 3TN", "country": "England", "longitude": "-0.300906", "latitude": "50.877797", "phone": "1903898030", "website_url": "http://www.riversidebreweryltd.co.uk/", "state": "West Sussex", "street": "Shoreham Road"}, {"id": "973a0067-bd17-472b-a30b-a8228921f6e0", "name": "Rivertown Brewing Co - Monroe Barrel House", "brewery_type": "micro", "address_1": "6550 Hamilton Lebanon Rd", "address_2": null, "address_3": null, "city": "Monroe", "state_province": "Ohio", "postal_code": "45044-9285", "country": "United States", "longitude": "-84.41215417", "latitude": "39.44575612", "phone": "5133607839", "website_url": "http://www.rivertownbrewery.com", "state": "Ohio", "street": "6550 Hamilton Lebanon Rd"}, {"id": "f9a0e0bf-2306-4319-991c-cb5327807ddb", "name": "Rivertowne Brewery - Production Facility", "brewery_type": "micro", "address_1": "5578 Old William Penn Hwy", "address_2": null, "address_3": null, "city": "Export", "state_province": "Pennsylvania", "postal_code": "15632-9303", "country": "United States", "longitude": "-79.6373888", "latitude": "40.42147373", "phone": "7245192145", "website_url": "http://www.myrivertowne.com", "state": "Pennsylvania", "street": "5578 Old William Penn Hwy"}, {"id": "13f854d3-ef7a-4933-b22b-02a13df51bb6", "name": "Rivertowne Pour House", "brewery_type": "micro", "address_1": "312 Center Rd", "address_2": null, "address_3": null, "city": "Monroeville", "state_province": "Pennsylvania", "postal_code": "15146-1322", "country": "United States", "longitude": "-79.76389793", "latitude": "40.44745731", "phone": "4123728199", "website_url": "http://www.myrivertowne.com", "state": "Pennsylvania", "street": "312 Center Rd"}, {"id": "b3ff8d79-69ef-41d5-b907-1f154bd5fe7a", "name": "Riverwalk Brewing Co.", "brewery_type": "micro", "address_1": "40 Parker St", "address_2": null, "address_3": null, "city": "Newburyport", "state_province": "Massachusetts", "postal_code": "01950-4056", "country": "United States", "longitude": "-70.86726727", "latitude": "42.79921535", "phone": "9784992337", "website_url": "http://www.riverwalkbrewing.com", "state": "Massachusetts", "street": "40 Parker St"}, {"id": "ebc2635f-d48f-4a50-ba77-7e4057453142", "name": "Riverwatch Brewery", "brewery_type": "micro", "address_1": "1150 5th St Bldg 61", "address_2": null, "address_3": null, "city": "Augusta", "state_province": "Georgia", "postal_code": "30901-5861", "country": "United States", "longitude": null, "latitude": null, "phone": "7064217177", "website_url": "http://www.riverwatchbrewery.com", "state": "Georgia", "street": "1150 5th St Bldg 61"}, {"id": "3464a881-e543-4563-937a-944e6e6c85e6", "name": "RJ Rockers Brewing Co", "brewery_type": "micro", "address_1": "226 W Main St Ste A", "address_2": null, "address_3": null, "city": "Spartanburg", "state_province": "South Carolina", "postal_code": "29306-2308", "country": "United States", "longitude": null, "latitude": null, "phone": "8645871435", "website_url": "http://www.rjrockers.com", "state": "South Carolina", "street": "226 W Main St Ste A"}, {"id": "cb835f7c-7f61-4e0e-a4ab-913fd06d78ea", "name": "Roadhouse Brewing Company", "brewery_type": "micro", "address_1": "1225 Gregory Ln", "address_2": null, "address_3": null, "city": "Jackson", "state_province": "Wyoming", "postal_code": "83001-9433", "country": "United States", "longitude": "-110.7963199", "latitude": "43.46346041", "phone": "3072641900", "website_url": "http://www.roadhousebrewery.com", "state": "Wyoming", "street": "1225 Gregory Ln"}, {"id": "ab5908c7-1c68-40e7-9540-815a79af730b", "name": "Roadhouse Pub and Eatery", "brewery_type": "planning", "address_1": null, "address_2": null, "address_3": null, "city": "Jackson Hole", "state_province": "Wyoming", "postal_code": "83001-8630", "country": "United States", "longitude": null, "latitude": null, "phone": "3077390700", "website_url": "http://www.roadhousebrewery.com", "state": "Wyoming", "street": null}, {"id": "579678d2-7826-419b-9fe0-b3d8cfdcf574", "name": "Roadmap Brewing Co", "brewery_type": "micro", "address_1": "723 N Alamo St", "address_2": null, "address_3": null, "city": "San Antonio", "state_province": "Texas", "postal_code": "78215-1812", "country": "United States", "longitude": "-98.4842435", "latitude": "29.4318109", "phone": null, "website_url": "http://www.roadmapbrewing.com", "state": "Texas", "street": "723 N Alamo St"}, {"id": "be7ced94-d8cd-47c2-8789-31a4010490bf", "name": "Roadrunner Abbey Brewing", "brewery_type": "planning", "address_1": null, "address_2": null, "address_3": null, "city": "Chandler", "state_province": "Arizona", "postal_code": "85249-4724", "country": "United States", "longitude": "-111.8408489", "latitude": "33.3067132", "phone": "4805708283", "website_url": null, "state": "Arizona", "street": null}, {"id": "5771cc53-3ba2-49c0-9517-b8f7b218eefc", "name": "Roak Brewing Co.", "brewery_type": "micro", "address_1": "330 E Lincoln Ave", "address_2": null, "address_3": null, "city": "Royal Oak", "state_province": "Michigan", "postal_code": "48067-2700", "country": "United States", "longitude": "-83.14209914", "latitude": "42.48342093", "phone": "2482688780", "website_url": "http://www.roakbrewing.com", "state": "Michigan", "street": "330 E Lincoln Ave"}, {"id": "5dbdf6bc-f0c5-43b4-8ce6-29a3eddf2142", "name": "Roaring Fork Beer Company", "brewery_type": "proprietor", "address_1": "1941 Dolores Way", "address_2": null, "address_3": null, "city": "Carbondale", "state_province": "Colorado", "postal_code": "81623-2235", "country": "United States", "longitude": null, "latitude": null, "phone": "9705105934", "website_url": "http://www.roaringforkbeerco.com", "state": "Colorado", "street": "1941 Dolores Way"}, {"id": "9482402b-aafe-409b-a54c-13d101e1ee97", "name": "Roaring Table Brewing", "brewery_type": "micro", "address_1": "739 W IL 22", "address_2": null, "address_3": null, "city": "Lake Zurich", "state_province": "Illinois", "postal_code": "60047", "country": "United States", "longitude": null, "latitude": null, "phone": "2246624562", "website_url": "http://www.roaringtable.com", "state": "Illinois", "street": "739 W IL 22"}, {"id": "971a1d10-0d75-4152-8107-ecdb6904534d", "name": "Robin Hood Brewing Co", "brewery_type": "brewpub", "address_1": null, "address_2": null, "address_3": null, "city": "Bellefonte", "state_province": "Pennsylvania", "postal_code": "16823", "country": "United States", "longitude": null, "latitude": null, "phone": "8143578399", "website_url": "http://www.robinhoodbrewingco.com", "state": "Pennsylvania", "street": null}, {"id": "66573e06-6aee-4f97-898b-8e51d75da152", "name": "Roc Brewing Co", "brewery_type": "brewpub", "address_1": "56 S Union St", "address_2": null, "address_3": null, "city": "Rochester", "state_province": "New York", "postal_code": "14607-1839", "country": "United States", "longitude": "-77.59793317", "latitude": "43.15337067", "phone": "5857949798", "website_url": "http://www.rocbrewingco.com", "state": "New York", "street": "56 S Union St"}, {"id": "7fab3d6d-5621-42d7-ba8c-7bac81bd4df9", "name": "Rochester Mills Beer Co", "brewery_type": "brewpub", "address_1": "400 Water St Ste 101", "address_2": null, "address_3": null, "city": "Rochester", "state_province": "Michigan", "postal_code": "48307-2089", "country": "United States", "longitude": null, "latitude": null, "phone": "2486505080", "website_url": "http://www.beercos.com", "state": "Michigan", "street": "400 Water St Ste 101"}, {"id": "54dbff86-41fe-421c-937e-2903bac3c9f7", "name": "Rochester Mills Production Brewery", "brewery_type": "micro", "address_1": "3275 Lapeer W Rd", "address_2": null, "address_3": null, "city": "Auburn Hills", "state_province": "Michigan", "postal_code": "48326-1723", "country": "United States", "longitude": null, "latitude": null, "phone": "2483773130", "website_url": "http://www.beercos.com", "state": "Michigan", "street": "3275 Lapeer W Rd"}, {"id": "147c0123-232a-448a-b689-3ae78d34d66f", "name": "Rock & Run Brewery", "brewery_type": "closed", "address_1": "110 E Kansas St", "address_2": null, "address_3": null, "city": "Liberty", "state_province": "Missouri", "postal_code": "64068-2374", "country": "United States", "longitude": "-94.4190247", "latitude": "39.2461993", "phone": "8164152337", "website_url": "http://www.rockandrunbrewery.com", "state": "Missouri", "street": "110 E Kansas St"}, {"id": "3a26e910-305e-445b-8d44-2d2b4993bf01", "name": "Rock Bottom Brewery - Arrowhead", "brewery_type": "brewpub", "address_1": "7640 W Bell Rd", "address_2": null, "address_3": null, "city": "Glendale", "state_province": "Arizona", "postal_code": "85308-8619", "country": "United States", "longitude": null, "latitude": null, "phone": "6238788822", "website_url": "http://www.rockbottom.com", "state": "Arizona", "street": "7640 W Bell Rd"}, {"id": "871fd4b2-cd72-4883-86d1-d9b99e632b29", "name": "Rock Bottom Brewery - Bethesda", "brewery_type": "brewpub", "address_1": "7900 Norfolk Ave", "address_2": null, "address_3": null, "city": "Bethesda", "state_province": "Maryland", "postal_code": "20814-2502", "country": "United States", "longitude": "-77.0976716", "latitude": "38.9890033", "phone": "3016521311", "website_url": "http://www.rockbottom.com", "state": "Maryland", "street": "7900 Norfolk Ave"}, {"id": "edd508e5-ef5e-4a5a-9724-9e41bbaedc23", "name": "Rock Bottom Brewery - Centerra Promenade", "brewery_type": "brewpub", "address_1": "6025 Sky Pond Dr", "address_2": null, "address_3": null, "city": "Loveland", "state_province": "Colorado", "postal_code": "80538-9013", "country": "United States", "longitude": "-104.990385", "latitude": "40.418114", "phone": "9706222077", "website_url": "http://www.rockbottom.com", "state": "Colorado", "street": "6025 Sky Pond Dr"}, {"id": "a9e63cc7-cc4e-4993-a3ed-2f5cb791666e", "name": "Rock Bottom Brewery - Chicago", "brewery_type": "brewpub", "address_1": "1 W Grand Ave", "address_2": null, "address_3": null, "city": "Chicago", "state_province": "Illinois", "postal_code": "60654-4806", "country": "United States", "longitude": "-87.62839238", "latitude": "41.8913983", "phone": "3127559339", "website_url": "http://www.rockbottom.com", "state": "Illinois", "street": "1 W Grand Ave"}, {"id": "ef644d34-4eef-4ab0-8b2f-92ce400e2eb0", "name": "Rock Bottom Brewery - Cincinnati", "brewery_type": "brewpub", "address_1": "10 Fountain Square Plz", "address_2": null, "address_3": null, "city": "Cincinnati", "state_province": "Ohio", "postal_code": "45202-3102", "country": "United States", "longitude": null, "latitude": null, "phone": "5136211588", "website_url": "http://www.rockbottom.com", "state": "Ohio", "street": "10 Fountain Square Plz"}, {"id": "a68d7446-e2e5-4e6c-a4f9-6dc0fd8e3205", "name": "Rock Bottom Brewery - Colorado Springs", "brewery_type": "brewpub", "address_1": "3316 Cinema Point Dr", "address_2": null, "address_3": null, "city": "Colorado Springs", "state_province": "Colorado", "postal_code": "80922", "country": "United States", "longitude": "-104.718194", "latitude": "38.8811909", "phone": "7195503586", "website_url": "http://www.rockbottom.com", "state": "Colorado", "street": "3316 Cinema Point Dr"}, {"id": "24e86b2b-be63-4abc-ba2b-f1ec7bcb827a", "name": "Rock Bottom Brewery - Denver", "brewery_type": "brewpub", "address_1": "1001 16th St Ste 100", "address_2": null, "address_3": null, "city": "Denver", "state_province": "Colorado", "postal_code": "80265-0100", "country": "United States", "longitude": null, "latitude": null, "phone": "3035347616", "website_url": "http://www.rockbottom.com", "state": "Colorado", "street": "1001 16th St Ste 100"}, {"id": "ce9dbd76-619c-4474-ba27-7ca4e37c2cbe", "name": "Rock Bottom Brewery - Englewood", "brewery_type": "brewpub", "address_1": "9627 E County Line Rd", "address_2": null, "address_3": null, "city": "Englewood", "state_province": "Colorado", "postal_code": "80112-3502", "country": "United States", "longitude": null, "latitude": null, "phone": "3037929090", "website_url": "http://www.rockbottom.com", "state": "Colorado", "street": "9627 E County Line Rd"}, {"id": "ef8e2e3a-4c8d-40f7-a33d-4659d0fa45d9", "name": "Rock Bottom Brewery - Highlands Ranch", "brewery_type": "brewpub", "address_1": "1505 Park Central Dr", "address_2": null, "address_3": null, "city": "Highlands Ranch", "state_province": "Colorado", "postal_code": "80129-6686", "country": "United States", "longitude": null, "latitude": null, "phone": null, "website_url": null, "state": "Colorado", "street": "1505 Park Central Dr"}, {"id": "ac70c288-4edc-400f-8f52-42cc3ba4fff9", "name": "Rock Bottom Brewery - Indianapolis", "brewery_type": "brewpub", "address_1": "10 W Washington St", "address_2": null, "address_3": null, "city": "Indianapolis", "state_province": "Indiana", "postal_code": "46204-3402", "country": "United States", "longitude": "-86.1584705", "latitude": "39.76717025", "phone": "3176818180", "website_url": "http://www.rockbottom.com", "state": "Indiana", "street": "10 W Washington St"}, {"id": "a6426255-23dc-405e-80b4-5e1a9e6dcfba", "name": "Rock Bottom Brewery - La Jolla", "brewery_type": "brewpub", "address_1": "8980 Villa La Jolla Dr", "address_2": null, "address_3": null, "city": "La Jolla", "state_province": "California", "postal_code": "92037-1701", "country": "United States", "longitude": "-117.23519", "latitude": "32.870929", "phone": "8584509277", "website_url": "http://www.rockbottom.com", "state": "California", "street": "8980 Villa La Jolla Dr"}, {"id": "1ec80be3-149d-4e9f-b1c1-d419463f745e", "name": "Rock Bottom Brewery - Long Beach", "brewery_type": "brewpub", "address_1": "1 Pine Ave", "address_2": null, "address_3": null, "city": "Long Beach", "state_province": "California", "postal_code": "90802-4759", "country": "United States", "longitude": "-118.192482", "latitude": "33.767797", "phone": "5623082255", "website_url": "http://www.rockbottom.com", "state": "California", "street": "1 Pine Ave"}, {"id": "862e1ac8-fd6a-4d8f-9f12-4938206da0cc", "name": "Rock Bottom Brewery - Milwaukee", "brewery_type": "brewpub", "address_1": "740 N Plankinton Ave Fl 1", "address_2": null, "address_3": null, "city": "Milwaukee", "state_province": "Wisconsin", "postal_code": "53203-2403", "country": "United States", "longitude": null, "latitude": null, "phone": "4142763030", "website_url": "http://www.rockbottom.com", "state": "Wisconsin", "street": "740 N Plankinton Ave Fl 1"}, {"id": "db07e9cc-5c84-419e-aa9a-149b068b945f", "name": "Rock Bottom Brewery - Minneapolis", "brewery_type": "brewpub", "address_1": "800 Lasalle Ave", "address_2": null, "address_3": null, "city": "Minneapolis", "state_province": "Minnesota", "postal_code": "55402-2006", "country": "United States", "longitude": "-93.274687", "latitude": "44.976427", "phone": "6123322739", "website_url": "http://www.rockbottom.com", "state": "Minnesota", "street": "800 Lasalle Ave"}, {"id": "d80c64ff-d17f-4dc8-9c80-0f1414167132", "name": "Rock Bottom Brewery - Nashville", "brewery_type": "brewpub", "address_1": "111 Broadway", "address_2": null, "address_3": null, "city": "Nashville", "state_province": "Tennessee", "postal_code": "37201-2117", "country": "United States", "longitude": null, "latitude": null, "phone": "6152514677", "website_url": "http://www.bigrivergrille.com", "state": "Tennessee", "street": "111 Broadway"}, {"id": "a4f2d628-e1bf-45d0-b887-c2547fef25ec", "name": "Rock Bottom Brewery - Orchard Cntr", "brewery_type": "brewpub", "address_1": "14694 Orchard Pkwy Unit 400", "address_2": null, "address_3": null, "city": "Westminster", "state_province": "Colorado", "postal_code": "80023-9198", "country": "United States", "longitude": null, "latitude": null, "phone": "3032551625", "website_url": "http://www.rockbottom.com", "state": "Colorado", "street": "14694 Orchard Pkwy Unit 400"}, {"id": "e5417f6a-b6a4-48ee-9bca-99a58cea0bb7", "name": "Rock Bottom Brewery - Orland Park", "brewery_type": "brewpub", "address_1": "16156 S La Grange Rd", "address_2": null, "address_3": null, "city": "Orland Park", "state_province": "Illinois", "postal_code": "60467-5614", "country": "United States", "longitude": "-87.85275979", "latitude": "41.59402293", "phone": "7082260021", "website_url": "http://www.rockbottom.com", "state": "Illinois", "street": "16156 S La Grange Rd"}, {"id": "d87d4744-0108-4647-8c84-b33cabf736d3", "name": "Rock Bottom Brewery - Pittsburgh", "brewery_type": "brewpub", "address_1": "171 E Bridge St", "address_2": null, "address_3": null, "city": "Homestead", "state_province": "Pennsylvania", "postal_code": "15120", "country": "United States", "longitude": "-79.9149542", "latitude": "40.4093329", "phone": "4124622739", "website_url": "http://www.rockbottom.com", "state": "Pennsylvania", "street": "171 E Bridge St"}, {"id": "4e405356-a2d1-4bb2-aeb5-6fd64e1a04a5", "name": "Rock Bottom Brewery - Portland", "brewery_type": "brewpub", "address_1": "206 SW Morrison St", "address_2": null, "address_3": null, "city": "Portland", "state_province": "Oregon", "postal_code": "97204-3107", "country": "United States", "longitude": "-122.6749783", "latitude": "45.5178662", "phone": "5037962739", "website_url": "http://www.rockbottom.com", "state": "Oregon", "street": "206 SW Morrison St"}, {"id": "d99212a5-95f0-45eb-8e95-ddf1828ac86e", "name": "Rock Bottom Brewery - San Jose", "brewery_type": "brewpub", "address_1": "1875 S Bascom Ave Ste 700", "address_2": null, "address_3": null, "city": "Campbell", "state_province": "California", "postal_code": "95008-2310", "country": "United States", "longitude": "-121.9342507", "latitude": "37.28907802", "phone": "4083770707", "website_url": "http://www.rockbottom.com", "state": "California", "street": "1875 S Bascom Ave Ste 700"}, {"id": "c217bb0b-a315-4ac5-a2ed-bba6ca87e5fe", "name": "Rock Bottom Brewery - Warrenville", "brewery_type": "brewpub", "address_1": "28256 Diehl Rd", "address_2": null, "address_3": null, "city": "Warrenville", "state_province": "Illinois", "postal_code": "60555-3835", "country": "United States", "longitude": null, "latitude": null, "phone": "6308361380", "website_url": "http://www.rockbottom.com", "state": "Illinois", "street": "28256 Diehl Rd"}, {"id": "e98fe064-5731-4f25-a970-b9621e3b5de5", "name": "Rock Bottom Brewery - Westminster", "brewery_type": "brewpub", "address_1": "10633 Westminster Blvd Unit 900", "address_2": null, "address_3": null, "city": "Westminster", "state_province": "Colorado", "postal_code": "80020-4176", "country": "United States", "longitude": null, "latitude": null, "phone": "7205660198", "website_url": "http://www.rockbottom.com", "state": "Colorado", "street": "10633 Westminster Blvd Unit 900"}, {"id": "4f278d3a-4792-453e-82b8-03304f61d6a4", "name": "Rock Bottom Brewery - Yorktown", "brewery_type": "brewpub", "address_1": "94 Yorktown Ctr", "address_2": null, "address_3": null, "city": "Lombard", "state_province": "Illinois", "postal_code": "60148-5529", "country": "United States", "longitude": null, "latitude": null, "phone": "6304241550", "website_url": "http://www.rockbottom.com", "state": "Illinois", "street": "94 Yorktown Ctr"}, {"id": "fcff8513-53a1-4550-91a4-cb71fc0a4753", "name": "Rock Bottom Brewery -Short Pump", "brewery_type": "brewpub", "address_1": "11800 W Broad St Ste 2098", "address_2": null, "address_3": null, "city": "Richmond", "state_province": "Virginia", "postal_code": "23233-7909", "country": "United States", "longitude": null, "latitude": null, "phone": "8042371684", "website_url": "https://rockbottom.com/locations/richmond/", "state": "Virginia", "street": "11800 W Broad St Ste 2098"}, {"id": "4cdbfe24-ad60-4972-b9c0-9808b3dcb2ec", "name": "Rock Bottom Brewery- Charlotte", "brewery_type": "brewpub", "address_1": "401 N Tryon St Ste 100", "address_2": null, "address_3": null, "city": "Charlotte", "state_province": "North Carolina", "postal_code": "28202-2108", "country": "United States", "longitude": null, "latitude": null, "phone": "7043342739", "website_url": null, "state": "North Carolina", "street": "401 N Tryon St Ste 100"}, {"id": "44077c53-4222-4274-920b-67acc073a101", "name": "Rock County Brewing Company", "brewery_type": "micro", "address_1": "10 N Parker Dr", "address_2": null, "address_3": null, "city": "Janesville", "state_province": "Wisconsin", "postal_code": "53545-", "country": "United States", "longitude": "-89.02177314", "latitude": "42.68354565", "phone": "6085318120", "website_url": "http://www.rockcounty.beer", "state": "Wisconsin", "street": "10 N Parker Dr"}, {"id": "6f35def1-f9b1-4712-9510-1c0b5b172b76", "name": "Rock Cut Brewing Company", "brewery_type": "micro", "address_1": "390 W Riverside Dr", "address_2": null, "address_3": null, "city": "Estes Park", "state_province": "Colorado", "postal_code": "80517", "country": "United States", "longitude": "-105.5232105", "latitude": "40.37237825", "phone": "9705867300", "website_url": "http://www.rockcutbrewing.com", "state": "Colorado", "street": "390 W Riverside Dr"}, {"id": "32ea9e78-433e-44ee-9be2-9ce878cb1a23", "name": "Rock God Brewing Company", "brewery_type": "micro", "address_1": "459 Rooney Ave", "address_2": null, "address_3": null, "city": "Danville", "state_province": "Pennsylvania", "postal_code": "17821-1897", "country": "United States", "longitude": "-76.618447", "latitude": "40.962031", "phone": "5702844096", "website_url": "http://rockgodbeer.com", "state": "Pennsylvania", "street": "459 Rooney Ave"}, {"id": "213a3276-bfc0-4b98-a47a-c46ce1584545", "name": "Rock Harbor Brewing Co.", "brewery_type": "micro", "address_1": "5 Payne Ave", "address_2": null, "address_3": null, "city": "Rockland", "state_province": "Maine", "postal_code": "04841", "country": "United States", "longitude": "-69.127326", "latitude": "44.100544", "phone": "2077017811", "website_url": "http://www.rockharborbrewing.com", "state": "Maine", "street": "5 Payne Ave"}, {"id": "b5dc01f5-90a9-414f-97a0-a6fd189da07b", "name": "Rock Harbor Pub & Brewery", "brewery_type": "brewpub", "address_1": "416 Main St", "address_2": null, "address_3": null, "city": "Rockland", "state_province": "Maine", "postal_code": "04841-3345", "country": "United States", "longitude": "-69.10907557", "latitude": "44.1049557", "phone": "2075937488", "website_url": null, "state": "Maine", "street": "416 Main St"}, {"id": "84fb6c47-0080-4500-8b15-a4fa2e33dd31", "name": "Rock House Brewing", "brewery_type": "micro", "address_1": "119 Luigart Ct", "address_2": null, "address_3": null, "city": "Lexington", "state_province": "Kentucky", "postal_code": "40508-1686", "country": "United States", "longitude": "-84.48229841", "latitude": "38.05652337", "phone": "8593687064", "website_url": "http://www.rockhousebrewing.com", "state": "Kentucky", "street": "119 Luigart Ct"}, {"id": "2e2e99bd-649c-48f9-aacf-5cf98b61c44f", "name": "Rock Wood Fired Pizza / Keep Rockin' LLC", "brewery_type": "contract", "address_1": "14209 29th St E Ste 102", "address_2": null, "address_3": null, "city": "Sumner", "state_province": "Washington", "postal_code": "98390-9689", "country": "United States", "longitude": null, "latitude": null, "phone": "2539875479", "website_url": null, "state": "Washington", "street": "14209 29th St E Ste 102"}, {"id": "27fb789b-d906-4472-9632-92be3bb4f3ad", "name": "Rock Wood Fired Pizza & Brewery - Auburn", "brewery_type": "contract", "address_1": "1408 Lake Tapps Pkwy SE # E", "address_2": null, "address_3": null, "city": "Auburn", "state_province": "Washington", "postal_code": "98092-8158", "country": "United States", "longitude": "-122.2095415", "latitude": "47.2448314", "phone": "2538337887", "website_url": "http://www.therockwfp.com", "state": "Washington", "street": "1408 Lake Tapps Pkwy SE # E"}, {"id": "db570962-38c9-42b5-a055-f1cd30bd1359", "name": "Rock Wood Fired Pizza and Brewery - Lynnwood", "brewery_type": "contract", "address_1": "4010 196th St SW", "address_2": null, "address_3": null, "city": "Lynnwood", "state_province": "Washington", "postal_code": "98036-6715", "country": "United States", "longitude": "-122.2876416", "latitude": "47.82048455", "phone": "4256976007", "website_url": "http://www.therockwfp.com", "state": "Washington", "street": "4010 196th St SW"}, {"id": "56ef5319-3298-4ad2-9a3a-fb8b4fe3d0c5", "name": "Rock Wood Fired Pizza and Brewery - Tacoma", "brewery_type": "contract", "address_1": "1920 Jefferson Ave", "address_2": null, "address_3": null, "city": "Tacoma", "state_province": "Washington", "postal_code": "98402-1608", "country": "United States", "longitude": "-122.4392853", "latitude": "47.24409495", "phone": "2532721221", "website_url": "http://www.therockwfp.com", "state": "Washington", "street": "1920 Jefferson Ave"}, {"id": "82e2e95c-e46d-4f70-a656-deb90413d906", "name": "Rockaway Brewing Company", "brewery_type": "planning", "address_1": null, "address_2": null, "address_3": null, "city": "Arverne", "state_province": "New York", "postal_code": "11692-1044", "country": "United States", "longitude": null, "latitude": null, "phone": "7184826528", "website_url": "http://www.rockawaybrewco.com", "state": "New York", "street": null}, {"id": "fefaf311-800c-46e3-b48e-d27b73ff4151", "name": "Rockaway Brewing Company", "brewery_type": "micro", "address_1": "4601 5th St", "address_2": null, "address_3": null, "city": "Long Island City", "state_province": "New York", "postal_code": "11101-5369", "country": "United States", "longitude": "-73.9573397", "latitude": "40.7404088", "phone": "7184826528", "website_url": "http://www.rockawaybrewco.com", "state": "New York", "street": "4601 5th St"}, {"id": "47780fac-1e74-42f8-ba32-bcba2efe0b48", "name": "Rocket Frog Brewing Company", "brewery_type": "micro", "address_1": "22560 Glenn Dr Ste 103", "address_2": null, "address_3": null, "city": "Sterling", "state_province": "Virginia", "postal_code": "20164-7143", "country": "United States", "longitude": "-77.4292242", "latitude": "38.9992947", "phone": "7032445711", "website_url": "http://www.rocketfrogbeer.com", "state": "Virginia", "street": "22560 Glenn Dr Ste 103"}, {"id": "7ea9525f-94f5-4e6e-99f9-70b9a35659e0", "name": "Rocket Republic Brewing Company", "brewery_type": "micro", "address_1": "289 Production Ave", "address_2": null, "address_3": null, "city": "Madison", "state_province": "Alabama", "postal_code": "35758-8991", "country": "United States", "longitude": "-86.77401733", "latitude": "34.6728014", "phone": "2563254677", "website_url": "http://www.rocketrepublicbrewing.com", "state": "Alabama", "street": "289 Production Ave"}, {"id": "5fb3457a-9cea-4b46-a7a7-c78cedf557a3", "name": "Smart Beer Company", "brewery_type": "contract", "address_1": null, "address_2": null, "address_3": null, "city": "New Paltz", "state_province": "New York", "postal_code": "12561-0430", "country": "United States", "longitude": null, "latitude": null, "phone": null, "website_url": "http://www.smartbeercompany.com", "state": "New York", "street": null}, {"id": "94de03d1-716f-4c18-a2f4-9fff96851648", "name": "Rockford Brewing Company", "brewery_type": "brewpub", "address_1": "12 E Bridge St", "address_2": null, "address_3": null, "city": "Rockford", "state_province": "Michigan", "postal_code": "49341-1265", "country": "United States", "longitude": null, "latitude": null, "phone": "6169514677", "website_url": "http://www.RockfordBrewing.com", "state": "Michigan", "street": "12 E Bridge St"}, {"id": "978b9a41-bade-4d32-9944-b05894afffde", "name": "Rockhound Brewing Co", "brewery_type": "brewpub", "address_1": "444 S Park St", "address_2": null, "address_3": null, "city": "Madison", "state_province": "Wisconsin", "postal_code": "53715-1618", "country": "United States", "longitude": "-89.40064641", "latitude": "43.06238355", "phone": "6082859023", "website_url": "http://www.rockhoundbrewing.com", "state": "Wisconsin", "street": "444 S Park St"}, {"id": "61cdc5d9-7649-48e7-b3df-c5a78bd42756", "name": "Rockingham Brewing Company", "brewery_type": "brewpub", "address_1": "1 Corporate Park Dr Unit 1", "address_2": null, "address_3": null, "city": "Derry", "state_province": "New Hampshire", "postal_code": "03038-2276", "country": "United States", "longitude": null, "latitude": null, "phone": "6032162324", "website_url": "http://www.rockinghambrewing.com", "state": "New Hampshire", "street": "1 Corporate Park Dr Unit 1"}, {"id": "059fb0da-8330-4660-aeba-aa9a1c41288c", "name": "Rockmill Brewing Co", "brewery_type": "micro", "address_1": "5705 Lithopolis Rd NW", "address_2": null, "address_3": null, "city": "Lancaster", "state_province": "Ohio", "postal_code": "43130-9515", "country": "United States", "longitude": null, "latitude": null, "phone": "7402058076", "website_url": "http://www.rockmillbrewery.com", "state": "Ohio", "street": "5705 Lithopolis Rd NW"}, {"id": "c6b4c5c8-5a02-4a51-84a2-29bb0e70930e", "name": "RockPit Brewing", "brewery_type": "micro", "address_1": "10 West Illiana St", "address_2": null, "address_3": null, "city": "Orlando", "state_province": "Florida", "postal_code": "32806", "country": "United States", "longitude": "-81.37882592", "latitude": "28.51101657", "phone": "4076906612", "website_url": "http://www.rockpitbrewing.com", "state": "Florida", "street": "10 West Illiana St"}, {"id": "9e585fa0-aaba-46cb-b291-a4d4b273f975", "name": "Rockslide Brewing Co", "brewery_type": "brewpub", "address_1": "401 Main St", "address_2": null, "address_3": null, "city": "Grand Junction", "state_province": "Colorado", "postal_code": "81501-2511", "country": "United States", "longitude": "-108.5659153", "latitude": "39.0670106", "phone": "9702419311", "website_url": "http://www.rockslidebrewpub.com", "state": "Colorado", "street": "401 Main St"}, {"id": "1d3d77bb-f54c-43cf-81cd-e5a763db1d3b", "name": "Rocksteady Brewing Co.", "brewery_type": "brewpub", "address_1": "611 Escobar St", "address_2": null, "address_3": null, "city": "Martinez", "state_province": "California", "postal_code": "94553-1111", "country": "United States", "longitude": "-122.1378119", "latitude": "38.0177998", "phone": "9252288787", "website_url": "http://www.creekmonkey.com", "state": "California", "street": "611 Escobar St"}, {"id": "c4099a64-9be0-4e03-9f24-218c35acd747", "name": "Rockwell Beer Company", "brewery_type": "regional", "address_1": "1320 S Vandeventer Ave", "address_2": null, "address_3": null, "city": "Saint Louis", "state_province": "Missouri", "postal_code": "63110", "country": "United States", "longitude": "-90.251576", "latitude": "38.625572", "phone": "3142561657", "website_url": "http://www.rockwellbeer.com", "state": "Missouri", "street": "1320 S Vandeventer Ave"}, {"id": "a97cece8-723b-47c3-8962-dd9b9cfe57e0", "name": "Rockwell Brewery", "brewery_type": "micro", "address_1": "880 N East St Unit 201", "address_2": null, "address_3": null, "city": "Frederick", "state_province": "Maryland", "postal_code": "21701-5045", "country": "United States", "longitude": null, "latitude": null, "phone": "3017324880", "website_url": "http://www.rockwellbrewery.com", "state": "Maryland", "street": "880 N East St Unit 201"}, {"id": "42dc47f9-440c-403a-a2e3-f4ec523f72fd", "name": "Rocky Coulee Brewing", "brewery_type": "micro", "address_1": "205 E 1st Ave", "address_2": null, "address_3": null, "city": "Odessa", "state_province": "Washington", "postal_code": "99159-9865", "country": "United States", "longitude": "-118.6867465", "latitude": "47.33319739", "phone": "5093452216", "website_url": "http://www.rockycouleebrewingco.com", "state": "Washington", "street": "205 E 1st Ave"}, {"id": "05f75b27-914a-45e3-9e99-883ed97572bd", "name": "Rocky Hill Brewing", "brewery_type": "closed", "address_1": "20147 Avenue 306", "address_2": null, "address_3": null, "city": "Exeter", "state_province": "California", "postal_code": "93221-9763", "country": "United States", "longitude": "-119.1223301", "latitude": "36.34389838", "phone": "5595924594", "website_url": null, "state": "California", "street": "20147 Avenue 306"}, {"id": "f8ccbe29-ac88-4570-841f-acf582e394e6", "name": "Rocky Mountain Brewery", "brewery_type": "micro", "address_1": "625 Paonia St", "address_2": null, "address_3": null, "city": "Colorado Springs", "state_province": "Colorado", "postal_code": "80915-3727", "country": "United States", "longitude": null, "latitude": null, "phone": "7195281651", "website_url": "http://www.rockymountainbrews.com", "state": "Colorado", "street": "625 Paonia St"}, {"id": "92a662f6-a983-4ca3-ac45-f81d33481378", "name": "Rocky Mountain Taphouse, LLC", "brewery_type": "micro", "address_1": "3050 67th Ave Ste 104", "address_2": null, "address_3": null, "city": "Greeley", "state_province": "Colorado", "postal_code": "80634-9604", "country": "United States", "longitude": "-104.7859342", "latitude": "40.387892", "phone": "9703026551", "website_url": "http://www.rockymountaintaphouse.com", "state": "Colorado", "street": "3050 67th Ave Ste 104"}, {"id": "ba7654e4-beda-472c-a033-d223edae00bc", "name": "Rocky Point Artisan Ales", "brewery_type": "micro", "address_1": null, "address_2": null, "address_3": null, "city": "Rocky Point", "state_province": "New York", "postal_code": "11778", "country": "United States", "longitude": null, "latitude": null, "phone": "6318482261", "website_url": "http://www.rockypointartisanbeer.com", "state": "New York", "street": null}, {"id": "c79e3446-b800-42b8-bd42-e12eb4dbd285", "name": "Rocky Reef Brewing Company", "brewery_type": "micro", "address_1": "1101 1st Ave", "address_2": null, "address_3": null, "city": "Woodruff", "state_province": "Wisconsin", "postal_code": "54568-0615", "country": "United States", "longitude": "-89.695183", "latitude": "45.895883", "phone": "2623391230", "website_url": "http://www.rockyreefbrewing.com", "state": "Wisconsin", "street": "1101 1st Ave"}, {"id": "e40910db-618b-46fc-9804-6bf8a0164902", "name": "Rocky River Brewing Co", "brewery_type": "brewpub", "address_1": "21290 Center Ridge Rd", "address_2": null, "address_3": null, "city": "Rocky River", "state_province": "Ohio", "postal_code": "44116-3204", "country": "United States", "longitude": "-81.8553198", "latitude": "41.46100065", "phone": "4408952739", "website_url": "http://www.rockyriverbrewco.com", "state": "Ohio", "street": "21290 Center Ridge Rd"}, {"id": "32874d30-c936-40df-a94f-ac8ad84aecdc", "name": "Rockyard Brewing Company", "brewery_type": "brewpub", "address_1": "880 Castleton Rd", "address_2": null, "address_3": null, "city": "Castle Rock", "state_province": "Colorado", "postal_code": "80109-7512", "country": "United States", "longitude": "-104.8723394", "latitude": "39.4096188", "phone": "3038149273", "website_url": "http://www.rockyard.com", "state": "Colorado", "street": "880 Castleton Rd"}, {"id": "e7cc0814-0f87-494d-9e9f-810f23df05f6", "name": "Rocland Beverage Co", "brewery_type": "contract", "address_1": "1601 Airport Rd", "address_2": null, "address_3": null, "city": "Ukiah", "state_province": "California", "postal_code": "95482-6456", "country": "United States", "longitude": "-123.199573", "latitude": "39.126287", "phone": "7076577721", "website_url": "http://www.asskisserales.com", "state": "California", "street": "1601 Airport Rd"}]