[{"id": "3af17697-4c50-47bb-9b31-dfb2b5518ea5", "name": "Railtown Brewing Co", "brewery_type": "micro", "address_1": "3595 68th St SE", "address_2": null, "address_3": null, "city": "Dutton", "state_province": "Michigan", "postal_code": "49316-8503", "country": "United States", "longitude": "-85.57833065", "latitude": "42.84118888", "phone": "6168812364", "website_url": "http://www.railtownbrewing.com", "state": "Michigan", "street": "3595 68th St SE"}, {"id": "3d2a2d0f-e13a-48d3-a1f3-8158d1538ab9", "name": "Raintree Brewing Company", "brewery_type": "micro", "address_1": "500 Church Street", "address_2": null, "address_3": null, "city": "New Harmony", "state_province": "Indiana", "postal_code": "47631", "country": "United States", "longitude": "-87.9348109", "latitude": "38.1299262", "phone": null, "website_url": "http://www.raintreebrewing.com", "state": "Indiana", "street": "500 Church Street"}, {"id": "9e119744-6668-4d12-9105-2e9236bb614e", "name": "Rainy Daze Brewing", "brewery_type": "micro", "address_1": "650 NW BOVELA LN SUITE 3", "address_2": null, "address_3": null, "city": "Poulsbo", "state_province": "Washington", "postal_code": "98370", "country": "United States", "longitude": null, "latitude": null, "phone": "3606921858", "website_url": "http://www.rainydazebrewing.com", "state": "Washington", "street": "650 NW BOVELA LN SUITE 3"}, {"id": "d8572428-9a8a-4087-8b6a-d815d63698f4", "name": "Raised Grain Brewing Company", "brewery_type": "brewpub", "address_1": "2244 W Bluemound Rd Ste E", "address_2": null, "address_3": null, "city": "Waukesha", "state_province": "Wisconsin", "postal_code": "53186-2921", "country": "United States", "longitude": null, "latitude": null, "phone": null, "website_url": null, "state": "Wisconsin", "street": "2244 W Bluemound Rd Ste E"}, {"id": "cd1f1a39-af96-4e8a-a863-93e5ae52624b", "name": "Raleigh Brewing Company", "brewery_type": "micro", "address_1": "3709 Neil St", "address_2": null, "address_3": null, "city": "Raleigh", "state_province": "North Carolina", "postal_code": "27607-5415", "country": "United States", "longitude": "-78.6875149", "latitude": "35.7931167", "phone": "9194009086", "website_url": "http://www.raleighbrewingcompany.com", "state": "North Carolina", "street": "3709 Neil St"}, {"id": "5806ef06-a300-4a88-820e-f14e0c290794", "name": "Rally King Brewing", "brewery_type": "micro", "address_1": "1624 S Lemay Ave Unit 4", "address_2": null, "address_3": null, "city": "Fort Collins", "state_province": "Colorado", "postal_code": "80525-1188", "country": "United States", "longitude": null, "latitude": null, "phone": "9705688936", "website_url": "http://www.rallykingbrewing.com", "state": "Colorado", "street": "1624 S Lemay Ave Unit 4"}, {"id": "7a59af26-0bfc-451f-8606-40e2653944bd", "name": "RAM Restaurant and Brewery - Boise", "brewery_type": "brewpub", "address_1": "709 E Park Blvd", "address_2": null, "address_3": null, "city": "Boise", "state_province": "Idaho", "postal_code": "83712-7715", "country": "United States", "longitude": null, "latitude": null, "phone": "2083452929", "website_url": "http://www.theram.com", "state": "Idaho", "street": "709 E Park Blvd"}, {"id": "a12fde89-9b18-4f5b-8347-93709903231e", "name": "RAM Restaurant and Brewery - Clackamas", "brewery_type": "brewpub", "address_1": "9073 SE Sunnyside Rd", "address_2": null, "address_3": null, "city": "Clackamas", "state_province": "Oregon", "postal_code": "97015-9759", "country": "United States", "longitude": "-122.5715994", "latitude": "45.43365785", "phone": "5036591282", "website_url": null, "state": "Oregon", "street": "9073 SE Sunnyside Rd"}, {"id": "429297ab-f39b-40ee-a033-dbb560da0b3e", "name": "RAM Restaurant and Brewery - Indianapolis", "brewery_type": "brewpub", "address_1": "140 S Illinois St", "address_2": null, "address_3": null, "city": "Indianapolis", "state_province": "Indiana", "postal_code": "46204", "country": "United States", "longitude": "-86.16050947", "latitude": "39.76475755", "phone": "3179559900", "website_url": "http://www.theram.com", "state": "Indiana", "street": "140 S Illinois St"}, {"id": "f20913bd-86c4-4771-b1ab-4a5252573efb", "name": "RAM Restaurant and Brewery - Lakewood", "brewery_type": "brewpub", "address_1": "10019 59th Ave SW", "address_2": null, "address_3": null, "city": "Lakewood", "state_province": "Washington", "postal_code": "98499-2757", "country": "United States", "longitude": "-122.5156132", "latitude": "47.16601043", "phone": "2535843191", "website_url": "http://www.theram.com", "state": "Washington", "street": "10019 59th Ave SW"}, {"id": "0fbec903-d1d0-4d45-85b8-8d792c63600e", "name": "RAM Restaurant and Brewery - Medford", "brewery_type": "brewpub", "address_1": "165 Rossanley Dr", "address_2": null, "address_3": null, "city": "Medford", "state_province": "Oregon", "postal_code": "97501-1777", "country": "United States", "longitude": "-122.8832971", "latitude": "42.343116", "phone": "4582259816", "website_url": null, "state": "Oregon", "street": "165 Rossanley Dr"}, {"id": "38f79ca2-6c0d-4e65-948c-53829daa2f6a", "name": "RAM Restaurant and Brewery - Production", "brewery_type": "micro", "address_1": "5001 S Washington St", "address_2": null, "address_3": null, "city": "Tacoma", "state_province": "Washington", "postal_code": "98409-2828", "country": "United States", "longitude": "-122.48489", "latitude": "47.211482", "phone": "2534747465", "website_url": "http://www.theram.com", "state": "Washington", "street": "5001 S Washington St"}, {"id": "f4db78ff-2256-477c-bce3-fe41d215a66e", "name": "RAM Restaurant and Brewery - Puyallup South Hill", "brewery_type": "brewpub", "address_1": "103 35th Ave SE", "address_2": null, "address_3": null, "city": "Puyallup", "state_province": "Washington", "postal_code": "98374-1231", "country": "United States", "longitude": "-122.292785", "latitude": "47.15857071", "phone": "2538413317", "website_url": "http://www.theram.com", "state": "Washington", "street": "103 35th Ave SE"}, {"id": "f37404d3-d3b1-4ace-b273-8c25620e8276", "name": "RAM Restaurant and Brewery - Salem", "brewery_type": "brewpub", "address_1": "515 12th St SE", "address_2": null, "address_3": null, "city": "Salem", "state_province": "Oregon", "postal_code": "97301-4034", "country": "United States", "longitude": "-123.0292121", "latitude": "44.932777", "phone": "5033631904", "website_url": "http://www.theram.com", "state": "Oregon", "street": "515 12th St SE"}, {"id": "3d1df8eb-6d29-4228-9d0c-75e1a2b8b6de", "name": "RAM Restaurant and Brewery - Schaumburg", "brewery_type": "brewpub", "address_1": "1901 McConnor Pkwy", "address_2": null, "address_3": null, "city": "Schaumburg", "state_province": "Illinois", "postal_code": "60173-4389", "country": "United States", "longitude": null, "latitude": null, "phone": "8475178791", "website_url": "http://www.theram.com", "state": "Illinois", "street": "1901 McConnor Pkwy"}, {"id": "2ad22e5f-66ea-4213-a8a5-cceaaae97f04", "name": "RAM Restaurant and Brewery - Seattle", "brewery_type": "brewpub", "address_1": "2650 NE University Village St", "address_2": null, "address_3": null, "city": "Seattle", "state_province": "Washington", "postal_code": "98105-5023", "country": "United States", "longitude": "-122.2980609", "latitude": "47.6641459", "phone": "2065253565", "website_url": "http://www.theram.com", "state": "Washington", "street": "2650 NE University Village St"}, {"id": "34f9330a-5f6e-487b-8328-4642ab980625", "name": "RAM Restaurant and Brewery - Tacoma", "brewery_type": "brewpub", "address_1": "3001 Ruston Way", "address_2": null, "address_3": null, "city": "Tacoma", "state_province": "Washington", "postal_code": "98402-5306", "country": "United States", "longitude": "-122.474793", "latitude": "47.2797382", "phone": "2537567886", "website_url": "http://www.theram.com", "state": "Washington", "street": "3001 Ruston Way"}, {"id": "e8b9b8b7-b7b7-4cce-a440-e774f4a5c90f", "name": "RAM Restaurant and Brewery - Wheeling", "brewery_type": "brewpub", "address_1": "700 N Milwaukee Ave", "address_2": null, "address_3": null, "city": "Wheeling", "state_province": "Illinois", "postal_code": "60090-3026", "country": "United States", "longitude": "-87.9155543", "latitude": "42.1541156", "phone": "8475201222", "website_url": "http://www.theram.com", "state": "Illinois", "street": "700 N Milwaukee Ave"}, {"id": "8d25dc57-b983-42f7-9829-9db8481ac10e", "name": "RAM Restaurant and Brewery- Northgate", "brewery_type": "brewpub", "address_1": "401 NE Northgate Way Spc 1102", "address_2": null, "address_3": null, "city": "Seattle", "state_province": "Washington", "postal_code": "98125-8538", "country": "United States", "longitude": null, "latitude": null, "phone": "2063648000", "website_url": "http://www.theram.com", "state": "Washington", "street": "401 NE Northgate Way Spc 1102"}, {"id": "5517b5d0-3406-4ce2-9a6e-af552695dfc0", "name": "Ramblin Reds Brewing Company", "brewery_type": "brewpub", "address_1": "1493 N Shoop Ave Unit A", "address_2": null, "address_3": null, "city": "Wauseon", "state_province": "Ohio", "postal_code": "43567-2801", "country": "United States", "longitude": null, "latitude": null, "phone": "4193352000", "website_url": "http://www.northriverbrewingco.com", "state": "Ohio", "street": "1493 N Shoop Ave Unit A"}, {"id": "a2479685-7402-413d-8398-357db4a5aed8", "name": "Ramskeller", "brewery_type": "planning", "address_1": null, "address_2": null, "address_3": null, "city": "Fort Collins", "state_province": "Colorado", "postal_code": "80523-0001", "country": "United States", "longitude": null, "latitude": null, "phone": "9704911055", "website_url": null, "state": "Colorado", "street": null}, {"id": "9e9b2679-fc12-4095-b401-198f4a444525", "name": "Rancho De Lomi Brewing", "brewery_type": "planning", "address_1": null, "address_2": null, "address_3": null, "city": "Laporte", "state_province": "Colorado", "postal_code": "80535-3021", "country": "United States", "longitude": null, "latitude": null, "phone": "4156067246", "website_url": null, "state": "Colorado", "street": null}, {"id": "644312ac-6c8f-4cbb-b712-03f54f1223c3", "name": "Randolph Beer Dumbo", "brewery_type": "brewpub", "address_1": "77 Sands St", "address_2": null, "address_3": null, "city": "Brooklyn", "state_province": "New York", "postal_code": "11201-1431", "country": "United States", "longitude": "-73.987503", "latitude": "40.70005509", "phone": "7182983331", "website_url": "http://www.randolphbeer.com", "state": "New York", "street": "77 Sands St"}, {"id": "7a0e79f9-4cb5-4225-8742-46689b054269", "name": "Random Precision Brewing Company", "brewery_type": "micro", "address_1": "2365 W Dublin Granville Rd", "address_2": null, "address_3": null, "city": "Columbus", "state_province": "Ohio", "postal_code": "43235-2700", "country": "United States", "longitude": "-83.05232", "latitude": "40.090144", "phone": "6143893864", "website_url": "http://www.randomprecisionbrewing.com", "state": "Ohio", "street": "2365 W Dublin Granville Rd"}, {"id": "e62e68b4-43bb-473c-a79e-cc0e68e51b50", "name": "Random Row Brewing Co.", "brewery_type": "micro", "address_1": "608 Preston Ave", "address_2": null, "address_3": null, "city": "Charlottesville", "state_province": "Virginia", "postal_code": "22903-4566", "country": "United States", "longitude": "-78.48712033", "latitude": "38.03470505", "phone": "4342848466", "website_url": "http://www.randomrow.com", "state": "Virginia", "street": "608 Preston Ave"}, {"id": "b3ffcb37-d39e-4294-a09e-0dcd8130725c", "name": "Raney Cellars", "brewery_type": "brewpub", "address_1": "11 Manor Ave", "address_2": null, "address_3": null, "city": "Millersville", "state_province": "Pennsylvania", "postal_code": "17551", "country": "United States", "longitude": null, "latitude": null, "phone": "7175845085", "website_url": "http://raneycellarsbrewing.com", "state": "Pennsylvania", "street": "11 Manor Ave"}, {"id": "9e8c2604-e9ac-4348-9f3b-3c83f7fa3599", "name": "Ranger Creek Brewery", "brewery_type": "micro", "address_1": "4834 Whirlwind Dr Ste 2", "address_2": null, "address_3": null, "city": "San Antonio", "state_province": "Texas", "postal_code": "78217-3740", "country": "United States", "longitude": null, "latitude": null, "phone": "8329693800", "website_url": "http://www.drinkrangercreek.com", "state": "Texas", "street": "4834 Whirlwind Dr Ste 2"}, {"id": "fa812afd-8652-4cd9-b5d5-af26b115dfdd", "name": "R\u00e2\u0080\u0099Noggin Brewing", "brewery_type": "micro", "address_1": "6521 120th Ave", "address_2": null, "address_3": null, "city": "Kenosha", "state_province": "Wisconsin", "postal_code": "53142", "country": "United States", "longitude": "-87.9532178", "latitude": "42.57624125", "phone": "2629601298", "website_url": "http://www.rnogginbrewing.com", "state": "Wisconsin", "street": "6521 120th Ave"}, {"id": "d8a3c95b-24ae-4c7b-bb11-511ef1814c38", "name": "Rants And Raves Brewery", "brewery_type": "brewpub", "address_1": "308 N Jackson St", "address_2": null, "address_3": null, "city": "Moscow", "state_province": "Idaho", "postal_code": "83843-2065", "country": "United States", "longitude": "-117.0027808", "latitude": "46.7344955", "phone": "2085964061", "website_url": "https://www.rantsravesbrewery.com", "state": "Idaho", "street": "308 N Jackson St"}, {"id": "df8f790d-c35b-4564-8aa0-d03f1c7594f7", "name": "Rapp Brewing Company", "brewery_type": "micro", "address_1": "10930 Endeavour Way Ste C", "address_2": null, "address_3": null, "city": "Seminole", "state_province": "Florida", "postal_code": "33777-1632", "country": "United States", "longitude": null, "latitude": null, "phone": "7276927912", "website_url": "http://www.rapp.beer", "state": "Florida", "street": "10930 Endeavour Way Ste C"}, {"id": "85466615-ba76-4f5b-830d-d1ee300bf38a", "name": "Rapp's Barren Brewing Company", "brewery_type": "micro", "address_1": "1343 E 9th St", "address_2": null, "address_3": null, "city": "Mountain Home", "state_province": "Arkansas", "postal_code": "72653-5050", "country": "United States", "longitude": "-92.3599724", "latitude": "36.3326432", "phone": "8704247288", "website_url": "http://www.rappsbarrenbrewing.com", "state": "Arkansas", "street": "1343 E 9th St"}, {"id": "1084cdaa-c536-42c0-a2c6-20c9f0253aed", "name": "Rapscallion Ales", "brewery_type": "micro", "address_1": "5 Strawberry Hill Rd", "address_2": null, "address_3": null, "city": "Acton", "state_province": "Massachusetts", "postal_code": "01720-5706", "country": "United States", "longitude": "-71.41585461", "latitude": "42.4919605", "phone": "5083477500", "website_url": "http://www.drinkrapscallion.com", "state": "Massachusetts", "street": "5 Strawberry Hill Rd"}, {"id": "7ceade71-eaf6-412e-9dcb-11ef623dc26d", "name": "Raquette River Brewing", "brewery_type": "micro", "address_1": "11 Balsam St # 2", "address_2": null, "address_3": null, "city": "Tupper Lake", "state_province": "New York", "postal_code": "12986-1033", "country": "United States", "longitude": "-74.48652145", "latitude": "44.24347376", "phone": "5183595219", "website_url": "http://www.raquetteriverbrewing.com", "state": "New York", "street": "11 Balsam St # 2"}, {"id": "9d404fb4-ccce-4f36-80f1-abcb08db1c7a", "name": "RAR Brewing", "brewery_type": "proprietor", "address_1": "504 Poplar St", "address_2": null, "address_3": null, "city": "Cambridge", "state_province": "Maryland", "postal_code": "21613-1834", "country": "United States", "longitude": "-76.0774552", "latitude": "38.5702289", "phone": "4107257922", "website_url": "http://www.rarbrewing.com", "state": "Maryland", "street": "504 Poplar St"}, {"id": "305b584c-df57-4c6f-98d2-491736bbe7e9", "name": "Rare Bird Brewpub", "brewery_type": "brewpub", "address_1": "229 Lake Ave", "address_2": null, "address_3": null, "city": "Traverse City", "state_province": "Michigan", "postal_code": "49684-2532", "country": "United States", "longitude": "-85.61932337", "latitude": "44.75978039", "phone": "2319432053", "website_url": "http://rarebirdbrewpub.com", "state": "Michigan", "street": "229 Lake Ave"}, {"id": "a9b86c63-e7f6-42c6-b2a4-5e508b93da49", "name": "Rare Form Brewing", "brewery_type": "micro", "address_1": "90 Congress St", "address_2": null, "address_3": null, "city": "Troy", "state_province": "New York", "postal_code": "12180-4123", "country": "United States", "longitude": "-73.6899808", "latitude": "42.7286018", "phone": "5183264303", "website_url": "http://www.rareformbrewing.com", "state": "New York", "street": "90 Congress St"}, {"id": "a54bd706-4656-404b-91a2-b95d0f939741", "name": "Raritan Bay Brewing, LLC", "brewery_type": "micro", "address_1": "32 Church Street", "address_2": null, "address_3": null, "city": "Keansburg", "state_province": "New Jersey", "postal_code": "07734", "country": "United States", "longitude": "-74.131668", "latitude": "40.441664", "phone": null, "website_url": "http://raritanbaybrewing.com", "state": "New Jersey", "street": "32 Church Street"}, {"id": "59be3ba3-38aa-4ec0-9d2f-97256dca012e", "name": "Rascals Brewing Company", "brewery_type": "brewpub", "address_1": "Goldenbridge Estate", "address_2": "Tyrconnell Rd", "address_3": null, "city": "Inchicore", "state_province": "Dublin", "postal_code": "D08 HF68", "country": "Ireland", "longitude": "-6.3262538", "latitude": "53.3361014", "phone": "35315382051", "website_url": "https://rascalsbrewing.com/", "state": "Dublin", "street": "Goldenbridge Estate"}, {"id": "948ff9bf-8703-448e-897e-51ca8dc71d5a", "name": "Ratchet Brewery Salem", "brewery_type": "brewpub", "address_1": "2701 22nd St SE", "address_2": null, "address_3": null, "city": "Salem", "state_province": "Oregon", "postal_code": "97302-1553", "country": "United States", "longitude": "-123.0173762", "latitude": "44.91418158", "phone": "5035809864", "website_url": "https://ratchetbrewery.com", "state": "Oregon", "street": "2701 22nd St SE"}, {"id": "5316786e-711d-485c-a179-40106341c9d5", "name": "Ratchet Brewery Silverton", "brewery_type": "brewpub", "address_1": "990 North First Street", "address_2": null, "address_3": null, "city": "Silverton", "state_province": "Oregon", "postal_code": "97381", "country": "United States", "longitude": "-122.7845824", "latitude": "45.01410457", "phone": "5038744677", "website_url": "https://ratchetbrewery.com", "state": "Oregon", "street": "990 North First Street"}, {"id": "90ea24ab-7f6b-4961-95ee-496ba24e62f3", "name": "Ratio Beerworks", "brewery_type": "micro", "address_1": "2920 Larimer St", "address_2": null, "address_3": null, "city": "Denver", "state_province": "Colorado", "postal_code": "80205-2309", "country": "United States", "longitude": "-104.9812181", "latitude": "39.7615104", "phone": "3102669264", "website_url": "http://ratiobeerworks.com", "state": "Colorado", "street": "2920 Larimer St"}, {"id": "d58fc03d-9801-45da-8df3-1e884402c2a8", "name": "Rattlesnake Mountain Brewery / Kimo's Restaurant", "brewery_type": "brewpub", "address_1": "1250 Columbia Center Blvd", "address_2": null, "address_3": null, "city": "Richland", "state_province": "Washington", "postal_code": "99352-4839", "country": "United States", "longitude": "-119.2234822", "latitude": "46.22504543", "phone": "5097835747", "website_url": "http://www.rattlesnakemountainbrewery.com", "state": "Washington", "street": "1250 Columbia Center Blvd"}, {"id": "07411ff4-acb5-43d5-a079-9541b41d9793", "name": "Ravenna Brewing Company", "brewery_type": "micro", "address_1": "5408 26th Ave NE", "address_2": null, "address_3": null, "city": "Seattle", "state_province": "Washington", "postal_code": "98105-3137", "country": "United States", "longitude": "-122.299162", "latitude": "47.6682272", "phone": "2067438450", "website_url": "http://www.ravennabrewing.com", "state": "Washington", "street": "5408 26th Ave NE"}, {"id": "f1f6a6cd-33f5-4675-9d9d-21ed6c823eab", "name": "Ravenous Brewing Company", "brewery_type": "micro", "address_1": "10 Industrial Rd", "address_2": null, "address_3": null, "city": "Cumberland", "state_province": "Rhode Island", "postal_code": "02864", "country": "United States", "longitude": "-71.401044", "latitude": "41.953531", "phone": "4012165331", "website_url": "http://www.ravenousbrew.com", "state": "Rhode Island", "street": "10 Industrial Rd"}, {"id": "1ffcb6b0-1702-4b14-ad9a-6d1342719fd7", "name": "Ravinia Brewing Company", "brewery_type": "proprietor", "address_1": "957 Judson Ave", "address_2": null, "address_3": null, "city": "Highland Park", "state_province": "Illinois", "postal_code": "60035-4728", "country": "United States", "longitude": "-87.784735", "latitude": "42.169955", "phone": "8472178403", "website_url": "http://www.raviniabrewing.com", "state": "Illinois", "street": "957 Judson Ave"}, {"id": "e7e2bd8c-995b-4268-bb5b-4b733127b9f0", "name": "Raw Deal", "brewery_type": "brewpub", "address_1": "603 Broadway St S", "address_2": null, "address_3": null, "city": "Menomonie", "state_province": "Wisconsin", "postal_code": "54751-2457", "country": "United States", "longitude": "-91.9298545", "latitude": "44.8773142", "phone": "7152313255", "website_url": "http://www.rawdealwi.weebly.com", "state": "Wisconsin", "street": "603 Broadway St S"}, {"id": "471962d2-01aa-46e4-aea7-fa635a2ae107", "name": "Reach Break Brewing", "brewery_type": "micro", "address_1": "1343 Duane St", "address_2": null, "address_3": null, "city": "Astoria", "state_province": "Oregon", "postal_code": "97103-3917", "country": "United States", "longitude": "-123.8289931", "latitude": "46.18836741", "phone": "5034680743", "website_url": null, "state": "Oregon", "street": "1343 Duane St"}, {"id": "c960bed4-d36d-4f6c-b41b-c7483f70cece", "name": "Reads Landing Brewing Co", "brewery_type": "brewpub", "address_1": "70555 202nd Ave", "address_2": null, "address_3": null, "city": "Reads Landing", "state_province": "Minnesota", "postal_code": "55968-6842", "country": "United States", "longitude": null, "latitude": null, "phone": "6515604777", "website_url": "http://www.rlbrewingco.com", "state": "Minnesota", "street": "70555 202nd Ave"}, {"id": "1f8b4200-5b3d-4b9f-b6a9-e10f29aec438", "name": "Real Ale Brewing Co", "brewery_type": "regional", "address_1": "231 San Saba Ct", "address_2": null, "address_3": null, "city": "Blanco", "state_province": "Texas", "postal_code": "78606-4810", "country": "United States", "longitude": "-98.4128525", "latitude": "30.113319", "phone": "8308332534", "website_url": "http://www.realalebrewing.com", "state": "Texas", "street": "231 San Saba Ct"}, {"id": "35abe7a1-e899-427e-9aef-57ac4438a30b", "name": "Real McCoy Beer Co.", "brewery_type": "micro", "address_1": "20 Hallwood Rd Unit C", "address_2": null, "address_3": null, "city": "Delmar", "state_province": "New York", "postal_code": "12054-1925", "country": "United States", "longitude": null, "latitude": null, "phone": "5186989082", "website_url": "http://www.therealmccoybeerco.com", "state": "New York", "street": "20 Hallwood Rd Unit C"}, {"id": "ad7033af-1756-451e-a858-e5d5f19e701f", "name": "Reason Beer", "brewery_type": "micro", "address_1": "1180 Seminole Trl Ste 290", "address_2": null, "address_3": null, "city": "Charlottesville", "state_province": "Virginia", "postal_code": "22901-5713", "country": "United States", "longitude": "-78.486033", "latitude": "38.06792831", "phone": "4342494572", "website_url": "http://www.reasonbeer.com", "state": "Virginia", "street": "1180 Seminole Trl Ste 290"}, {"id": "b5a6d620-d22d-4e5a-ab9e-33cc7d66b5a8", "name": "Reaver Beach Brewing Co", "brewery_type": "micro", "address_1": "1505 Taylor Farm Rd", "address_2": null, "address_3": null, "city": "Virginia Beach", "state_province": "Virginia", "postal_code": "23453-3099", "country": "United States", "longitude": null, "latitude": null, "phone": "7575632337", "website_url": "http://www.reaverbeach.com", "state": "Virginia", "street": "1505 Taylor Farm Rd"}, {"id": "02ce2fc9-5898-4c7e-a1df-a91100842068", "name": "Rebel Kettle Brewing Company", "brewery_type": "brewpub", "address_1": "822 E 6th St", "address_2": null, "address_3": null, "city": "Little Rock", "state_province": "Arkansas", "postal_code": "72202-2606", "country": "United States", "longitude": "-92.26209196", "latitude": "34.74211127", "phone": "5013742791", "website_url": "http://www.rebelkettle.com", "state": "Arkansas", "street": "822 E 6th St"}, {"id": "a4e94650-bbd6-45f5-ba67-b59f9ac661d8", "name": "Rebel Toad Brewing Co", "brewery_type": "micro", "address_1": "425 William St", "address_2": null, "address_3": null, "city": "Corpus Christi", "state_province": "Texas", "postal_code": "78401-2538", "country": "United States", "longitude": "-97.3960541", "latitude": "27.7946329", "phone": "5122211267", "website_url": "http://www.rebeltoadbrewing.com", "state": "Texas", "street": "425 William St"}, {"id": "03fb287c-df2c-4d22-8e9f-2ab34dd74219", "name": "Rebelle Brewing", "brewery_type": "planning", "address_1": null, "address_2": null, "address_3": null, "city": "Noblesville", "state_province": "Indiana", "postal_code": "46060", "country": "United States", "longitude": null, "latitude": null, "phone": null, "website_url": null, "state": "Indiana", "street": null}, {"id": "37b81531-269f-4642-b251-ad9bb9d8f441", "name": "Recess Brewing", "brewery_type": "micro", "address_1": "307 N Main St", "address_2": null, "address_3": null, "city": "Edwardsville", "state_province": "Illinois", "postal_code": "62025-1615", "country": "United States", "longitude": "-89.9590501", "latitude": "38.81422443", "phone": "6186925101", "website_url": "http://www.recessbrewing.com", "state": "Illinois", "street": "307 N Main St"}, {"id": "f0adad3f-a28d-403c-ac19-e4e6cb2bcaa0", "name": "Reclaimed Rails Brewing Company", "brewery_type": "micro", "address_1": "101 Main St. SE", "address_2": null, "address_3": null, "city": "Bondurant", "state_province": "Iowa", "postal_code": "50035-7722", "country": "United States", "longitude": "-93.461872", "latitude": "41.699717", "phone": null, "website_url": "http://www.reclaimedrailsbrewing.com", "state": "Iowa", "street": "101 Main St. SE"}, {"id": "7e8e9910-3454-4905-a1c2-0b2e5702f195", "name": "Reclamation Brewing Company", "brewery_type": "brewpub", "address_1": "221 S Main St", "address_2": null, "address_3": null, "city": "Butler", "state_province": "Pennsylvania", "postal_code": "16001-5908", "country": "United States", "longitude": "-79.89543627", "latitude": "40.85876516", "phone": "7242820831", "website_url": "http://www.reclamationbrewing.com", "state": "Pennsylvania", "street": "221 S Main St"}, {"id": "2d146fa4-968d-452b-b925-a4684094d2e8", "name": "Recon Brewing", "brewery_type": "brewpub", "address_1": "1747 N Main St Ext", "address_2": null, "address_3": null, "city": "Butler", "state_province": "Pennsylvania", "postal_code": "16001-1327", "country": "United States", "longitude": null, "latitude": null, "phone": "7242568747", "website_url": "http://www.reconbrewing.com", "state": "Pennsylvania", "street": "1747 N Main St Ext"}, {"id": "b4440f12-2d59-4dc7-bdec-19df793f27b4", "name": "Rectory Ales Ltd", "brewery_type": "micro", "address_1": "Streat Hill", "address_2": null, "address_3": null, "city": "Hassocks", "state_province": "West Sussex", "postal_code": "BN6 8RP", "country": "England", "longitude": "-0.080361", "latitude": "50.895782", "phone": "1273890570", "website_url": null, "state": "West Sussex", "street": "Streat Hill"}, {"id": "ce8288fb-5db6-443d-a55c-4a22d5c9cb2d", "name": "Red Barn Brewing", "brewery_type": "micro", "address_1": "2170 Oneida Rd", "address_2": null, "address_3": null, "city": "Danville", "state_province": "Vermont", "postal_code": "05828-", "country": "United States", "longitude": "-72.17748576", "latitude": "44.39460429", "phone": "8026849749", "website_url": "http://www.redbarnbrewingvt.com", "state": "Vermont", "street": "2170 Oneida Rd"}, {"id": "80ebf698-3075-4896-b205-cde24a5a2b91", "name": "Red Bear Brewing Co", "brewery_type": "planning", "address_1": null, "address_2": null, "address_3": null, "city": "Washington", "state_province": "District of Columbia", "postal_code": "20002-3406", "country": "United States", "longitude": null, "latitude": null, "phone": "2062997485", "website_url": "http://www.redbear.beer", "state": "District of Columbia", "street": null}, {"id": "f8dad557-f4a4-4ca0-ae18-b8b4411ca6ff", "name": "Red Bird", "brewery_type": "planning", "address_1": null, "address_2": null, "address_3": null, "city": "Waltham", "state_province": "Massachusetts", "postal_code": "02453-5208", "country": "United States", "longitude": null, "latitude": null, "phone": "7818915486", "website_url": "http://www.redbirdwaltham.com", "state": "Massachusetts", "street": null}, {"id": "cc45c9bd-f7ff-43c4-bb2c-abc7cda31aec", "name": "Red Branch Brewing Company / Rabbits Foot Meadery", "brewery_type": "micro", "address_1": "1246 Birchwood Dr", "address_2": null, "address_3": null, "city": "Sunnyvale", "state_province": "California", "postal_code": "94089-2205", "country": "United States", "longitude": "-121.9920827", "latitude": "37.40446295", "phone": "4087470770", "website_url": "http://www.redbranchcider.com", "state": "California", "street": "1246 Birchwood Dr"}, {"id": "d658726b-aedc-4e15-be17-ebaec8b162b9", "name": "Red Brick Brewing Co / Atlanta Brewing Co", "brewery_type": "micro", "address_1": "2323 Defoor Hills Rd NW", "address_2": null, "address_3": null, "city": "Atlanta", "state_province": "Georgia", "postal_code": "30318-2207", "country": "United States", "longitude": "-84.43454138", "latitude": "33.81830375", "phone": "4043555558", "website_url": "http://www.atlantabrewing.com", "state": "Georgia", "street": "2323 Defoor Hills Rd NW"}, {"id": "5379e6e8-6ea8-42eb-83d8-31a290e1420d", "name": "Red Bus Brewing Company", "brewery_type": "micro", "address_1": "802 Reading St Ste A", "address_2": null, "address_3": null, "city": "Folsom", "state_province": "California", "postal_code": "95630-3061", "country": "United States", "longitude": "-121.1760242", "latitude": "38.67092319", "phone": "9169857299", "website_url": "http://www.redbusbrew.com", "state": "California", "street": "802 Reading St Ste A"}, {"id": "f151a98d-1f85-4cc8-93c1-d58ffaa3f1d0", "name": "Red Car Brewery and Restaurant", "brewery_type": "brewpub", "address_1": "1266 Sartori Ave", "address_2": null, "address_3": null, "city": "Torrance", "state_province": "California", "postal_code": "90501-2717", "country": "United States", "longitude": "-118.3161274", "latitude": "33.83534411", "phone": "3107820222", "website_url": "http://www.redcarbrewery.com", "state": "California", "street": "1266 Sartori Ave"}, {"id": "2f29e159-a768-4404-a2b7-63ef157397bc", "name": "Red Clay Brewing Company", "brewery_type": "micro", "address_1": "704 N Railroad Ave", "address_2": null, "address_3": null, "city": "Opelika", "state_province": "Alabama", "postal_code": "36801-4344", "country": "United States", "longitude": "-85.37875418", "latitude": "32.64939542", "phone": "3347375409", "website_url": "http://www.redclaybrewingcompany.com", "state": "Alabama", "street": "704 N Railroad Ave"}, {"id": "91b1bfea-a4e2-487f-b290-b234c582ee0c", "name": "Red Crow Brewing Company", "brewery_type": "micro", "address_1": null, "address_2": null, "address_3": null, "city": "Olathe", "state_province": "Kansas", "postal_code": "66062", "country": "United States", "longitude": null, "latitude": null, "phone": "9132473641", "website_url": "http://www.redcrowbrew.com", "state": "Kansas", "street": null}, {"id": "eb2a453b-7104-4863-8631-6aa540f1f27e", "name": "Red Cypress Brewery", "brewery_type": "micro", "address_1": "855 E SR 434", "address_2": null, "address_3": null, "city": "Winter Springs", "state_province": "Florida", "postal_code": "32708-2704", "country": "United States", "longitude": null, "latitude": null, "phone": null, "website_url": "http://www.redcypressbrewery.com", "state": "Florida", "street": "855 E SR 434"}, {"id": "92cd0320-bce3-42e4-babb-1192bd8bf678", "name": "Red Dirt Brewing Co", "brewery_type": "planning", "address_1": null, "address_2": null, "address_3": null, "city": "Oklahoma City", "state_province": "Oklahoma", "postal_code": "73120-5133", "country": "United States", "longitude": null, "latitude": null, "phone": "4058231632", "website_url": null, "state": "Oklahoma", "street": null}, {"id": "a1daf057-072c-4295-ab5c-ea8a668d0bc6", "name": "Red Door Brewing Co", "brewery_type": "micro", "address_1": "1001 Candelaria Rd NE", "address_2": null, "address_3": null, "city": "Albuquerque", "state_province": "New Mexico", "postal_code": "87107-2115", "country": "United States", "longitude": "-106.5864617", "latitude": "35.1165072", "phone": "5056336675", "website_url": "http://www.reddoorbrewing.com", "state": "New Mexico", "street": "1001 Candelaria Rd NE"}, {"id": "9bde954f-21f8-4382-960b-302b52411dbb", "name": "Red Dragon Brewery", "brewery_type": "micro", "address_1": "1419 Princess Anne St", "address_2": null, "address_3": null, "city": "Fredericksburg", "state_province": "Virginia", "postal_code": "22401-3638", "country": "United States", "longitude": "-77.46312137", "latitude": "38.30737927", "phone": null, "website_url": "http://www.reddragonbrewery.com", "state": "Virginia", "street": "1419 Princess Anne St"}, {"id": "c4f46e22-5527-4998-8e4c-639b0c8dd51e", "name": "Red Eye Brewing Co", "brewery_type": "brewpub", "address_1": "612 Washington St", "address_2": null, "address_3": null, "city": "Wausau", "state_province": "Wisconsin", "postal_code": "54403-5439", "country": "United States", "longitude": "-89.6228425", "latitude": "44.9588496", "phone": "7158437334", "website_url": "http://www.redeyebrewing.com", "state": "Wisconsin", "street": "612 Washington St"}, {"id": "f844c251-07b6-48ee-935e-b30c36f12d88", "name": "Red Gap Brewing", "brewery_type": "micro", "address_1": "712 Conrad Hilton Blvd", "address_2": null, "address_3": null, "city": "Cisco", "state_province": "Texas", "postal_code": "76437-3140", "country": "United States", "longitude": "-98.97952884", "latitude": "32.38826259", "phone": "2544334993", "website_url": "http://redgapbrewing.com", "state": "Texas", "street": "712 Conrad Hilton Blvd"}, {"id": "e754c609-31df-4357-9d69-2751c57e4737", "name": "Rock Art Brewery", "brewery_type": "micro", "address_1": "632 Laporte Rd", "address_2": null, "address_3": null, "city": "Morrisville", "state_province": "Vermont", "postal_code": "05661-8322", "country": "United States", "longitude": null, "latitude": null, "phone": "8028889400", "website_url": "http://www.rockartbrewery.com", "state": "Vermont", "street": "632 Laporte Rd"}, {"id": "9e5331e9-d870-4e23-b41d-d2c18f2228f7", "name": "Red Hare Brewing Company", "brewery_type": "micro", "address_1": "1998 Delk Industrial Blvd SE", "address_2": null, "address_3": null, "city": "Marietta", "state_province": "Georgia", "postal_code": "30067-8904", "country": "United States", "longitude": "-84.4957563", "latitude": "33.92440825", "phone": "6784010600", "website_url": "http://www.redharebrewing.com", "state": "Georgia", "street": "1998 Delk Industrial Blvd SE"}, {"id": "df013da2-85d9-44ad-a6ae-1ba6273caa65", "name": "Red Hawk Brewing", "brewery_type": "micro", "address_1": "4504 Bussey Rd", "address_2": null, "address_3": null, "city": "Syracuse", "state_province": "New York", "postal_code": "13215-8783", "country": "United States", "longitude": null, "latitude": null, "phone": "3154915158", "website_url": "http://www.redhawkbrewing.com", "state": "New York", "street": "4504 Bussey Rd"}, {"id": "0ea7eb38-71d2-4166-98e3-827be3878d92", "name": "Red Hill Brewing Co", "brewery_type": "micro", "address_1": "21 Union St S", "address_2": null, "address_3": null, "city": "Concord", "state_province": "North Carolina", "postal_code": "28025-5009", "country": "United States", "longitude": "-80.5806658", "latitude": "35.41030435", "phone": "7047842337", "website_url": "http://www.redhillbrewing.com", "state": "North Carolina", "street": "21 Union St S"}, {"id": "38944523-1c18-43bd-85fe-176d06f9dd5b", "name": "Red Hills Brewing Co", "brewery_type": "micro", "address_1": "2823 Central Ave Ste 107", "address_2": null, "address_3": null, "city": "Birmingham", "state_province": "Alabama", "postal_code": "35209-2581", "country": "United States", "longitude": null, "latitude": null, "phone": "2055822897", "website_url": "http://www.redhillsbrew.com", "state": "Alabama", "street": "2823 Central Ave Ste 107"}, {"id": "363cbc24-65e7-4124-9885-4aeb6e40a67f", "name": "Red Horn Brewing Co.", "brewery_type": "brewpub", "address_1": "13010 W Parmer Ln Ste 800", "address_2": null, "address_3": null, "city": "Cedar Park", "state_province": "Texas", "postal_code": "78613-7369", "country": "United States", "longitude": null, "latitude": null, "phone": "5125896152", "website_url": "http://www.redhornbrew.com", "state": "Texas", "street": "13010 W Parmer Ln Ste 800"}, {"id": "c0a352b5-37a4-4131-9e41-dc49df52747f", "name": "Red Iron Brewing Company", "brewery_type": "planning", "address_1": null, "address_2": null, "address_3": null, "city": "Lincoln", "state_province": "Nebraska", "postal_code": "68501", "country": "United States", "longitude": null, "latitude": null, "phone": "4028126242", "website_url": "http://redironbrewing.com", "state": "Nebraska", "street": null}, {"id": "153f0d04-5f71-4096-ab07-6255c3563b4e", "name": "Red Jacket Brewing at Michigan House Cafe", "brewery_type": "brewpub", "address_1": "300 6th St", "address_2": null, "address_3": null, "city": "Calumet", "state_province": "Michigan", "postal_code": "49913-1508", "country": "United States", "longitude": "-88.4535254", "latitude": "47.2464521", "phone": "9063371910", "website_url": "http://www.michiganhousecafe.com/brewpub.html", "state": "Michigan", "street": "300 6th St"}, {"id": "cec54270-d377-44b4-8ca8-d847c204b637", "name": "Red Leg Brewing Company", "brewery_type": "micro", "address_1": "4630 Forge Rd Ste B", "address_2": null, "address_3": null, "city": "Colorado Springs", "state_province": "Colorado", "postal_code": "80907-3556", "country": "United States", "longitude": null, "latitude": null, "phone": "7195983776", "website_url": "http://www.redlegbrewingco.com", "state": "Colorado", "street": "4630 Forge Rd Ste B"}, {"id": "4f92d7f1-e3da-4f0d-b4e6-c87c58ba37ea", "name": "Red Lodge Ales Brewing Co", "brewery_type": "micro", "address_1": "1445 N Broadway Ave", "address_2": null, "address_3": null, "city": "Red Lodge", "state_province": "Montana", "postal_code": "59068-9383", "country": "United States", "longitude": "-109.2465393", "latitude": "45.19727053", "phone": "4064464607", "website_url": "http://www.redlodgeales.net", "state": "Montana", "street": "1445 N Broadway Ave"}, {"id": "3cc2a24c-bf59-42c0-8f83-371c19d049e9", "name": "Red Mountain Brewing", "brewery_type": "brewpub", "address_1": "400 Main St", "address_2": null, "address_3": null, "city": "Ouray", "state_province": "Colorado", "postal_code": "81427", "country": "United States", "longitude": "-107.671615", "latitude": "38.020713", "phone": "9703259858", "website_url": "http://www.redmountainbrewingouray.com", "state": "Colorado", "street": "400 Main St"}, {"id": "1b22d595-585c-4818-8e8d-6e62b5ca1d2c", "name": "Red Oak Brewing Co", "brewery_type": "regional", "address_1": "6901 Konica Dr", "address_2": null, "address_3": null, "city": "Whitsett", "state_province": "North Carolina", "postal_code": "27377-9787", "country": "United States", "longitude": null, "latitude": null, "phone": "3362993649", "website_url": "http://www.redoakbrewery.com", "state": "North Carolina", "street": "6901 Konica Dr"}, {"id": "76487dbc-aa7e-45d0-b20a-f8f8642f49f9", "name": "Red River Brewing Co", "brewery_type": "micro", "address_1": "1200 Marshall St Ste 500", "address_2": null, "address_3": null, "city": "Shreveport", "state_province": "Louisiana", "postal_code": "71101-3936", "country": "United States", "longitude": null, "latitude": null, "phone": "3183174110", "website_url": "http://www.redriverbeer.com", "state": "Louisiana", "street": "1200 Marshall St Ste 500"}, {"id": "98ed229d-aac1-48b0-a562-d954e5f742ec", "name": "Red River Brewing Company", "brewery_type": "brewpub", "address_1": "217 W Main St", "address_2": null, "address_3": null, "city": "Red River", "state_province": "New Mexico", "postal_code": "87558", "country": "United States", "longitude": null, "latitude": null, "phone": "5757702519", "website_url": "http://www.redriverbrewing.com", "state": "New Mexico", "street": "217 W Main St"}, {"id": "b83a91e0-b33b-40df-97cc-1c1df6da08aa", "name": "Red Rock Brewing Co", "brewery_type": "brewpub", "address_1": "254 S 200 W", "address_2": null, "address_3": null, "city": "Salt Lake City", "state_province": "Utah", "postal_code": "84101-1801", "country": "United States", "longitude": "-111.89671", "latitude": "40.77487847", "phone": "8015217446", "website_url": "http://www.redrockbrewing.com", "state": "Utah", "street": "254 S 200 W"}, {"id": "ded0fdf2-f42b-4aa8-b807-83c9f6fa1b58", "name": "Red Rock Brewing Co - Production", "brewery_type": "micro", "address_1": "443 N 400 W", "address_2": null, "address_3": null, "city": "Salt Lake City", "state_province": "Utah", "postal_code": "84103-1230", "country": "United States", "longitude": "-111.9029539", "latitude": "40.77956659", "phone": "8015217446", "website_url": null, "state": "Utah", "street": "443 N 400 W"}, {"id": "491bbd2f-da16-42f3-a4a3-b422d5b324b6", "name": "Red Shed Brewing Company", "brewery_type": "micro", "address_1": "817 Butter Bowl Rd", "address_2": null, "address_3": null, "city": "Cherry Valley", "state_province": "New York", "postal_code": "13320-3106", "country": "United States", "longitude": null, "latitude": null, "phone": "6077316454", "website_url": "http://www.redshedbrewing.com", "state": "New York", "street": "817 Butter Bowl Rd"}, {"id": "82f5632c-93f4-43b4-b98b-b33462688c31", "name": "Red Shedman Farm Brewery", "brewery_type": "micro", "address_1": "13601 Glissans Mill Rd", "address_2": null, "address_3": null, "city": "Mount Airy", "state_province": "Maryland", "postal_code": "21771-8507", "country": "United States", "longitude": null, "latitude": null, "phone": "3018315889", "website_url": "http://www.redshedman.com", "state": "Maryland", "street": "13601 Glissans Mill Rd"}, {"id": "da6cbd77-a827-4940-8c9c-bc037368f708", "name": "Red Silo Brewing Co", "brewery_type": "micro", "address_1": "118 W 1st St", "address_2": null, "address_3": null, "city": "Cookeville", "state_province": "Tennessee", "postal_code": "38501-2490", "country": "United States", "longitude": "-85.50860106", "latitude": "36.16535501", "phone": "9316512333", "website_url": "http://www.redsilo.beer", "state": "Tennessee", "street": "118 W 1st St"}, {"id": "17c75b0f-f416-4ab8-a55f-27eed2cffcce", "name": "Red Tandem Brewery", "brewery_type": "micro", "address_1": "1009 Harbor Blvd", "address_2": null, "address_3": null, "city": "Oxnard", "state_province": "California", "postal_code": "93035-1131", "country": "United States", "longitude": "-119.2474328", "latitude": "34.2068743", "phone": "8058324023", "website_url": "http://www.redtandembrewery.com", "state": "California", "street": "1009 Harbor Blvd"}, {"id": "f3fbeb9f-9f53-4d88-b137-44d3472f7af6", "name": "Red Truck Beer Company", "brewery_type": "planning", "address_1": null, "address_2": null, "address_3": null, "city": "Denver", "state_province": "Colorado", "postal_code": "80216-3612", "country": "United States", "longitude": null, "latitude": null, "phone": null, "website_url": null, "state": "Colorado", "street": null}, {"id": "78f72432-7c43-4f4b-9eb9-6abadb3e7a07", "name": "Red Truck Beer Company Ltd.", "brewery_type": "micro", "address_1": "1020 E Lincoln Ave", "address_2": null, "address_3": null, "city": "Fort Collins", "state_province": "Colorado", "postal_code": "80524-2509", "country": "United States", "longitude": "-105.0584895", "latitude": "40.58916845", "phone": "6046824733", "website_url": null, "state": "Colorado", "street": "1020 E Lincoln Ave"}, {"id": "6ee9898b-1de5-4cd0-8c9e-066b4391ba06", "name": "Red Wing Brewing Company", "brewery_type": "brewpub", "address_1": "1411 Old West Main St", "address_2": null, "address_3": null, "city": "Red Wing", "state_province": "Minnesota", "postal_code": "55066-2162", "country": "United States", "longitude": "-92.54698396", "latitude": "44.56271063", "phone": "6513272200", "website_url": "http://www.redwingbrewing.com", "state": "Minnesota", "street": "1411 Old West Main St"}, {"id": "8f85238c-bf90-4c54-b8a8-1469cb5b08a9", "name": "Redbeard Brewing Co", "brewery_type": "micro", "address_1": "120 S Lewis St", "address_2": null, "address_3": null, "city": "Staunton", "state_province": "Virginia", "postal_code": "24401-4256", "country": "United States", "longitude": "-79.074515", "latitude": "38.147407", "phone": "5404303532", "website_url": "http://redbeardbrews.com", "state": "Virginia", "street": "120 S Lewis St"}, {"id": "243a4b48-c47d-405e-bffb-2a2a10d30b04", "name": "Redemption Alewerks", "brewery_type": "brewpub", "address_1": "7035 E 96th St Ste K", "address_2": null, "address_3": null, "city": "Indianapolis", "state_province": "Indiana", "postal_code": "46250-3303", "country": "United States", "longitude": null, "latitude": null, "phone": "3173483330", "website_url": "http://www.redemptionalewerks.com", "state": "Indiana", "street": "7035 E 96th St Ste K"}, {"id": "7afa7b01-585a-45e5-9d68-843617aa592e", "name": "Redgarden Brewery", "brewery_type": "brewpub", "address_1": "1700 Dogwood St", "address_2": null, "address_3": null, "city": "Louisville", "state_province": "Colorado", "postal_code": "80027-1102", "country": "United States", "longitude": "-105.1138827", "latitude": "39.9674475", "phone": "3036199601", "website_url": "http://www.redgardenbrewery.com", "state": "Colorado", "street": "1700 Dogwood St"}, {"id": "cd9739f8-8782-4827-91c8-fcfefdc212fb", "name": "Redhook - Cataqua Public House", "brewery_type": "regional", "address_1": "35 Corporate Dr", "address_2": null, "address_3": null, "city": "Portsmouth", "state_province": "New Hampshire", "postal_code": "03801-", "country": "United States", "longitude": "-70.80233269", "latitude": "43.08582951", "phone": "6034308600", "website_url": "http://www.redhook.com", "state": "New Hampshire", "street": "35 Corporate Dr"}, {"id": "8a15b08c-cf17-45ad-aff1-a07804e26e36", "name": "Redhook Brewery", "brewery_type": "regional", "address_1": "714 E Pike St", "address_2": null, "address_3": null, "city": "Seattle", "state_province": "Washington", "postal_code": "98122-4697", "country": "United States", "longitude": "-122.3227119", "latitude": "47.6144468", "phone": "4254833232", "website_url": "http://www.redhook.com", "state": "Washington", "street": "714 E Pike St"}, {"id": "f6774aa1-f73e-42d5-bf3b-3f2e3e81b3a6", "name": "Redifer Brewing Co", "brewery_type": "micro", "address_1": "123 E Yakima Ave", "address_2": null, "address_3": null, "city": "Yakima", "state_province": "Washington", "postal_code": "98901-2696", "country": "United States", "longitude": "-120.5057229", "latitude": "46.60240198", "phone": "5094243400", "website_url": "http://www.rediferbrewing.com", "state": "Washington", "street": "123 E Yakima Ave"}, {"id": "572a822f-eb09-4d2d-b701-0e179fc91713", "name": "Redlight Redlight Beer Parlour and Brewery", "brewery_type": "micro", "address_1": "2810 Corrine Dr", "address_2": null, "address_3": null, "city": "Orlando", "state_province": "Florida", "postal_code": "32803-2226", "country": "United States", "longitude": "-81.34851757", "latitude": "28.567899", "phone": "4078939832", "website_url": "http://www.redlightredlightbeerparlour.com", "state": "Florida", "street": "2810 Corrine Dr"}, {"id": "396f0a00-1910-4667-a65d-79ce19556af7", "name": "Redline Brewing Company", "brewery_type": "micro", "address_1": "5470 Lapeer Rd", "address_2": null, "address_3": null, "city": "Burton", "state_province": "Michigan", "postal_code": "48509-2235", "country": "United States", "longitude": "-83.59795244", "latitude": "43.01100775", "phone": "8102592009", "website_url": "http://redlinebrewingcompany.com", "state": "Michigan", "street": "5470 Lapeer Rd"}, {"id": "cdc826d3-05d0-42b1-85c8-3c12724c1ac0", "name": "Redwood Brewing Co", "brewery_type": "brewpub", "address_1": "5304 Gateway Ctr", "address_2": null, "address_3": null, "city": "Flint", "state_province": "Michigan", "postal_code": "48507-3930", "country": "United States", "longitude": null, "latitude": null, "phone": "8102338000", "website_url": "http://www.redwoodbrewingco.com", "state": "Michigan", "street": "5304 Gateway Ctr"}, {"id": "71ea6d50-e621-4f6e-b986-dda5fb564167", "name": "Redwood Curtain Brewing Co", "brewery_type": "micro", "address_1": "550 S G St Ste 6", "address_2": null, "address_3": null, "city": "Arcata", "state_province": "California", "postal_code": "95521-6683", "country": "United States", "longitude": "-124.0894667", "latitude": "40.85730505", "phone": "7078267222", "website_url": "http://www.redwoodcurtainbrewing.com", "state": "California", "street": "550 S G St Ste 6"}, {"id": "10ae1611-0e26-4195-9a07-9bd852278260", "name": "Redwood Curtain Brewing Co", "brewery_type": "micro", "address_1": "1595 Myrtle Avenue Ste B", "address_2": null, "address_3": null, "city": "Eureka", "state_province": "California", "postal_code": "95501", "country": "United States", "longitude": "-124.1363598", "latitude": "40.79546264", "phone": "7072697143", "website_url": "http://www.redwoodcurtainbrewing.com", "state": "California", "street": "1595 Myrtle Avenue Ste B"}, {"id": "cfc4d4d4-7f70-4648-b744-9f397f782dad", "name": "Reed City Brewing Company", "brewery_type": "brewpub", "address_1": "141 W Upton Ave", "address_2": null, "address_3": null, "city": "Reed City", "state_province": "Michigan", "postal_code": "49677-1129", "country": "United States", "longitude": "-85.51071976", "latitude": "43.875879", "phone": "2314654222", "website_url": null, "state": "Michigan", "street": "141 W Upton Ave"}, {"id": "a8a965c8-b4d8-4699-b418-ad6cf8d9133e", "name": "Reel Brew Co", "brewery_type": "closed", "address_1": "7037 Laurel Canyon Boulevard", "address_2": null, "address_3": null, "city": "Los Angeles", "state_province": "California", "postal_code": "91605", "country": "United States", "longitude": "-118.3973933", "latitude": "34.19896605", "phone": null, "website_url": null, "state": "California", "street": "7037 Laurel Canyon Boulevard"}, {"id": "e5a098bc-3a39-415c-b78d-73eca850b43b", "name": "Reel Deel Brewery", "brewery_type": "micro", "address_1": "Unit 1 Ind Park", "address_2": "Knockalegan", "address_3": null, "city": "Crossmolina", "state_province": "Mayo", "postal_code": "F26 FA09", "country": "Ireland", "longitude": "-9.312703", "latitude": "54.1008129", "phone": "353860779391", "website_url": "http://reeldeelbrewery.ie/", "state": "Mayo", "street": "Unit 1 Ind Park"}, {"id": "e92e0af6-5653-4bbc-ab68-1f25ec0c3155", "name": "Refined Ale Brewery", "brewery_type": "micro", "address_1": "2221 S Cedar St", "address_2": null, "address_3": null, "city": "Little Rock", "state_province": "Arkansas", "postal_code": "72204-5452", "country": "United States", "longitude": "-92.3184697", "latitude": "34.73083447", "phone": "5012800556", "website_url": "http://www.refinedale.com", "state": "Arkansas", "street": "2221 S Cedar St"}, {"id": "fa38e7a1-3cbe-4dd4-a3c0-5830257c1427", "name": "Reformation Brewery", "brewery_type": "micro", "address_1": "500 Arnold Mill Way Ste A", "address_2": null, "address_3": null, "city": "Woodstock", "state_province": "Georgia", "postal_code": "30188-6842", "country": "United States", "longitude": null, "latitude": null, "phone": "6783410828", "website_url": "http://www.reformationbrewery.com", "state": "Georgia", "street": "500 Arnold Mill Way Ste A"}, {"id": "56378cd6-a68b-4a17-8ed9-fdea030f9a1f", "name": "Refuge Brewery, Inc.", "brewery_type": "micro", "address_1": "43040 Rancho Way Ste 200", "address_2": null, "address_3": null, "city": "Temecula", "state_province": "California", "postal_code": "92590-5400", "country": "United States", "longitude": "-117.1587817", "latitude": "33.50442958", "phone": "9515060609", "website_url": "http://www.refugebrew.com", "state": "California", "street": "43040 Rancho Way Ste 200"}, {"id": "1a7a4909-e241-43d6-bba6-8631d36a9c78", "name": "Reinvention Brewing Co.", "brewery_type": "micro", "address_1": "9 N Main St PO Box 57", "address_2": null, "address_3": null, "city": "Manchester", "state_province": "New York", "postal_code": "14504-9713", "country": "United States", "longitude": null, "latitude": null, "phone": "5852897309", "website_url": "http://www.reinventionbrewing.com", "state": "New York", "street": "9 N Main St PO Box 57"}, {"id": "4a65c3de-531c-4190-a9d8-d61612593d13", "name": "Rek-Lis Brewing Company", "brewery_type": "micro", "address_1": "2085 Main Street", "address_2": null, "address_3": null, "city": "Bethlehem", "state_province": "New Hampshire", "postal_code": "03574", "country": "United States", "longitude": "-71.687376", "latitude": "44.28042825", "phone": "6033701932", "website_url": "http://tbd", "state": "New Hampshire", "street": "2085 Main Street"}, {"id": "b13f6378-84b6-40c6-b2a1-784aba2cfcc3", "name": "Rock Bottom Brewery", "brewery_type": "brewpub", "address_1": "1864 Victory Cir Bldg K", "address_2": null, "address_3": null, "city": "Daytona Beach", "state_province": "Florida", "postal_code": "32114", "country": "United States", "longitude": null, "latitude": null, "phone": "3865168322", "website_url": null, "state": "Florida", "street": "1864 Victory Cir Bldg K"}, {"id": "72a60ed2-ef24-4327-9d59-b1b50973be35", "name": "Relentless Brewing Co", "brewery_type": "micro", "address_1": "42030 Avenida Alvarado Ste F", "address_2": null, "address_3": null, "city": "Temecula", "state_province": "California", "postal_code": "92590-3404", "country": "United States", "longitude": "-117.1680654", "latitude": "33.51260913", "phone": "9512969400", "website_url": "http://www.relentlessbrewing.com", "state": "California", "street": "42030 Avenida Alvarado Ste F"}, {"id": "c6e4a5e5-5b10-40ed-9621-11bf1e73fd1a", "name": "Relic Brewing", "brewery_type": "micro", "address_1": "95 Whiting St Unit B", "address_2": null, "address_3": null, "city": "Plainville", "state_province": "Connecticut", "postal_code": "06062-2842", "country": "United States", "longitude": null, "latitude": null, "phone": null, "website_url": null, "state": "Connecticut", "street": "95 Whiting St Unit B"}, {"id": "317c75e5-7628-4d17-b683-d734c225349c", "name": "Remedy Brewing Company", "brewery_type": "micro", "address_1": "401 E 8th St #120", "address_2": null, "address_3": null, "city": "Sioux Falls", "state_province": "South Dakota", "postal_code": "57103-7012", "country": "United States", "longitude": "-96.72223225", "latitude": "43.54791493", "phone": "6052716193", "website_url": "http://www.remedybrewco.com", "state": "South Dakota", "street": "401 E 8th St #120"}, {"id": "8fe6ed9e-872b-46dd-a33d-1a2661bb1fbf", "name": "Remnant Brewing", "brewery_type": "micro", "address_1": "2 Bow Market Way", "address_2": null, "address_3": null, "city": "Somerville", "state_province": "Massachusetts", "postal_code": "02143", "country": "United States", "longitude": null, "latitude": null, "phone": null, "website_url": "http://www.remnantsomerville.com", "state": "Massachusetts", "street": "2 Bow Market Way"}, {"id": "20e23a04-49d8-4e74-afd6-f6f03e10489a", "name": "Renaissance Brewing Co", "brewery_type": "micro", "address_1": "1147 S Lewis Ave", "address_2": null, "address_3": null, "city": "Tulsa", "state_province": "Oklahoma", "postal_code": "74104-3905", "country": "United States", "longitude": "-95.9578601", "latitude": "36.0617778", "phone": "9184090551", "website_url": "http://www.renaissancebeer.com", "state": "Oklahoma", "street": "1147 S Lewis Ave"}, {"id": "72bfaaf5-2542-45ea-912a-b0b2ed340f06", "name": "Rendezvous Junction Brewing Company", "brewery_type": "micro", "address_1": "2001 S Bellview Rd Ste 2", "address_2": null, "address_3": null, "city": "Rogers", "state_province": "Arkansas", "postal_code": "72758-4050", "country": "United States", "longitude": null, "latitude": null, "phone": "4793817501", "website_url": "http://www.rendezvousjunction.com", "state": "Arkansas", "street": "2001 S Bellview Rd Ste 2"}, {"id": "c7fb56c0-daf1-42d7-a6dd-5b75953838c9", "name": "Renegade Brewing Company", "brewery_type": "micro", "address_1": "918 W 1st Ave", "address_2": null, "address_3": null, "city": "Denver", "state_province": "Colorado", "postal_code": "80223-1534", "country": "United States", "longitude": "-104.9992637", "latitude": "39.71831392", "phone": "3035345407", "website_url": "http://renegadebrewing.com", "state": "Colorado", "street": "918 W 1st Ave"}, {"id": "3881ce7f-1556-4ef0-aef7-ed55283678d8", "name": "Renegade Brewing Company - Production", "brewery_type": "micro", "address_1": "918 W 1st Ave", "address_2": null, "address_3": null, "city": "Denver", "state_province": "Colorado", "postal_code": "80223-1534", "country": "United States", "longitude": "-104.9992637", "latitude": "39.71831392", "phone": "7204014089", "website_url": "http://www.renegadebrewing.com", "state": "Colorado", "street": "918 W 1st Ave"}, {"id": "66f14e6f-3988-4600-876f-c3ee155541ea", "name": "Reno Brewery", "brewery_type": "planning", "address_1": null, "address_2": null, "address_3": null, "city": "Reno", "state_province": "Nevada", "postal_code": "89502-1807", "country": "United States", "longitude": null, "latitude": null, "phone": "7756360014", "website_url": "http://www.renobrewery.com", "state": "Nevada", "street": null}, {"id": "659f76a6-3c54-489f-92ec-39b31760822c", "name": "Rentsch Brewery", "brewery_type": "micro", "address_1": "2500 NE Inner Loop Unit 3105", "address_2": null, "address_3": null, "city": "Georgetown", "state_province": "Texas", "postal_code": "78626-4444", "country": "United States", "longitude": null, "latitude": null, "phone": "5126885046", "website_url": "http://www.rentschbrewery.com", "state": "Texas", "street": "2500 NE Inner Loop Unit 3105"}, {"id": "516b9dac-9a0b-4c40-ad2d-2feb2170c938", "name": "Republic Brewing Co", "brewery_type": "brewpub", "address_1": "PO Box 96", "address_2": null, "address_3": null, "city": "Republic", "state_province": "Washington", "postal_code": "99166-0096", "country": "United States", "longitude": null, "latitude": null, "phone": null, "website_url": null, "state": "Washington", "street": "PO Box 96"}, {"id": "065986cc-cd6a-4f1b-82bf-5784118af18f", "name": "Rescue Brewing Co", "brewery_type": "micro", "address_1": "167 N 2nd Ave", "address_2": null, "address_3": null, "city": "Upland", "state_province": "California", "postal_code": "91786-6019", "country": "United States", "longitude": "-117.6485203", "latitude": "34.09582106", "phone": "9095362739", "website_url": "http://www.rescuebrewingco.com", "state": "California", "street": "167 N 2nd Ave"}, {"id": "d02410fa-2ca6-461d-8879-6c11270a1390", "name": "Resident Brewing", "brewery_type": "micro", "address_1": "411 C St", "address_2": null, "address_3": null, "city": "San Diego", "state_province": "California", "postal_code": "92101-5105", "country": "United States", "longitude": "-117.1608785", "latitude": "32.71667995", "phone": "6197176622", "website_url": "http://www.residentbrewing.com", "state": "California", "street": "411 C St"}, {"id": "c9815e98-046a-4e4e-bbd2-80d265b62747", "name": "Resident Culture Brewing Company LLC", "brewery_type": "micro", "address_1": "2101 Central Ave", "address_2": null, "address_3": null, "city": "Charlotte", "state_province": "North Carolina", "postal_code": "28205-5203", "country": "United States", "longitude": "-80.80542365", "latitude": "35.21995586", "phone": "7043331862", "website_url": "http://www.residentculturebrewing.com", "state": "North Carolina", "street": "2101 Central Ave"}, {"id": "581f4005-1088-4fdf-b2f2-dd71151c88f6", "name": "Resignation Brewery", "brewery_type": "contract", "address_1": "98 San Jacinto Blvd Ste 160", "address_2": null, "address_3": null, "city": "Austin", "state_province": "Texas", "postal_code": "78701-4640", "country": "United States", "longitude": "-97.742323", "latitude": "30.262322", "phone": "4254833232", "website_url": "http://www.kccobrewery.com", "state": "Texas", "street": "98 San Jacinto Blvd Ste 160"}, {"id": "562b5a37-32a6-4acd-9f2e-ad781e310618", "name": "Resolute Brewing Company", "brewery_type": "micro", "address_1": "7286 S Yosemite St Ste 110", "address_2": null, "address_3": null, "city": "Centennial", "state_province": "Colorado", "postal_code": "80112-2204", "country": "United States", "longitude": null, "latitude": null, "phone": "7207221238", "website_url": "http://www.resolutebrewingco.com", "state": "Colorado", "street": "7286 S Yosemite St Ste 110"}, {"id": "002ffa9d-8549-4fe5-a883-8f6fe197d55e", "name": "Resolution Brewing Company", "brewery_type": "brewpub", "address_1": "3024 Mountain View Dr Ste 105", "address_2": null, "address_3": null, "city": "Anchorage", "state_province": "Alaska", "postal_code": "99501-3141", "country": "United States", "longitude": "-149.823091", "latitude": "61.21997889", "phone": "9073304523", "website_url": "http://www.resolutionbeer.com", "state": "Alaska", "street": "3024 Mountain View Dr Ste 105"}, {"id": "551c4a45-2563-4d1d-b6dc-651218ebd690", "name": "Resonate Brewery + Pizzeria", "brewery_type": "brewpub", "address_1": "5606 119th Ave SE", "address_2": null, "address_3": null, "city": "Bellevue", "state_province": "Washington", "postal_code": "98006-3754", "country": "United States", "longitude": "-122.1774828", "latitude": "47.5523206", "phone": "4256443164", "website_url": "http://www.resonatebrewery.com", "state": "Washington", "street": "5606 119th Ave SE"}, {"id": "94f81f73-7ee4-413d-a2a9-4f8de7ad18b9", "name": "Restless Moons Brewing", "brewery_type": "micro", "address_1": "120 W Wolfe St", "address_2": null, "address_3": null, "city": "Harrisonburg", "state_province": "Virginia", "postal_code": "22802-3815", "country": "United States", "longitude": "-78.87084726", "latitude": "38.45189522", "phone": "5402172726", "website_url": "http://www.restlessmoons.com", "state": "Virginia", "street": "120 W Wolfe St"}, {"id": "bbdbbaa0-4f65-4c35-80b2-8d6be878806f", "name": "Restoration Brew Worx", "brewery_type": "brewpub", "address_1": "25 N Sandusky St", "address_2": null, "address_3": null, "city": "Delaware", "state_province": "Ohio", "postal_code": "43015-1901", "country": "United States", "longitude": "-83.0677272", "latitude": "40.30056202", "phone": null, "website_url": "http://www.restorationbrewworx.com", "state": "Ohio", "street": "25 N Sandusky St"}, {"id": "8446b88b-3980-4633-8e9f-7696a1c6ac49", "name": "Resurgence Brewing Company", "brewery_type": "brewpub", "address_1": "1250 Niagara St", "address_2": null, "address_3": null, "city": "Buffalo", "state_province": "New York", "postal_code": "14213-1502", "country": "United States", "longitude": "-78.89959956", "latitude": "42.91822725", "phone": "7163819868", "website_url": "http://www.resurgencebrewing.com", "state": "New York", "street": "1250 Niagara St"}, {"id": "781c0940-c556-433d-8ca2-202fc631629d", "name": "Reuben's Brews", "brewery_type": "micro", "address_1": "1133 NW 51st St", "address_2": null, "address_3": null, "city": "Seattle", "state_province": "Washington", "postal_code": "98107-5126", "country": "United States", "longitude": "-122.3721641", "latitude": "47.6655088", "phone": "2067842859", "website_url": "http://www.reubensbrews.com", "state": "Washington", "street": "1133 NW 51st St"}, {"id": "262002b9-b5bd-4de4-92b2-266a1f21fbdf", "name": "Reuben's Brews Taproom", "brewery_type": "micro", "address_1": "5010 14th Ave NW", "address_2": null, "address_3": null, "city": "Seattle", "state_province": "Washington", "postal_code": "98107-5113", "country": "United States", "longitude": "-122.3732468", "latitude": "47.6654087", "phone": "2067842859", "website_url": "http://www.reubensbrews.com", "state": "Washington", "street": "5010 14th Ave NW"}, {"id": "9cfaca46-16e6-4531-abf8-d5120f2666e5", "name": "ReUnion Brewery", "brewery_type": "brewpub", "address_1": "516 2nd St", "address_2": null, "address_3": null, "city": "Coralville", "state_province": "Iowa", "postal_code": "52241-2614", "country": "United States", "longitude": "-91.57498607", "latitude": "41.67171431", "phone": "3193373000", "website_url": "http://www.reunionbrewery.com", "state": "Iowa", "street": "516 2nd St"}, {"id": "bc178419-2cae-4a48-8315-21bdc97954d3", "name": "Revel Urban Winery / Revel OTR", "brewery_type": "brewpub", "address_1": "111 E 12th St", "address_2": null, "address_3": null, "city": "Cincinnati", "state_province": "Ohio", "postal_code": "45202", "country": "United States", "longitude": "-84.5126641", "latitude": "39.1085275", "phone": "5135799463", "website_url": "http://www.revelotr.com", "state": "Ohio", "street": "111 E 12th St"}, {"id": "e8dd8302-d33a-4710-ba06-d0d96905d4b9", "name": "Revelation Ale Works", "brewery_type": "micro", "address_1": "146 S Atlantic Ave", "address_2": null, "address_3": null, "city": "Hallock", "state_province": "Minnesota", "postal_code": "56728", "country": "United States", "longitude": "-96.94649456", "latitude": "48.77482789", "phone": "2185100001", "website_url": "http://www.revales.com", "state": "Minnesota", "street": "146 S Atlantic Ave"}, {"id": "069e101a-7372-4392-a872-ef6a7ff9f31c", "name": "Revelation Craft Brewing Co", "brewery_type": "micro", "address_1": "19841 Central Ave", "address_2": null, "address_3": null, "city": "Rehoboth Beach", "state_province": "Delaware", "postal_code": "19971-1112", "country": "United States", "longitude": null, "latitude": null, "phone": "3022125674", "website_url": "http://Www.revbeer.com", "state": "Delaware", "street": "19841 Central Ave"}, {"id": "2811559d-9e1f-4507-8635-6fedbfde5a52", "name": "Revelry Brewing Co.", "brewery_type": "micro", "address_1": "10 Conroy St", "address_2": null, "address_3": null, "city": "Charleston", "state_province": "South Carolina", "postal_code": "29403-3815", "country": "United States", "longitude": "-79.9439382", "latitude": "32.80728239", "phone": "8432036194", "website_url": "http://www.revelrybrewingco.com", "state": "South Carolina", "street": "10 Conroy St"}, {"id": "ec12a82b-0ef5-411e-8c74-a1111ddaa2ca", "name": "Reverie Brewing Company", "brewery_type": "planning", "address_1": null, "address_2": null, "address_3": null, "city": "Newtown", "state_province": "Connecticut", "postal_code": "06470", "country": "United States", "longitude": null, "latitude": null, "phone": null, "website_url": "http://reveriebrewing.com", "state": "Connecticut", "street": null}, {"id": "2b0138e9-f65f-4231-9db9-086d79976024", "name": "Revision Brewing Company", "brewery_type": "micro", "address_1": "380 S Rock Blvd", "address_2": null, "address_3": null, "city": "Sparks", "state_province": "Nevada", "postal_code": "89431-5545", "country": "United States", "longitude": "-119.762654", "latitude": "39.511243", "phone": "7753312739", "website_url": "http://www.revisionbrewing.com", "state": "Nevada", "street": "380 S Rock Blvd"}, {"id": "717f5bb4-5c1c-4096-a1e4-366754c455be", "name": "Revival Brewing", "brewery_type": "proprietor", "address_1": "505 Atwood Ave", "address_2": null, "address_3": null, "city": "Cranston", "state_province": "Rhode Island", "postal_code": "02920-5327", "country": "United States", "longitude": "-71.47169613", "latitude": "41.78983825", "phone": "4013727009", "website_url": "http://www.revivalbrewing.com", "state": "Rhode Island", "street": "505 Atwood Ave"}, {"id": "1db452cf-edd7-4eed-bba1-6f92e000da67", "name": "Revolution Brewing", "brewery_type": "regional", "address_1": "3340 N Kedzie Ave", "address_2": null, "address_3": null, "city": "Chicago", "state_province": "Illinois", "postal_code": "60618-5722", "country": "United States", "longitude": "-87.707534", "latitude": "41.9289777", "phone": "7735882267", "website_url": "http://www.revbrew.com", "state": "Illinois", "street": "3340 N Kedzie Ave"}]