[{"id": "4da39580-1cf8-436a-bcd9-ce44d8b07896", "name": "City-State Brewing Company", "brewery_type": "planning", "address_1": null, "address_2": null, "address_3": null, "city": "Washington", "state_province": "District of Columbia", "postal_code": "20017-2518", "country": "United States", "longitude": null, "latitude": null, "phone": "2025310481", "website_url": "http://citystatebrewing.com", "state": "District of Columbia", "street": null}, {"id": "728581d2-7245-4303-b6c9-2b003ed185fd", "name": "Civil Life Brewing Company", "brewery_type": "brewpub", "address_1": "3714 Holt Ave", "address_2": null, "address_3": null, "city": "Saint Louis", "state_province": "Missouri", "postal_code": "63116-2614", "country": "United States", "longitude": "-90.25807165", "latitude": "38.5908973", "phone": null, "website_url": "http://www.thecivillife.com", "state": "Missouri", "street": "3714 Holt Ave"}, {"id": "3e4025f3-efcc-4913-a66b-a6985899ad29", "name": "Civil Society Brewing Co", "brewery_type": "micro", "address_1": "1200 Town Center Dr Ste 101", "address_2": null, "address_3": null, "city": "Jupiter", "state_province": "Florida", "postal_code": "33458-5257", "country": "United States", "longitude": "-80.11462571", "latitude": "26.88964636", "phone": "5618556680", "website_url": "http://www.civilsocietybrewing.com", "state": "Florida", "street": "1200 Town Center Dr Ste 101"}, {"id": "c4cefd05-1142-4287-9509-e6e7bbeb61b9", "name": "Civilian Brewing Corps", "brewery_type": "planning", "address_1": null, "address_2": null, "address_3": null, "city": "Bloomington", "state_province": "Indiana", "postal_code": "47403-9658", "country": "United States", "longitude": null, "latitude": null, "phone": null, "website_url": null, "state": "Indiana", "street": null}, {"id": "cba5abaf-d710-42d9-9ba8-e73cf378c245", "name": "CJs Brewing Co", "brewery_type": "brewpub", "address_1": "8115 Richardson Rd", "address_2": null, "address_3": null, "city": "Commerce Township", "state_province": "Michigan", "postal_code": "48390-4131", "country": "United States", "longitude": "-83.44295839", "latitude": "42.57743694", "phone": "2483667979", "website_url": "http://www.cjsbrewingcompany.com", "state": "Michigan", "street": "8115 Richardson Rd"}, {"id": "58fcc35e-a5d6-404e-999c-516782165368", "name": "CL River Outpost Brewing", "brewery_type": "brewpub", "address_1": "5 John Walsh Blvd", "address_2": null, "address_3": null, "city": "Peekskill", "state_province": "New York", "postal_code": "10566", "country": "United States", "longitude": null, "latitude": null, "phone": null, "website_url": "http://riveroutpostbrewing.com", "state": "New York", "street": "5 John Walsh Blvd"}, {"id": "6e2d96e1-062d-4e05-b0df-5b11a252fbfc", "name": "Claim 52 Brewing", "brewery_type": "micro", "address_1": "1030 Tyinn St Ste 1", "address_2": null, "address_3": null, "city": "Eugene", "state_province": "Oregon", "postal_code": "97402-6933", "country": "United States", "longitude": "-123.1379662", "latitude": "44.04917678", "phone": "5415546786", "website_url": null, "state": "Oregon", "street": "1030 Tyinn St Ste 1"}, {"id": "97a6271c-ac6c-47e4-97b4-7af02ee7ad88", "name": "Claimstake Brewing Company", "brewery_type": "micro", "address_1": "11366 Monier Park Pl", "address_2": null, "address_3": null, "city": "Rancho Cordova", "state_province": "California", "postal_code": "95742-6856", "country": "United States", "longitude": "-121.2607634", "latitude": "38.58185916", "phone": "9166615249", "website_url": "http://www.claimstakebrewing.com", "state": "California", "street": "11366 Monier Park Pl"}, {"id": "9f0fb9c0-49ca-4c1e-aa52-ca9b099a317c", "name": "Clairvoyant Brewing - Boise", "brewery_type": "micro", "address_1": "2800 W Idaho St", "address_2": null, "address_3": null, "city": "Boise", "state_province": "Idaho", "postal_code": "83702-4628", "country": "United States", "longitude": "-116.225417", "latitude": "43.622812", "phone": "2089960095", "website_url": "http://www.clairvoyantbrewing.com", "state": "Idaho", "street": "2800 W Idaho St"}, {"id": "7cc65ee3-40e0-483b-bf33-589945cb5610", "name": "Clairvoyant Brewing - West", "brewery_type": "micro", "address_1": "9115 W Chinden Blvd Ste 107", "address_2": null, "address_3": null, "city": "Garden City", "state_province": "Idaho", "postal_code": "83714", "country": "United States", "longitude": "-116.2958998", "latitude": "43.654831", "phone": null, "website_url": "https://www.clairvoyantbrewing.com", "state": "Idaho", "street": "9115 W Chinden Blvd Ste 107"}, {"id": "18783ef1-06c4-496e-a25b-110032b07619", "name": "Clam Lake Beer Co", "brewery_type": "brewpub", "address_1": "106 S Mitchell St Ste A", "address_2": null, "address_3": null, "city": "Cadillac", "state_province": "Michigan", "postal_code": "49601-2177", "country": "United States", "longitude": null, "latitude": null, "phone": "2317756150", "website_url": "http://www.clamlakebeerco.com", "state": "Michigan", "street": "106 S Mitchell St Ste A"}, {"id": "62f9023b-c528-4366-8348-3e25c6edfe53", "name": "Clandestine Brewing", "brewery_type": "micro", "address_1": "980 S 1st Ste B", "address_2": null, "address_3": null, "city": "San Jose", "state_province": "California", "postal_code": "95110-3127", "country": "United States", "longitude": "-121.8786694", "latitude": "37.32187322", "phone": null, "website_url": "http://www.clandestinebrewing.com", "state": "California", "street": "980 S 1st Ste B"}, {"id": "54622678-f89c-4ce7-bc09-3a27808a6225", "name": "Claremont Craft Ales", "brewery_type": "micro", "address_1": "1420 N Claremont Blvd Ste 204C", "address_2": null, "address_3": null, "city": "Claremont", "state_province": "California", "postal_code": "91711-3528", "country": "United States", "longitude": "-117.7017202", "latitude": "34.10939116", "phone": "9096255350", "website_url": "http://www.claremontcraftales.com", "state": "California", "street": "1420 N Claremont Blvd Ste 204C"}, {"id": "a33ce0a4-eaf9-4807-bd2b-ecc104b186c4", "name": "Clarion River Brewing Company", "brewery_type": "brewpub", "address_1": "600 Main St # 604", "address_2": null, "address_3": null, "city": "Clarion", "state_province": "Pennsylvania", "postal_code": "16214-1108", "country": "United States", "longitude": "-79.6789283", "latitude": "41.14649162", "phone": "8142978399", "website_url": "http://www.clarionriverbrew.com", "state": "Pennsylvania", "street": "600 Main St # 604"}, {"id": "088d36c6-2be1-4c07-8da1-d8c64f5800de", "name": "Clayton Brewing Co", "brewery_type": "contract", "address_1": "661 W Arrow Hwy", "address_2": null, "address_3": null, "city": "San Dimas", "state_province": "California", "postal_code": "91773-2936", "country": "United States", "longitude": "-117.826752", "latitude": "34.1066017", "phone": "9093944900", "website_url": "http://www.claytonbrewingco.com", "state": "California", "street": "661 W Arrow Hwy"}, {"id": "252f7a2b-637c-4a90-bce9-5fab3e0d6702", "name": "CLE Brewing", "brewery_type": "micro", "address_1": "9431 Mercantile Dr", "address_2": null, "address_3": null, "city": "Mentor", "state_province": "Ohio", "postal_code": "44060", "country": "United States", "longitude": "-81.30644573", "latitude": "41.69622887", "phone": "4405278330", "website_url": "http://www.smarterbrewing.com", "state": "Ohio", "street": "9431 Mercantile Dr"}, {"id": "da01256e-6b46-4fb2-94e4-e18d5fe01b65", "name": "Clemson Bros. Brewery", "brewery_type": "brewpub", "address_1": "22 Cottage St", "address_2": null, "address_3": null, "city": "Middletown", "state_province": "New York", "postal_code": "10940-5059", "country": "United States", "longitude": "-74.41622495", "latitude": "41.44693028", "phone": "8457754638", "website_url": "http://www.clemsonbrewing.com", "state": "New York", "street": "22 Cottage St"}, {"id": "418f4dca-b6cc-46ef-bdd8-fb7a4febb9e8", "name": "Cleophus Quealy Beer Company", "brewery_type": "micro", "address_1": "448 Hester St", "address_2": null, "address_3": null, "city": "San Leandro", "state_province": "California", "postal_code": "94577-1024", "country": "United States", "longitude": "-122.1914202", "latitude": "37.72210256", "phone": null, "website_url": "http://www.cleoph.us", "state": "California", "street": "448 Hester St"}, {"id": "84229303-605d-4216-be85-cd5ad19ccb91", "name": "Clermont Brewing Company", "brewery_type": "planning", "address_1": null, "address_2": null, "address_3": null, "city": "Clermont", "state_province": "Florida", "postal_code": "34711-2108", "country": "United States", "longitude": null, "latitude": null, "phone": null, "website_url": null, "state": "Florida", "street": null}, {"id": "a630d9e9-b184-4c4f-aa32-56e61cfd6c92", "name": "Cleveland Brewing Company @ Butcher and The Brewer", "brewery_type": "brewpub", "address_1": "2043 E 4th St", "address_2": null, "address_3": null, "city": "Cleveland", "state_province": "Ohio", "postal_code": "44115-1023", "country": "United States", "longitude": "-81.690036", "latitude": "41.4991502", "phone": null, "website_url": null, "state": "Ohio", "street": "2043 E 4th St"}, {"id": "9aab61ae-eeb8-493e-8c80-92e79bd86a2c", "name": "Cliffside Brewing", "brewery_type": "micro", "address_1": "16B Center St", "address_2": null, "address_3": null, "city": "Wallingford", "state_province": "Connecticut", "postal_code": "06492-4110", "country": "United States", "longitude": "-72.8236736", "latitude": "41.45664583", "phone": null, "website_url": "http://www.cliffsidebrewing.com", "state": "Connecticut", "street": "16B Center St"}, {"id": "8690decb-8627-47c1-8a42-bf73cca5662e", "name": "Climate City Brewing Co.", "brewery_type": "brewpub", "address_1": "509 SW G St", "address_2": null, "address_3": null, "city": "Grants Pass", "state_province": "Oregon", "postal_code": "97526-2472", "country": "United States", "longitude": "-123.3313287", "latitude": "42.4401171", "phone": "5414793725", "website_url": "http://www.climatecitybrewing.com", "state": "Oregon", "street": "509 SW G St"}, {"id": "3f324410-c135-498c-b5cc-4116df6d9f8f", "name": "Climax Brewing Co", "brewery_type": "micro", "address_1": "112 Valley Rd", "address_2": null, "address_3": null, "city": "Roselle Park", "state_province": "New Jersey", "postal_code": "07204-1402", "country": "United States", "longitude": "-74.28252639", "latitude": "40.65943179", "phone": "9086209585", "website_url": "http://www.climaxbrewing.com", "state": "New Jersey", "street": "112 Valley Rd"}, {"id": "03c5e7d6-e98d-481f-ad60-64d363f20446", "name": "Climber Nine Brewing", "brewery_type": "planning", "address_1": null, "address_2": null, "address_3": null, "city": "Cameron Park", "state_province": "California", "postal_code": "95682-8975", "country": "United States", "longitude": "-120.9851442", "latitude": "38.68200185", "phone": null, "website_url": null, "state": "California", "street": null}, {"id": "d11bf284-2d00-4915-bd7d-1f8c7b8a43f2", "name": "Climbing Bines Craft Ale Company", "brewery_type": "micro", "address_1": "511 Hanson Point Rd", "address_2": null, "address_3": null, "city": "Penn Yan", "state_province": "New York", "postal_code": "14527-9718", "country": "United States", "longitude": null, "latitude": null, "phone": "6077450221", "website_url": "http://www.climbingbineshopfarm.com", "state": "New York", "street": "511 Hanson Point Rd"}, {"id": "09345655-ad47-4b71-ba33-61c1c16550a0", "name": "Clinch River Brewing", "brewery_type": "brewpub", "address_1": "2045 Norris Freeway", "address_2": null, "address_3": null, "city": "Norris", "state_province": "Tennessee", "postal_code": "37828", "country": "United States", "longitude": "-84.0448186", "latitude": "36.1696625", "phone": "2763561847", "website_url": "http://www.clinchriverbrewing.com", "state": "Tennessee", "street": "2045 Norris Freeway"}, {"id": "a4f67a90-e30b-4e7b-949c-1ab62077742c", "name": "Clock House Brewing", "brewery_type": "micro", "address_1": "600 1st St SE", "address_2": null, "address_3": null, "city": "Cedar Rapids", "state_province": "Iowa", "postal_code": "52401", "country": "United States", "longitude": "-91.665354", "latitude": "41.973813", "phone": "3192004099", "website_url": "http://www.clockhousebrewing.com", "state": "Iowa", "street": "600 1st St SE"}, {"id": "80315299-debd-4568-8975-a06f1d0038f3", "name": "Clockwerks Brewing", "brewery_type": "brewpub", "address_1": "25 N 4th St", "address_2": null, "address_3": null, "city": "Minneapolis", "state_province": "Minnesota", "postal_code": "55401-1719", "country": "United States", "longitude": "-93.27195031", "latitude": "44.98071827", "phone": "6123399375", "website_url": "http://www.clockwerksbrewing.com", "state": "Minnesota", "street": "25 N 4th St"}, {"id": "beccac0a-ce7c-420f-a548-67ce2b84d7eb", "name": "Cloud 9 Brewery", "brewery_type": "brewpub", "address_1": "1750 W State St", "address_2": null, "address_3": null, "city": "Boise", "state_province": "Idaho", "postal_code": "83702-3923", "country": "United States", "longitude": "-116.2116802", "latitude": "43.62441063", "phone": "2083360681", "website_url": "http://www.cloud9brewery.com", "state": "Idaho", "street": "1750 W State St"}, {"id": "b93ef9fe-5adc-4dae-a5e8-49c94cd7cfd0", "name": "Cloudburst Brewing", "brewery_type": "micro", "address_1": "2116 Western Ave", "address_2": null, "address_3": null, "city": "Seattle", "state_province": "Washington", "postal_code": "98121-2110", "country": "United States", "longitude": "-122.3452717", "latitude": "47.6116138", "phone": "2066026061", "website_url": "http://www.cloudburstbrew.com", "state": "Washington", "street": "2116 Western Ave"}, {"id": "5382a775-e629-49a1-8774-712525404364", "name": "Cloudburst Brewing on Shilshole", "brewery_type": "micro", "address_1": "5456 Shilshole Ave NW", "address_2": null, "address_3": null, "city": "Seattle", "state_province": "Washington", "postal_code": "98107", "country": "United States", "longitude": "-122.3865589", "latitude": "47.66806551", "phone": null, "website_url": "http://www.cloudburstbrew.com", "state": "Washington", "street": "5456 Shilshole Ave NW"}, {"id": "eaed88bf-4da0-43bc-bf43-4ed6299752a3", "name": "Clouds Brewing", "brewery_type": "micro", "address_1": "1233 Front St Ste E", "address_2": null, "address_3": null, "city": "Raleigh", "state_province": "North Carolina", "postal_code": "27609-7534", "country": "United States", "longitude": null, "latitude": null, "phone": "9197474863", "website_url": "http://www.cloudsbrewing.com", "state": "North Carolina", "street": "1233 Front St Ste E"}, {"id": "67e50b38-80ff-431e-a5eb-d9e49db207cf", "name": "Cloverdale Ale Company's Ruth McGowan's Brewpub", "brewery_type": "brewpub", "address_1": "131 E 1st St", "address_2": null, "address_3": null, "city": "Cloverdale", "state_province": "California", "postal_code": "95425-3701", "country": "United States", "longitude": "-123.0165729", "latitude": "38.80532322", "phone": "7078949610", "website_url": "http://www.ruthmcgowansbrewpub.com", "state": "California", "street": "131 E 1st St"}, {"id": "81228a3c-b30b-426b-bbb4-00fcc575e858", "name": "Clubhouse Brewing Company Ltd", "brewery_type": "micro", "address_1": "668 N River Rd NW", "address_2": null, "address_3": null, "city": "Warren", "state_province": "Ohio", "postal_code": "44483", "country": "United States", "longitude": "-80.82676867", "latitude": "41.26602856", "phone": "3305487854", "website_url": null, "state": "Ohio", "street": "668 N River Rd NW"}, {"id": "e55521d5-aded-4bd6-9bed-072d74a2f8c8", "name": "CNB Brewpub", "brewery_type": "planning", "address_1": null, "address_2": null, "address_3": null, "city": "Sarasota", "state_province": "Florida", "postal_code": "34242-3811", "country": "United States", "longitude": null, "latitude": null, "phone": "9418096760", "website_url": null, "state": "Florida", "street": null}, {"id": "e5028c3e-023e-4987-94a5-58ab9ff94fa0", "name": "CO-Brew", "brewery_type": "micro", "address_1": "1133 N Broadway", "address_2": null, "address_3": null, "city": "Denver", "state_province": "Colorado", "postal_code": "80203-2106", "country": "United States", "longitude": null, "latitude": null, "phone": "7204854959", "website_url": "http://www.cobrewdenver.com", "state": "Colorado", "street": "1133 N Broadway"}, {"id": "86dcbf88-9ef0-4f73-a021-330198902ad0", "name": "Coachella Valley Brewing Co", "brewery_type": "micro", "address_1": "30-640 Gunther St", "address_2": null, "address_3": null, "city": "Thousand Palms", "state_province": "California", "postal_code": "92276-2333", "country": "United States", "longitude": "-116.401697", "latitude": "33.826202", "phone": "7603435973", "website_url": "http://www.cvbco.com", "state": "California", "street": "30-640 Gunther St"}, {"id": "29f4510e-d3c3-4166-ab94-ee1879962000", "name": "Coal Country Brewing", "brewery_type": "micro", "address_1": "625 W High St", "address_2": null, "address_3": null, "city": "Ebensburg", "state_province": "Pennsylvania", "postal_code": "15931", "country": "United States", "longitude": "-78.730634", "latitude": "40.485306", "phone": "8144198648", "website_url": "http://www.coalcountrybrewing.net", "state": "Pennsylvania", "street": "625 W High St"}, {"id": "8f9a9b92-eedd-4ca0-9fd6-01299cb0c74e", "name": "Coal Creek TAP", "brewery_type": "micro", "address_1": "108 E Grand Ave", "address_2": null, "address_3": null, "city": "Laramie", "state_province": "Wyoming", "postal_code": "82070-3638", "country": "United States", "longitude": "-105.5952184", "latitude": "41.31105578", "phone": "3074609556", "website_url": "http://www.coalcreektap.com", "state": "Wyoming", "street": "108 E Grand Ave"}, {"id": "3b896acb-c1d6-42e9-add5-2d9fc30ff260", "name": "Coal Mine Ave Brewing Company", "brewery_type": "micro", "address_1": "9719 W Coal Mine Ave Unit A", "address_2": null, "address_3": null, "city": "Littleton", "state_province": "Colorado", "postal_code": "80123-8000", "country": "United States", "longitude": null, "latitude": null, "phone": "7205044866", "website_url": "http://www.coalmineavebrewing.com", "state": "Colorado", "street": "9719 W Coal Mine Ave Unit A"}, {"id": "ee2bb5ba-1f1c-4ba3-9087-3cb9df5f4323", "name": "Coal Tipple Brewery / Kramer Farms", "brewery_type": "micro", "address_1": "1905 Steubenville Rike", "address_2": null, "address_3": null, "city": "Burgettstown", "state_province": "Pennsylvania", "postal_code": "15021", "country": "United States", "longitude": null, "latitude": null, "phone": "7248993344", "website_url": "http://www.coaltipplebrewery.com", "state": "Pennsylvania", "street": "1905 Steubenville Rike"}, {"id": "08155729-56b6-4a82-a43e-5b458dd01c2e", "name": "Coalition Brewing Co", "brewery_type": "closed", "address_1": "2705 SE Ankeny St Ste C", "address_2": null, "address_3": null, "city": "Portland", "state_province": "Oregon", "postal_code": "97214-1817", "country": "United States", "longitude": "-122.6381854", "latitude": "45.5225809", "phone": "5038948080", "website_url": "http://www.coalitionbrewing.com", "state": "Oregon", "street": "2705 SE Ankeny St Ste C"}, {"id": "1c445860-c350-45a3-9550-184e36f4c863", "name": "COAST Brewing Co", "brewery_type": "micro", "address_1": "1250 N 2nd St", "address_2": null, "address_3": null, "city": "North Charleston", "state_province": "South Carolina", "postal_code": "29405-1804", "country": "United States", "longitude": null, "latitude": null, "phone": "8433434727", "website_url": "http://www.coastbrewing.com", "state": "South Carolina", "street": "1250 N 2nd St"}, {"id": "1d3693d3-b9ef-48b5-b76d-4464725c6064", "name": "Coastal Bend Brewing", "brewery_type": "planning", "address_1": null, "address_2": null, "address_3": null, "city": "Corpus Christi", "state_province": "Texas", "postal_code": "78418-6697", "country": "United States", "longitude": null, "latitude": null, "phone": "5126901050", "website_url": "http://www.coastalbendbrewing.com", "state": "Texas", "street": null}, {"id": "8f79511b-78db-4478-980f-82b9219e5916", "name": "Coastal Empire Beer Co", "brewery_type": "micro", "address_1": "79 Ross Rd", "address_2": null, "address_3": null, "city": "Savannah", "state_province": "Georgia", "postal_code": "31405-1660", "country": "United States", "longitude": null, "latitude": null, "phone": "9124287911", "website_url": "http://www.coastalempirebeer.com", "state": "Georgia", "street": "79 Ross Rd"}, {"id": "5b5da0b9-7219-4bcf-a841-ceb5388ef7da", "name": "Coastal Star Brewing Company", "brewery_type": "planning", "address_1": null, "address_2": null, "address_3": null, "city": "Santa Maria", "state_province": "California", "postal_code": "93455-1722", "country": "United States", "longitude": "-120.4358577", "latitude": "34.9531295", "phone": "8053284677", "website_url": "http://www.coastalstarbrewing.com", "state": "California", "street": null}, {"id": "981cd7dd-8130-4eda-899c-70f3a556e1bd", "name": "Cobblehaus Brewing Company", "brewery_type": "micro", "address_1": "1021 5th Ave", "address_2": null, "address_3": null, "city": "Coraopolis", "state_province": "Pennsylvania", "postal_code": "15108-1803", "country": "United States", "longitude": "-80.16333048", "latitude": "40.5174116", "phone": "4122648000", "website_url": "http://www.cobblehauspa.com", "state": "Pennsylvania", "street": "1021 5th Ave"}, {"id": "b757743f-6586-498f-84f0-8d92d0b5ae6e", "name": "Cocoa Beach Brewing Co", "brewery_type": "brewpub", "address_1": "150 N Atlantic Ave", "address_2": null, "address_3": null, "city": "Cocoa Beach", "state_province": "Florida", "postal_code": "32931-2960", "country": "United States", "longitude": "-80.6090792", "latitude": "28.3213572", "phone": "3216132941", "website_url": "http://www.cocoabeachbrewingcompany.com", "state": "Florida", "street": "150 N Atlantic Ave"}, {"id": "c0a80da7-b2b4-4376-824f-dc3e33180948", "name": "Coda Brewing Company", "brewery_type": "planning", "address_1": null, "address_2": null, "address_3": null, "city": "Golden", "state_province": "Colorado", "postal_code": "80401", "country": "United States", "longitude": null, "latitude": null, "phone": "3038956475", "website_url": "http://codabrewing.com", "state": "Colorado", "street": null}, {"id": "c8e457a7-0753-4e02-a20e-cda524635a0e", "name": "Coddington Brewing Co", "brewery_type": "brewpub", "address_1": "210 Coddington Hwy", "address_2": null, "address_3": null, "city": "Middletown", "state_province": "Rhode Island", "postal_code": "02842-4884", "country": "United States", "longitude": "-71.3049167", "latitude": "41.51869514", "phone": "4018476690", "website_url": "https://coddbrew.com", "state": "Rhode Island", "street": "210 Coddington Hwy"}, {"id": "a7ba0514-376a-46d5-9827-230e5467c0bb", "name": "Code Beer Co.", "brewery_type": "micro", "address_1": "200 S Antelope Valley Pkwy", "address_2": null, "address_3": null, "city": "Lincoln", "state_province": "Nebraska", "postal_code": "68510-1016", "country": "United States", "longitude": "-96.69344422", "latitude": "40.8123075", "phone": "4023185888", "website_url": "http://www.codebeer.co", "state": "Nebraska", "street": "200 S Antelope Valley Pkwy"}, {"id": "ac955d91-37e9-4289-890c-5367864962b4", "name": "Coelacanth Brewing", "brewery_type": "micro", "address_1": "760A W 22nd St", "address_2": null, "address_3": null, "city": "Norfolk", "state_province": "Virginia", "postal_code": "23517-1925", "country": "United States", "longitude": "-76.29561292", "latitude": "36.87169977", "phone": "7573836438", "website_url": "http://www.coelacanth.com", "state": "Virginia", "street": "760A W 22nd St"}, {"id": "87b5537d-1ade-42da-9df2-1274eaf3298d", "name": "Cognition Brewing Company", "brewery_type": "micro", "address_1": "113 E Canda St", "address_2": null, "address_3": null, "city": "Ishpeming", "state_province": "Michigan", "postal_code": "49849-1904", "country": "United States", "longitude": "-87.6681955", "latitude": "46.4916806", "phone": "9062042724", "website_url": "http://www.cognitionbrewing.com", "state": "Michigan", "street": "113 E Canda St"}, {"id": "2d069653-3988-44e6-a58e-89de3d646223", "name": "Cognito Brewing Company", "brewery_type": "brewpub", "address_1": "142 W Monroe St", "address_2": null, "address_3": null, "city": "Bangor", "state_province": "Michigan", "postal_code": "49013-1333", "country": "United States", "longitude": "-86.11152208", "latitude": "42.31308099", "phone": "9718088863", "website_url": "http://www.cognitobrewingcompany.com", "state": "Michigan", "street": "142 W Monroe St"}, {"id": "701f40c6-bf18-4462-bac2-003ed612b484", "name": "Cogstone Brewing Co", "brewery_type": "brewpub", "address_1": "3858 Village Seven Rd", "address_2": null, "address_3": null, "city": "Colorado Springs", "state_province": "Colorado", "postal_code": "80917-2801", "country": "United States", "longitude": "-104.75566", "latitude": "38.87959595", "phone": "7194186595", "website_url": "http://www.cogstonebrewing.com", "state": "Colorado", "street": "3858 Village Seven Rd"}, {"id": "81538993-ea66-450c-a41e-6023267081f8", "name": "Cohort Craft Brewery", "brewery_type": "micro", "address_1": "4905 5th Street", "address_2": null, "address_3": null, "city": "Rapid City", "state_province": "South Dakota", "postal_code": "57701-6032", "country": "United States", "longitude": "-103.2166522", "latitude": "44.03542851", "phone": "4023504624", "website_url": "http://www.cohortbrewery.com", "state": "South Dakota", "street": "4905 5th Street"}, {"id": "6d974500-ddaf-4742-8426-da9c7a9e5016", "name": "Coin Toss Brewing Co", "brewery_type": "micro", "address_1": "14214 Fir St Ste H", "address_2": null, "address_3": null, "city": "Oregon City", "state_province": "Oregon", "postal_code": "97045-6837", "country": "United States", "longitude": "-122.5784543", "latitude": "45.33224121", "phone": "5033056220", "website_url": "http://www.cointossbrewing.com", "state": "Oregon", "street": "14214 Fir St Ste H"}, {"id": "ec0384fd-8f69-4853-918d-bbc46329e657", "name": "Cold Crash Brewing", "brewery_type": "closed", "address_1": "4507 48th Ave SW", "address_2": null, "address_3": null, "city": "Seattle", "state_province": "Washington", "postal_code": "98116-4039", "country": "United States", "longitude": "-122.39395", "latitude": "47.56329", "phone": "2064864644", "website_url": "https://www.coldcrashbrewing.com", "state": "Washington", "street": "4507 48th Ave SW"}, {"id": "350327f4-3d45-4c30-9651-349f7d8615ac", "name": "Cold Creek Brewery", "brewery_type": "micro", "address_1": "6 Industrial Dr", "address_2": null, "address_3": null, "city": "Ellington", "state_province": "Connecticut", "postal_code": "06029-2632", "country": "United States", "longitude": "-72.456028", "latitude": "41.9209531", "phone": "8608581900", "website_url": "http://coldcreekbrewery.com", "state": "Connecticut", "street": "6 Industrial Dr"}, {"id": "09a05c1a-a28b-4226-9e8b-6d6925d19bc5", "name": "Cold Fusion Brewing LLC", "brewery_type": "micro", "address_1": "4711 Morton Place Way", "address_2": null, "address_3": null, "city": "Knoxville", "state_province": "Tennessee", "postal_code": "37912-4162", "country": "United States", "longitude": null, "latitude": null, "phone": "8652035948", "website_url": "http://www.facebook.com/ColdFusionBrewery/?ref=bookmarks", "state": "Tennessee", "street": "4711 Morton Place Way"}, {"id": "6214314a-396b-4807-be4f-6033a61341ce", "name": "Cold Harbor Brewing Company", "brewery_type": "micro", "address_1": "108 Milk St Ste 6", "address_2": null, "address_3": null, "city": "Westborough", "state_province": "Massachusetts", "postal_code": "01581-1228", "country": "United States", "longitude": null, "latitude": null, "phone": null, "website_url": "http://www.coldharborbrewing.com", "state": "Massachusetts", "street": "108 Milk St Ste 6"}, {"id": "8adecd1d-7e2e-4724-836a-a13c4d145996", "name": "Cold Iron Brewing", "brewery_type": "micro", "address_1": "104 S Lowell St", "address_2": null, "address_3": null, "city": "Ironwood", "state_province": "Michigan", "postal_code": "49938-2044", "country": "United States", "longitude": "-90.16984913", "latitude": "46.45390575", "phone": "9062857020", "website_url": "http://www.coldironbrewing.com", "state": "Michigan", "street": "104 S Lowell St"}, {"id": "7a5ad53c-84cd-4843-aaf7-6fb870588538", "name": "Cold Spring Brewery", "brewery_type": "micro", "address_1": "733 Seashore Rd", "address_2": null, "address_3": null, "city": "Cape May", "state_province": "New Jersey", "postal_code": "08204-4634", "country": "United States", "longitude": "-74.9127483", "latitude": "38.97816685", "phone": "6098543077", "website_url": "http://www.hcsv.org", "state": "New Jersey", "street": "733 Seashore Rd"}, {"id": "7c7015c0-c7af-41f9-bab3-1cb9e4db0c7f", "name": "Cold Water Brewery and Grill", "brewery_type": "brewpub", "address_1": "2544 Lake Tahoe Blvd", "address_2": null, "address_3": null, "city": "South Lake Tahoe", "state_province": "California", "postal_code": "96150-7707", "country": "United States", "longitude": "-119.986213", "latitude": "38.925231", "phone": "5305444677", "website_url": "http://www.tahoecoldwaterbrewery.com", "state": "California", "street": "2544 Lake Tahoe Blvd"}, {"id": "14e3a304-2a09-4148-b701-db23ca91deb2", "name": "Coldfire Brewing", "brewery_type": "micro", "address_1": "263 Mill St", "address_2": null, "address_3": null, "city": "Eugene", "state_province": "Oregon", "postal_code": "97401-2410", "country": "United States", "longitude": "-123.0864976", "latitude": "44.05674657", "phone": "5415569374", "website_url": "http://www.coldfirebrewing.com", "state": "Oregon", "street": "263 Mill St"}, {"id": "7097997a-1a61-4da8-a549-f823db3a908a", "name": "Cole Street Brewery", "brewery_type": "micro", "address_1": "1627 Cole St", "address_2": null, "address_3": null, "city": "Enumclaw", "state_province": "Washington", "postal_code": "98022-3640", "country": "United States", "longitude": "-121.988911", "latitude": "47.204514", "phone": "2539516656", "website_url": "http://www.colestreetbrew.com", "state": "Washington", "street": "1627 Cole St"}, {"id": "cd33914f-7327-49ec-b05e-9ca93e0d709b", "name": "Coles Road Brewing", "brewery_type": "planning", "address_1": null, "address_2": null, "address_3": null, "city": "Cromwell", "state_province": "Connecticut", "postal_code": "06416-1113", "country": "United States", "longitude": null, "latitude": null, "phone": null, "website_url": "http://ColesRoadBrewing.com", "state": "Connecticut", "street": null}, {"id": "c76631f7-1fa9-4b31-b126-bedd85f363dd", "name": "Colfax Ale Cellar", "brewery_type": "micro", "address_1": "215 S 2nd St", "address_2": null, "address_3": null, "city": "Raton", "state_province": "New Mexico", "postal_code": "87740-3907", "country": "United States", "longitude": "-104.4396637", "latitude": "36.90092538", "phone": "5754459727", "website_url": "Http://www.ColfaxAleCellar.com", "state": "New Mexico", "street": "215 S 2nd St"}, {"id": "ee97bdcf-d7b4-48f3-82a1-7983a370b7b1", "name": "Collection Brewing Company", "brewery_type": "planning", "address_1": null, "address_2": null, "address_3": null, "city": "Raleigh", "state_province": "North Carolina", "postal_code": "27614-8519", "country": "United States", "longitude": null, "latitude": null, "phone": null, "website_url": null, "state": "North Carolina", "street": null}, {"id": "e099a46e-0e6a-4b90-9f77-432fd55ef3f6", "name": "College Point Brewery", "brewery_type": "planning", "address_1": null, "address_2": null, "address_3": null, "city": "College Point", "state_province": "New York", "postal_code": "11356-2715", "country": "United States", "longitude": null, "latitude": null, "phone": null, "website_url": null, "state": "New York", "street": null}, {"id": "c96029a1-cb59-4de2-9a2b-3a8380964bde", "name": "College Street Brewhouse and Pub", "brewery_type": "micro", "address_1": "1940 College Dr", "address_2": null, "address_3": null, "city": "Lake Havasu City", "state_province": "Arizona", "postal_code": "86403-1981", "country": "United States", "longitude": "-114.3475961", "latitude": "34.50754044", "phone": "9288542739", "website_url": null, "state": "Arizona", "street": "1940 College Dr"}, {"id": "98e114d3-a3df-40c9-aab9-dc4d7b0287ce", "name": "Collision Bend Brewing Co", "brewery_type": "brewpub", "address_1": "1250 Old River Rd", "address_2": null, "address_3": null, "city": "Cleveland", "state_province": "Ohio", "postal_code": "44113-1243", "country": "United States", "longitude": "-81.7039719", "latitude": "41.49884829", "phone": "2162737879", "website_url": "http://www.collisionbendbrewery.com", "state": "Ohio", "street": "1250 Old River Rd"}, {"id": "64dc6a70-6169-4a42-9102-c6abf362bb9c", "name": "Colludium Brewery", "brewery_type": "planning", "address_1": null, "address_2": null, "address_3": null, "city": "Hattiesburg", "state_province": "Mississippi", "postal_code": "39401", "country": "United States", "longitude": null, "latitude": null, "phone": "6015202789", "website_url": "http://www.colludiumbrewery.com", "state": "Mississippi", "street": null}, {"id": "ffe2b950-fcdc-4262-afa4-08f4efe138d7", "name": "Collusion Tap Works", "brewery_type": "brewpub", "address_1": "105 S Howard St", "address_2": null, "address_3": null, "city": "York", "state_province": "Pennsylvania", "postal_code": "17401-2001", "country": "United States", "longitude": "-76.72393735", "latitude": "39.9618357", "phone": "7178488400", "website_url": "http://www.collusiontapworks.com", "state": "Pennsylvania", "street": "105 S Howard St"}, {"id": "ad5ab314-fdc4-4f12-a3d5-6fbb4f8ed7a3", "name": "Colonsay Ales", "brewery_type": "micro", "address_1": "Colonsay Brewery", "address_2": "Dunoran", "address_3": "Scalasaig", "city": "Isle of Colonsay", "state_province": "Argyll", "postal_code": "PA61 7YZ", "country": "Scotland", "longitude": "-6.2600129", "latitude": "56.0703454", "phone": "1951200190", "website_url": "https://colonsaybrewery.co.uk/", "state": "Argyll", "street": "Colonsay Brewery"}, {"id": "6d861790-9ecf-490c-80b5-418ff488de5d", "name": "Colorado Boy Pizzeria", "brewery_type": "brewpub", "address_1": "320 E Main St", "address_2": null, "address_3": null, "city": "Montrose", "state_province": "Colorado", "postal_code": "81401-3928", "country": "United States", "longitude": "-107.877366", "latitude": "38.47887872", "phone": "9702402790", "website_url": "http://www.coloradoboy.com", "state": "Colorado", "street": "320 E Main St"}, {"id": "c0b1eb89-c49e-4506-88b7-a0c17c3e2243", "name": "Colorado Boy Pub & Brewery", "brewery_type": "brewpub", "address_1": "602 Clinton St.", "address_2": null, "address_3": null, "city": "Ridgway", "state_province": "Colorado", "postal_code": "81432-0877", "country": "United States", "longitude": "-107.7577685", "latitude": "38.152358", "phone": "9706265333", "website_url": "http://www.coloradoboy.com", "state": "Colorado", "street": "602 Clinton St."}, {"id": "aaf6059a-1d65-4e9f-9b58-bb23474087da", "name": "Colorado Farm Brewery", "brewery_type": "micro", "address_1": "2070 County Road 12 S", "address_2": null, "address_3": null, "city": "Alamosa", "state_province": "Colorado", "postal_code": "81101-9116", "country": "United States", "longitude": "-105.9855918", "latitude": "37.40026048", "phone": "7195800051", "website_url": "http://www.cofarmbeer.com", "state": "Colorado", "street": "2070 County Road 12 S"}, {"id": "ced7171c-5a4d-451b-9f7a-a8d9dc5a8ebc", "name": "Colorado Mountain Brewery", "brewery_type": "micro", "address_1": "1110 Interquest Pkwy", "address_2": null, "address_3": null, "city": "Colorado Springs", "state_province": "Colorado", "postal_code": "80921-4182", "country": "United States", "longitude": "-104.8083989", "latitude": "38.99103716", "phone": "7192717951", "website_url": "http://www.cmbrew.com", "state": "Colorado", "street": "1110 Interquest Pkwy"}, {"id": "092060be-42d8-4b37-8d91-d364b37109ea", "name": "Colorado Mountain Brewery At the Roundhouse", "brewery_type": "brewpub", "address_1": "600 S 21st St Unit 180", "address_2": null, "address_3": null, "city": "Colorado Springs", "state_province": "Colorado", "postal_code": "80904-3714", "country": "United States", "longitude": null, "latitude": null, "phone": "7194668240", "website_url": "http://www.cmbrew.com", "state": "Colorado", "street": "600 S 21st St Unit 180"}, {"id": "f589e0ef-f14c-4a54-9745-c8f2ce1d5a53", "name": "Colorado Plus", "brewery_type": "brewpub", "address_1": "6995 W 38th Ave", "address_2": null, "address_3": null, "city": "Wheat Ridge", "state_province": "Colorado", "postal_code": "80033-4965", "country": "United States", "longitude": "-105.0916384", "latitude": "39.7693524", "phone": "3038775957", "website_url": "http://coloradoplus.net", "state": "Colorado", "street": "6995 W 38th Ave"}, {"id": "19199c69-60da-4683-a8ef-242e4d76bdf3", "name": "Columbia Craft Brewing Company", "brewery_type": "brewpub", "address_1": "520 Greene St", "address_2": null, "address_3": null, "city": "Columbia", "state_province": "South Carolina", "postal_code": "29201-3612", "country": "United States", "longitude": "-81.04200957", "latitude": "33.99236663", "phone": "8037996027", "website_url": "http://www.columbiacraft.com", "state": "South Carolina", "street": "520 Greene St"}, {"id": "efa39c35-5c38-490a-bd58-186a75a6ab61", "name": "Columbia Kettle Works", "brewery_type": "brewpub", "address_1": "40 N 3rd St", "address_2": null, "address_3": null, "city": "Columbia", "state_province": "Pennsylvania", "postal_code": "17512-1104", "country": "United States", "longitude": "-76.50358705", "latitude": "40.03264918", "phone": "7173422374", "website_url": "http://www.columbiakettleworks.com", "state": "Pennsylvania", "street": "40 N 3rd St"}, {"id": "da404ea3-c676-4894-b0db-eafe6df0e76e", "name": "Columbia River Brewing Co", "brewery_type": "brewpub", "address_1": "1728 NE 40th Ave", "address_2": null, "address_3": null, "city": "Portland", "state_province": "Oregon", "postal_code": "97212-5306", "country": "United States", "longitude": "-122.6217524", "latitude": "45.5357321", "phone": "5039436157", "website_url": "http://www.columbiariverbrewpub.com", "state": "Oregon", "street": "1728 NE 40th Ave"}, {"id": "d1fed527-6586-44e0-a8e4-cf5e10b4bb9c", "name": "Columbia Valley Brewing", "brewery_type": "micro", "address_1": "538 Riverside Dr", "address_2": null, "address_3": null, "city": "Wenatchee", "state_province": "Washington", "postal_code": "98801-6133", "country": "United States", "longitude": "-120.3140272", "latitude": "47.43353015", "phone": "5098889993", "website_url": "http://www.columbiavalleybrewing.com", "state": "Washington", "street": "538 Riverside Dr"}, {"id": "bbcde627-f506-4691-952b-2cf82d65addd", "name": "Columbus Brewing Co", "brewery_type": "regional", "address_1": "2555 Harrison Rd", "address_2": null, "address_3": null, "city": "Columbus", "state_province": "Ohio", "postal_code": "43204-3511", "country": "United States", "longitude": "-83.0692897", "latitude": "39.9675898", "phone": "6142243626", "website_url": "http://www.columbusbrewing.com", "state": "Ohio", "street": "2555 Harrison Rd"}, {"id": "6cc3bad6-987e-4b2b-87cf-a54860eabb33", "name": "Columbus House Brewery", "brewery_type": "micro", "address_1": "701 W North St", "address_2": null, "address_3": null, "city": "Fayetteville", "state_province": "Arkansas", "postal_code": "72701-1865", "country": "United States", "longitude": "-94.16886854", "latitude": "36.0771652", "phone": "4799353752", "website_url": null, "state": "Arkansas", "street": "701 W North St"}, {"id": "44892f34-eb78-4fc3-ace4-80a59ca7236b", "name": "Comanche Creek Brewing Co", "brewery_type": "micro", "address_1": "225 Comanche Creek Road", "address_2": null, "address_3": null, "city": "Eagle Nest", "state_province": "New Mexico", "postal_code": "87718", "country": "United States", "longitude": null, "latitude": null, "phone": "5753772337", "website_url": "http://www.comanchecreekbrewingco.com", "state": "New Mexico", "street": "225 Comanche Creek Road"}, {"id": "e6bce769-14cc-4451-b15e-789526980662", "name": "Combustion Brewery", "brewery_type": "micro", "address_1": "80 W Church St Ste 101", "address_2": null, "address_3": null, "city": "Pickerington", "state_province": "Ohio", "postal_code": "43147-1484", "country": "United States", "longitude": null, "latitude": null, "phone": "6143628450", "website_url": "http://www.combustionbrewing.com", "state": "Ohio", "street": "80 W Church St Ste 101"}, {"id": "1b88bddd-2c59-40db-b4de-91da36b0db0f", "name": "Common Block Brewing Company", "brewery_type": "contract", "address_1": "315 E 5th Street", "address_2": null, "address_3": null, "city": "Medford", "state_province": "Oregon", "postal_code": "97501", "country": "United States", "longitude": "-122.872489", "latitude": "42.32896155", "phone": "5413262277", "website_url": "http://www.commonblockbrewing.com", "state": "Oregon", "street": "315 E 5th Street"}, {"id": "2b4c2853-9c07-49c6-a9bc-4953a248a6e3", "name": "Common Bond Brewers, LLC", "brewery_type": "micro", "address_1": "424 Bibb Street Suite 150", "address_2": null, "address_3": null, "city": "Montgomery", "state_province": "Alabama", "postal_code": "36104", "country": "United States", "longitude": null, "latitude": null, "phone": "3346762292", "website_url": "http://www.commonbondbrewers.com", "state": "Alabama", "street": "424 Bibb Street Suite 150"}, {"id": "ea4549e2-a9e1-42db-a431-2e6299712c50", "name": "Common John Brewing Co", "brewery_type": "planning", "address_1": null, "address_2": null, "address_3": null, "city": "Manchester", "state_province": "Tennessee", "postal_code": "37355-6064", "country": "United States", "longitude": null, "latitude": null, "phone": "9314090630", "website_url": "http://www.commonjohnbc.com", "state": "Tennessee", "street": null}, {"id": "27deece5-5ab9-4506-9b46-33f0a44fc8b4", "name": "Common Roots Brewing Company", "brewery_type": "micro", "address_1": "58 Saratoga Ave", "address_2": null, "address_3": null, "city": "South Glens Falls", "state_province": "New York", "postal_code": "12803-4837", "country": "United States", "longitude": null, "latitude": null, "phone": "5184098248", "website_url": "http://www.commonrootsbrewing.com", "state": "New York", "street": "58 Saratoga Ave"}, {"id": "986f0534-cf91-42e9-ac9c-7a481baf74e1", "name": "Common Sense Brewing", "brewery_type": "micro", "address_1": "102 Farnsworth Ave", "address_2": null, "address_3": null, "city": "Bordentown", "state_province": "New Jersey", "postal_code": "08505-1308", "country": "United States", "longitude": "-74.71372844", "latitude": "40.14847167", "phone": "6095268651", "website_url": "http://www.commonsensebrewing.com", "state": "New Jersey", "street": "102 Farnsworth Ave"}, {"id": "be75d031-fb04-4805-9de2-962ea65fe830", "name": "Common Space Brewery", "brewery_type": "micro", "address_1": "3411 W El Segundo Blvd", "address_2": null, "address_3": null, "city": "Hawthorne", "state_province": "California", "postal_code": "90250-4816", "country": "United States", "longitude": "-118.3328574", "latitude": "33.91653119", "phone": "3106662825", "website_url": "http://www.commonspace.la", "state": "California", "street": "3411 W El Segundo Blvd"}, {"id": "e99f22dd-9f82-4a46-9666-dbf81cec179f", "name": "Commoners Brewing Company", "brewery_type": "micro", "address_1": "1048 Copperfield Blvd Ste 101", "address_2": null, "address_3": null, "city": "Concord", "state_province": "North Carolina", "postal_code": "28025", "country": "United States", "longitude": null, "latitude": null, "phone": "7048866002", "website_url": "http://www.commonersbrewingcompany.com", "state": "North Carolina", "street": "1048 Copperfield Blvd Ste 101"}, {"id": "ef9f8a53-3e7e-4d5b-acb1-82692306aa19", "name": "Commonhouse Ales", "brewery_type": "micro", "address_1": "535 Short St", "address_2": null, "address_3": null, "city": "Columbus", "state_province": "Ohio", "postal_code": "43215-5614", "country": "United States", "longitude": "-83.00367741", "latitude": "39.95045334", "phone": "6142530272", "website_url": "http://www.commonhouseales.com", "state": "Ohio", "street": "535 Short St"}, {"id": "8566eecd-9030-4cd7-9b06-5202a6b4e7c2", "name": "Commonhouse Aleworks", "brewery_type": "micro", "address_1": "4831 Ohear Ave", "address_2": null, "address_3": null, "city": "North Charleston", "state_province": "South Carolina", "postal_code": "29405-4925", "country": "United States", "longitude": "-79.9755638", "latitude": "32.88299711", "phone": "8436081331", "website_url": "http://www.commonhousealeworks.com", "state": "South Carolina", "street": "4831 Ohear Ave"}, {"id": "99a4ae42-941c-455f-a6c7-f37276961d4e", "name": "Commonwealth Brewing Co.", "brewery_type": "micro", "address_1": "2444 Pleasure House Rd", "address_2": null, "address_3": null, "city": "Virginia Beach", "state_province": "Virginia", "postal_code": "23455-1348", "country": "United States", "longitude": "-76.1318655", "latitude": "36.9135253", "phone": "7573059652", "website_url": "http://www.commonwealthbrewco.com", "state": "Virginia", "street": "2444 Pleasure House Rd"}, {"id": "ff07eef9-fd76-4909-9f8b-e3d690dab516", "name": "Community Beer Co", "brewery_type": "regional", "address_1": "1530 Inspiration Dr # 200", "address_2": null, "address_3": null, "city": "Dallas", "state_province": "Texas", "postal_code": "75207-3703", "country": "United States", "longitude": "-96.81658792", "latitude": "32.79177896", "phone": null, "website_url": null, "state": "Texas", "street": "1530 Inspiration Dr # 200"}, {"id": "9d79e9ce-34c7-4232-b9b6-f218a0fdfde6", "name": "Community Beer Works", "brewery_type": "micro", "address_1": "15 Lafayette Ave", "address_2": null, "address_3": null, "city": "Buffalo", "state_province": "New York", "postal_code": "14213-1344", "country": "United States", "longitude": "-78.8980697", "latitude": "42.9198446", "phone": "7167594677", "website_url": "http://www.communitybeerworks.com", "state": "New York", "street": "15 Lafayette Ave"}, {"id": "5eaaf2e2-d018-49d9-96fb-b9792b7f0576", "name": "Compadre Brewing", "brewery_type": "planning", "address_1": null, "address_2": null, "address_3": null, "city": "Aound Rock", "state_province": "Texas", "postal_code": "78660", "country": "United States", "longitude": null, "latitude": null, "phone": "3615103472", "website_url": "http://www.compadrebrewing.com", "state": "Texas", "street": null}, {"id": "15a2144f-9a86-48fd-9fc4-5c450fd828fd", "name": "Company Brewing Co", "brewery_type": "brewpub", "address_1": "735 E Center St", "address_2": null, "address_3": null, "city": "Milwaukee", "state_province": "Wisconsin", "postal_code": "53212-2944", "country": "United States", "longitude": "-87.90182086", "latitude": "43.0672919", "phone": "4149300909", "website_url": null, "state": "Wisconsin", "street": "735 E Center St"}, {"id": "07e76f00-bcbc-4134-a322-679dbcc0b8ec", "name": "Compass Rose", "brewery_type": "micro", "address_1": "3201 Northside Dr, Ste. 101", "address_2": null, "address_3": null, "city": "Raleigh", "state_province": "North Carolina", "postal_code": "27615-4126", "country": "United States", "longitude": "-78.582171", "latitude": "35.883411", "phone": "9198755683", "website_url": "http://www.compassrosebrewery.com", "state": "North Carolina", "street": "3201 Northside Dr, Ste. 101"}, {"id": "e0b5cb85-eab8-400f-85b7-95a600e7740b", "name": "Component Brewing Co", "brewery_type": "micro", "address_1": "2018 S 1st St Ste 207", "address_2": null, "address_3": null, "city": "Milwaukee", "state_province": "Wisconsin", "postal_code": "53207", "country": "United States", "longitude": null, "latitude": null, "phone": "4149791088", "website_url": "http://www.componentbrewing.com", "state": "Wisconsin", "street": "2018 S 1st St Ste 207"}, {"id": "828523e3-2c37-43f8-bcda-31932e088de0", "name": "Comrade Brewing Company", "brewery_type": "micro", "address_1": "7667 E Iliff Ave Ste F", "address_2": null, "address_3": null, "city": "Denver", "state_province": "Colorado", "postal_code": "80231-5361", "country": "United States", "longitude": null, "latitude": null, "phone": "7207480700", "website_url": "http://comradebrewing.com", "state": "Colorado", "street": "7667 E Iliff Ave Ste F"}, {"id": "6c091b85-b347-4bdf-994a-6f1bdd0d9461", "name": "Conclave Brewing", "brewery_type": "micro", "address_1": "15 Minneakoning Rd Ste 202", "address_2": null, "address_3": null, "city": "Flemington", "state_province": "New Jersey", "postal_code": "08822-5750", "country": "United States", "longitude": "-74.842079", "latitude": "40.53132933", "phone": "9083920893", "website_url": "http://www.conclavebrewing.com", "state": "New Jersey", "street": "15 Minneakoning Rd Ste 202"}, {"id": "fecd5791-19fe-43ae-b618-3ddf1e3d9761", "name": "Concord Craft Brewery", "brewery_type": "micro", "address_1": "117 Storrs St", "address_2": null, "address_3": null, "city": "Concord", "state_province": "New Hampshire", "postal_code": "03301-4839", "country": "United States", "longitude": "-71.534205", "latitude": "43.204108", "phone": "6038567625", "website_url": "http://www.concordcraftbrewing.com", "state": "New Hampshire", "street": "117 Storrs St"}, {"id": "048b7e46-aa54-4397-8f42-93b9fd2cd93c", "name": "Concrete Beach Brewery", "brewery_type": "micro", "address_1": "325 NW 24th St", "address_2": null, "address_3": null, "city": "Miami", "state_province": "Florida", "postal_code": "33127-4325", "country": "United States", "longitude": "-80.20091709", "latitude": "25.800254", "phone": "3057962727", "website_url": "http://www.concretebeachbrewery.com/", "state": "Florida", "street": "325 NW 24th St"}, {"id": "260ec59d-2c3d-4fb1-957b-ec0a6d2cee5a", "name": "Coney Island Beer", "brewery_type": "micro", "address_1": "1904 Surf Ave", "address_2": null, "address_3": null, "city": "Brooklyn", "state_province": "New York", "postal_code": "11224-2410", "country": "United States", "longitude": "-73.98572367", "latitude": "40.57502661", "phone": "8184518452", "website_url": "http://www.coneyislandbeer.com", "state": "New York", "street": "1904 Surf Ave"}, {"id": "5447d888-e88c-4480-9258-a649dbd94cdd", "name": "Confluence Brewing Co", "brewery_type": "micro", "address_1": "1235 Thomas Beck Rd Ste A", "address_2": null, "address_3": null, "city": "Des Moines", "state_province": "Iowa", "postal_code": "50315-1055", "country": "United States", "longitude": "-93.6324853", "latitude": "41.5681381", "phone": "5152859005", "website_url": "http://www.confluencebrewing.com", "state": "Iowa", "street": "1235 Thomas Beck Rd Ste A"}, {"id": "4ee8dcea-2193-4a19-bd89-15e6e5591ca4", "name": "Conflux Brewing", "brewery_type": "planning", "address_1": null, "address_2": null, "address_3": null, "city": "Missoula", "state_province": "Montana", "postal_code": "59802-4418", "country": "United States", "longitude": null, "latitude": null, "phone": null, "website_url": null, "state": "Montana", "street": null}, {"id": "4f1c4d66-e46d-46bf-97e9-ed62f2355058", "name": "ConfluxCity Brewing Company", "brewery_type": "micro", "address_1": "110 N Water St", "address_2": null, "address_3": null, "city": "Portland", "state_province": "Michigan", "postal_code": "48875", "country": "United States", "longitude": "-84.90321484", "latitude": "42.87142429", "phone": "5175269091", "website_url": "http://www.confluxcitybrew.com", "state": "Michigan", "street": "110 N Water St"}, {"id": "e75b5599-7133-4cb8-ab49-0048d0f4443a", "name": "Congregation Ales", "brewery_type": "micro", "address_1": "619 N Azusa Ave Ste C", "address_2": null, "address_3": null, "city": "Azusa", "state_province": "California", "postal_code": "91702-2910", "country": "United States", "longitude": "-117.9077193", "latitude": "34.13260803", "phone": "6263342337", "website_url": "http://www.congregationalehouse.com", "state": "California", "street": "619 N Azusa Ave Ste C"}, {"id": "34f16f3a-223b-4c32-9729-634f90e7275f", "name": "Connecticut Valley Brewing Company", "brewery_type": "micro", "address_1": "765 Sullivan Ave", "address_2": null, "address_3": null, "city": "South Windsor", "state_province": "Connecticut", "postal_code": "06074-1945", "country": "United States", "longitude": "-72.57147904", "latitude": "41.84872829", "phone": "8606442707", "website_url": "http://www.ctvalleybrewing.com", "state": "Connecticut", "street": "765 Sullivan Ave"}, {"id": "dc8fb319-acd5-4342-a3f1-bfaeddd2107e", "name": "Conner Fields Brewing", "brewery_type": "brewpub", "address_1": "121 SW H St", "address_2": null, "address_3": null, "city": "Grants Pass", "state_province": "Oregon", "postal_code": "97526-2505", "country": "United States", "longitude": "-123.3284921", "latitude": "42.43842401", "phone": "5415082337", "website_url": "http://www.connerfields.com", "state": "Oregon", "street": "121 SW H St"}, {"id": "469a31a8-89e0-49be-9bde-62b45673e040", "name": "Conny Creek Brewing Co", "brewery_type": "micro", "address_1": "4323 Shearsburg Rd", "address_2": null, "address_3": null, "city": "New Kensington", "state_province": "Pennsylvania", "postal_code": "15068-6845", "country": "United States", "longitude": null, "latitude": null, "phone": null, "website_url": "http://www.facebook.com/ConnyCreekBrewing/", "state": "Pennsylvania", "street": "4323 Shearsburg Rd"}, {"id": "a05beba6-5429-43ed-8bd2-df1075116219", "name": "Conquest Brewing Co.", "brewery_type": "micro", "address_1": "947 S Stadium Rd", "address_2": null, "address_3": null, "city": "Columbia", "state_province": "South Carolina", "postal_code": "29201-4724", "country": "United States", "longitude": "-81.02382212", "latitude": "33.97100882", "phone": "8037123063", "website_url": "http://www.conquestbrewing.com", "state": "South Carolina", "street": "947 S Stadium Rd"}, {"id": "ff77cd4b-5573-4fce-a1af-bd454e814fd4", "name": "Conshohocken Brewing - Bridgeport", "brewery_type": "brewpub", "address_1": "3 DeKalb St", "address_2": null, "address_3": null, "city": "Bridgeport", "state_province": "Pennsylvania", "postal_code": "19405-1074", "country": "United States", "longitude": "-75.3467908", "latitude": "40.1057904", "phone": null, "website_url": "http://www.conshohockenbrewing.com", "state": "Pennsylvania", "street": "3 DeKalb St"}, {"id": "4aa64271-2075-4f5c-8c6b-4e9982852d1a", "name": "Conshohocken Brewing Co.", "brewery_type": "brewpub", "address_1": "739 E Elm St Ste B", "address_2": null, "address_3": null, "city": "Conshohocken", "state_province": "Pennsylvania", "postal_code": "19428-2301", "country": "United States", "longitude": null, "latitude": null, "phone": "6108978962", "website_url": "http://www.conshohockenbrewing.com", "state": "Pennsylvania", "street": "739 E Elm St Ste B"}, {"id": "9c2b12cc-2909-47a2-8d5e-39fc21ba51d4", "name": "Constantine Brewing Co", "brewery_type": "brewpub", "address_1": "145 S Washington St", "address_2": null, "address_3": null, "city": "Constantine", "state_province": "Michigan", "postal_code": "49042-1047", "country": "United States", "longitude": "-85.66859588", "latitude": "41.84164216", "phone": "2694351230", "website_url": "http://www.constantinebrewingco.com", "state": "Michigan", "street": "145 S Washington St"}, {"id": "9e9d2ed9-ee58-44ce-8694-374196db165e", "name": "Constellation Brands", "brewery_type": "closed", "address_1": "9045 Caroll Way", "address_2": null, "address_3": null, "city": "San Diego", "state_province": "California", "postal_code": "92121", "country": "United States", "longitude": "-117.1578979", "latitude": "32.88808261", "phone": null, "website_url": null, "state": "California", "street": "9045 Caroll Way"}, {"id": "342cfb9f-a0bf-4a4b-a50c-4d66174ed767", "name": "Contrary Brewing Co", "brewery_type": "micro", "address_1": "411 W Mississippi Dr", "address_2": null, "address_3": null, "city": "Muscatine", "state_province": "Iowa", "postal_code": "52761-3150", "country": "United States", "longitude": "-91.05121455", "latitude": "41.41700522", "phone": "5632997894", "website_url": "http://www.contrarybrewing.com", "state": "Iowa", "street": "411 W Mississippi Dr"}, {"id": "bd4d649c-04c2-480a-b08a-1f7b77599a6e", "name": "Conversion Brewing", "brewery_type": "brewpub", "address_1": "833 S Main St", "address_2": null, "address_3": null, "city": "Lebanon", "state_province": "Oregon", "postal_code": "97355-3211", "country": "United States", "longitude": "-122.9070824", "latitude": "44.5247777", "phone": "5412592337", "website_url": "http://www.conversionbrewingcompany.com", "state": "Oregon", "street": "833 S Main St"}, {"id": "7526c8dc-2807-49a7-a518-96fc77c78f8a", "name": "Conyngham Brewing Company", "brewery_type": "micro", "address_1": "309 Main St", "address_2": null, "address_3": null, "city": "Conyngham", "state_province": "Pennsylvania", "postal_code": "18219-0910", "country": "United States", "longitude": "-76.0585835", "latitude": "40.9922807", "phone": "5707105752", "website_url": "http://www.conynghambrewing.com", "state": "Pennsylvania", "street": "309 Main St"}, {"id": "2e6814a0-f256-4825-8f63-edad88ba3736", "name": "Cool Beerwerks", "brewery_type": "brewpub", "address_1": "5020 Ellinghouse Dr", "address_2": null, "address_3": null, "city": "Cool", "state_province": "California", "postal_code": "95614-9569", "country": "United States", "longitude": "-121.0145495", "latitude": "38.88649696", "phone": "5308855866", "website_url": "http://www.cbwbeer.com", "state": "California", "street": "5020 Ellinghouse Dr"}, {"id": "6e971ebb-6b06-41a0-befc-d67e9d0a16d7", "name": "Cool Springs Brewery", "brewery_type": "brewpub", "address_1": "600A Frazier Dr Ste 135", "address_2": null, "address_3": null, "city": "Franklin", "state_province": "Tennessee", "postal_code": "37067-4677", "country": "United States", "longitude": "-86.820912", "latitude": "35.944623", "phone": "6155039626", "website_url": "http://www.coolspringsbrewery.com", "state": "Tennessee", "street": "600A Frazier Dr Ste 135"}, {"id": "c8a69d07-794b-45fc-8269-14cafaadde50", "name": "Cooling Pond Brewery", "brewery_type": "planning", "address_1": null, "address_2": null, "address_3": null, "city": "Mineral", "state_province": "Virginia", "postal_code": "23117", "country": "United States", "longitude": null, "latitude": null, "phone": "5409055430", "website_url": null, "state": "Virginia", "street": null}, {"id": "84b769ca-926a-4fc5-a1dc-f7cdce4eea06", "name": "COOP Ale Works", "brewery_type": "micro", "address_1": "4745 Council Heights Rd", "address_2": null, "address_3": null, "city": "Oklahoma City", "state_province": "Oklahoma", "postal_code": "73179-4600", "country": "United States", "longitude": "-97.65776203", "latitude": "35.4185472", "phone": "4058422667", "website_url": "http://www.coopaleworks.com", "state": "Oklahoma", "street": "4745 Council Heights Rd"}, {"id": "bd647651-c56e-42ad-a5f8-51f1767bb362", "name": "Cooper Landing Brewing Company", "brewery_type": "micro", "address_1": "21879 Sterling Hwy", "address_2": null, "address_3": null, "city": "Cooper Landing", "state_province": "Alaska", "postal_code": "99572", "country": "United States", "longitude": "-149.8478495", "latitude": "60.4952185", "phone": "9075952522", "website_url": "http://www.cooperlandingbrewing.com", "state": "Alaska", "street": "21879 Sterling Hwy"}, {"id": "df6e1686-5503-432e-8604-bc3546bc6374", "name": "Cooper Mountain Ale Works", "brewery_type": "micro", "address_1": "15855 SW Kestrel Ct", "address_2": null, "address_3": null, "city": "Beaverton", "state_province": "Oregon", "postal_code": "97007-9200", "country": "United States", "longitude": "-122.8400333", "latitude": "45.4314259", "phone": "5035807175", "website_url": "http://www.coopermountainaleworks.com", "state": "Oregon", "street": "15855 SW Kestrel Ct"}, {"id": "beb63dd2-5dc8-4774-a77a-5d6819782627", "name": "Cooper River Brewing Company", "brewery_type": "micro", "address_1": "2201-B Mechanic St", "address_2": null, "address_3": null, "city": "Charleston", "state_province": "South Carolina", "postal_code": "29405", "country": "United States", "longitude": "-79.954817", "latitude": "32.817102", "phone": "8434057979", "website_url": "http://www.cooperriverbrewing.com", "state": "South Carolina", "street": "2201-B Mechanic St"}, {"id": "62418a35-3a11-48f5-8b17-69f7cf65de0e", "name": "Cooperage Brewing Co.", "brewery_type": "micro", "address_1": "981 Airway Ct Ste G", "address_2": null, "address_3": null, "city": "Santa Rosa", "state_province": "California", "postal_code": "95403-2049", "country": "United States", "longitude": "-122.7359139", "latitude": "38.47534267", "phone": "7072939787", "website_url": "http://www.cooperagebrewing.com", "state": "California", "street": "981 Airway Ct Ste G"}, {"id": "931e2b28-419d-4a36-9e8e-eca1b849f1a9", "name": "Coopers Cave Ale Co", "brewery_type": "brewpub", "address_1": "2 Sagamore St", "address_2": null, "address_3": null, "city": "Glens Falls", "state_province": "New York", "postal_code": "12801-3179", "country": "United States", "longitude": "-73.6399437", "latitude": "43.3177399", "phone": "5187920007", "website_url": "http://www.cooperscaveale.com", "state": "New York", "street": "2 Sagamore St"}, {"id": "781937cb-face-47db-a452-fc3997cca025", "name": "CooperSmiths Pub and Brewing", "brewery_type": "brewpub", "address_1": "5 Old Town Sq", "address_2": null, "address_3": null, "city": "Fort Collins", "state_province": "Colorado", "postal_code": "80524-2446", "country": "United States", "longitude": "-105.0755188", "latitude": "40.5873784", "phone": "9704980483", "website_url": "http://www.coopersmithspub.com", "state": "Colorado", "street": "5 Old Town Sq"}, {"id": "df6b62fb-899b-4181-a56f-f4c067e9723b", "name": "Cooperstown Brewing Co", "brewery_type": "proprietor", "address_1": "41 Browne St.", "address_2": null, "address_3": null, "city": "Oneonta", "state_province": "New York", "postal_code": "13820", "country": "United States", "longitude": "-75.10942405", "latitude": "42.45118586", "phone": null, "website_url": null, "state": "New York", "street": "41 Browne St."}, {"id": "bad8c409-2e39-4ebc-847c-c74865fa30d6", "name": "Copp Brewery & Winery", "brewery_type": "micro", "address_1": "11 NE 4th Ave", "address_2": null, "address_3": null, "city": "Crystal River", "state_province": "Florida", "postal_code": "34429-4246", "country": "United States", "longitude": "-82.58738072", "latitude": "28.89472626", "phone": "3525649463", "website_url": "http://www.coppbrewery.com", "state": "Florida", "street": "11 NE 4th Ave"}, {"id": "85ad59c1-6545-4ab2-84a4-219d39e47cea", "name": "Copper Brothel Brewery", "brewery_type": "micro", "address_1": "3112 Hwy 83", "address_2": null, "address_3": null, "city": "Sonoita", "state_province": "Arizona", "postal_code": "85637", "country": "United States", "longitude": null, "latitude": null, "phone": "5204056721", "website_url": "http://www.copperbrothelbrewery.com", "state": "Arizona", "street": "3112 Hwy 83"}, {"id": "8a48a9ba-b7ac-4afc-be40-834fa496cb74", "name": "Copper City Brewing Company", "brewery_type": "micro", "address_1": "1111 Oneida St", "address_2": null, "address_3": null, "city": "Rome", "state_province": "New York", "postal_code": "13440-", "country": "United States", "longitude": "-75.43229951", "latitude": "43.20521338", "phone": "3152818987", "website_url": "http://www.coppercitybrewing.com", "state": "New York", "street": "1111 Oneida St"}, {"id": "84379397-fb21-4348-9e5b-d536d31f2ad0", "name": "Copper Club Brewing Co", "brewery_type": "micro", "address_1": "233 E Aspen Ave", "address_2": null, "address_3": null, "city": "Fruita", "state_province": "Colorado", "postal_code": "81521-2205", "country": "United States", "longitude": "-108.7314921", "latitude": "39.1591638", "phone": "9708588318", "website_url": "http://www.copperclubbrew.com", "state": "Colorado", "street": "233 E Aspen Ave"}, {"id": "78c42e60-7bd8-40cf-94c6-9079a36ee84b", "name": "Copper Kettle Brewing Co", "brewery_type": "micro", "address_1": "557 Greenfield Ave", "address_2": null, "address_3": null, "city": "Pittsburgh", "state_province": "Pennsylvania", "postal_code": "15207-1093", "country": "United States", "longitude": "-79.94040826", "latitude": "40.42611867", "phone": null, "website_url": null, "state": "Pennsylvania", "street": "557 Greenfield Ave"}, {"id": "da0cdbd7-87e0-4722-ab5e-018582374a43", "name": "Copper Kettle Brewing Company", "brewery_type": "micro", "address_1": "1338 S Valentia St Ste 100", "address_2": null, "address_3": null, "city": "Denver", "state_province": "Colorado", "postal_code": "80247-2167", "country": "United States", "longitude": null, "latitude": null, "phone": "7204432522", "website_url": "http://www.copperkettledenver.com", "state": "Colorado", "street": "1338 S Valentia St Ste 100"}, {"id": "49cb4f39-b586-4949-911c-a05435c9850f", "name": "Copper Mine Brewing Co", "brewery_type": "micro", "address_1": "3455 S Palo Verde Rd STE 135", "address_2": null, "address_3": null, "city": "Tucson", "state_province": "Arizona", "postal_code": "85713", "country": "United States", "longitude": null, "latitude": null, "phone": "5203336140", "website_url": "http://www.copperminebrewing.com", "state": "Arizona", "street": "3455 S Palo Verde Rd STE 135"}, {"id": "6383b0a3-75af-4db1-9c58-744f9b019426", "name": "Copper State Brewing Co", "brewery_type": "brewpub", "address_1": "313 Dousman St", "address_2": null, "address_3": null, "city": "Green Bay", "state_province": "Wisconsin", "postal_code": "54303-2713", "country": "United States", "longitude": "-88.01916054", "latitude": "44.51896164", "phone": "9204898575", "website_url": "http://www.copperstate.beer", "state": "Wisconsin", "street": "313 Dousman St"}, {"id": "baecf304-6a51-4e6e-a488-4b5ee0e199af", "name": "Copper Trail Brewing Co.", "brewery_type": "micro", "address_1": "410 30th Ave E Ste 103", "address_2": null, "address_3": null, "city": "Alexandria", "state_province": "Minnesota", "postal_code": "56308-4770", "country": "United States", "longitude": null, "latitude": null, "phone": "3202196688", "website_url": "http://www.coppertrailbrewing.com", "state": "Minnesota", "street": "410 30th Ave E Ste 103"}, {"id": "de768791-bb67-44f8-a4f7-db4f26d9f580", "name": "Copper Turret Restaurant and Brewhouse", "brewery_type": "brewpub", "address_1": "17 W Main St", "address_2": null, "address_3": null, "city": "Morrisville", "state_province": "New York", "postal_code": "13408-", "country": "United States", "longitude": "-75.6487902", "latitude": "42.89903413", "phone": "3158257910", "website_url": "http://www.copperturret.com", "state": "New York", "street": "17 W Main St"}, {"id": "1bf9a380-d39f-486b-81b0-96b6c90a413d", "name": "Copperhead Brewery", "brewery_type": "micro", "address_1": "822 N Frazier St", "address_2": null, "address_3": null, "city": "Conroe", "state_province": "Texas", "postal_code": "77301-2305", "country": "United States", "longitude": "-95.46266", "latitude": "30.316443", "phone": "2819196134", "website_url": "http://www.copperheadbrewery.com", "state": "Texas", "street": "822 N Frazier St"}, {"id": "322308d2-d7e1-4faf-84e6-77b5948aaffc", "name": "Copperpoint Brewing Company", "brewery_type": "micro", "address_1": "151 Commerce Rd", "address_2": null, "address_3": null, "city": "Boynton Beach", "state_province": "Florida", "postal_code": "33426-9365", "country": "United States", "longitude": "-80.073376", "latitude": "26.55907743", "phone": null, "website_url": null, "state": "Florida", "street": "151 Commerce Rd"}, {"id": "070be339-1a2e-4ec9-a995-23a55599dc0f", "name": "Coppertail Brewing", "brewery_type": "micro", "address_1": "2601 E 2nd Ave", "address_2": null, "address_3": null, "city": "Tampa", "state_province": "Florida", "postal_code": "33605-5503", "country": "United States", "longitude": "-82.430498", "latitude": "27.956553", "phone": "8132471500", "website_url": "http://www.coppertailbrewing.com", "state": "Florida", "street": "2601 E 2nd Ave"}, {"id": "2810105c-ee25-4e8b-9fc7-4c1042f3434b", "name": "Coppertop Alehouse and Still Works", "brewery_type": "brewpub", "address_1": "220 S Montezuma St", "address_2": null, "address_3": null, "city": "Prescott", "state_province": "Arizona", "postal_code": "86303-4720", "country": "United States", "longitude": "-112.470304", "latitude": "34.53851944", "phone": "9283517712", "website_url": "http://www.coppertopalehouse.com", "state": "Arizona", "street": "220 S Montezuma St"}]