[{"id": "fad0bdb4-e128-4ff5-bd61-d32139d55f7b", "name": "Green Bus Brewing", "brewery_type": "brewpub", "address_1": "206 Eustis Ave SE", "address_2": null, "address_3": null, "city": "Huntsville", "state_province": "Alabama", "postal_code": "35801-4233", "country": "United States", "longitude": "-86.58405136", "latitude": "34.73010503", "phone": "2569902477", "website_url": "http://www.greenbusbrewing.com", "state": "Alabama", "street": "206 Eustis Ave SE"}, {"id": "c9cccb9d-9cba-4a52-a082-b44a4db1551a", "name": "Green Cheek Beer Company", "brewery_type": "micro", "address_1": "2957 Randolph Av unit B", "address_2": null, "address_3": null, "city": "Costa Mesa", "state_province": "California", "postal_code": "92626", "country": "United States", "longitude": "-117.8882255", "latitude": "33.67893714", "phone": "7147604995", "website_url": null, "state": "California", "street": "2957 Randolph Av unit B"}, {"id": "cb8cc1f7-2ec1-47a8-af72-66f44320b4ed", "name": "Green Cheek Beer Company", "brewery_type": "micro", "address_1": "2294 N Batavia St Ste C", "address_2": null, "address_3": null, "city": "Orange", "state_province": "California", "postal_code": "92865-3108", "country": "United States", "longitude": "-117.8639647", "latitude": "33.82585285", "phone": "7149988172", "website_url": null, "state": "California", "street": "2294 N Batavia St Ste C"}, {"id": "0bafd51b-5a8c-4aaf-999c-13065b7014ce", "name": "Green Earth Brewing Company", "brewery_type": "micro", "address_1": "725 10th St Unit A", "address_2": null, "address_3": null, "city": "Greeley", "state_province": "Colorado", "postal_code": "80631-1139", "country": "United States", "longitude": null, "latitude": null, "phone": "9707022332", "website_url": "http://www.greenearthbrewingco.com", "state": "Colorado", "street": "725 10th St Unit A"}, {"id": "3fece130-900d-4f23-99cc-5b35402a403c", "name": "Green Feet Brewing", "brewery_type": "micro", "address_1": "3669 E 44th St", "address_2": null, "address_3": null, "city": "Tucson", "state_province": "Arizona", "postal_code": "85713-6814", "country": "United States", "longitude": "-110.9232648", "latitude": "32.1843632", "phone": "5209771691", "website_url": "http://www.greenfeetbrewing.com", "state": "Arizona", "street": "3669 E 44th St"}, {"id": "f2a06d1e-b89f-40c2-9a52-938dc502ac9b", "name": "Green Flash Brewing Co", "brewery_type": "regional", "address_1": "6550 Mira Mesa Blvd", "address_2": null, "address_3": null, "city": "San Diego", "state_province": "California", "postal_code": "92121-4100", "country": "United States", "longitude": "-117.113975", "latitude": "32.9167796", "phone": "8586220085", "website_url": "http://www.greenflashbrew.com", "state": "California", "street": "6550 Mira Mesa Blvd"}, {"id": "81bda7fc-e284-4140-b2b0-7d43f5ad9212", "name": "Green Flash Brewing Co", "brewery_type": "closed", "address_1": "1630 P St", "address_2": null, "address_3": null, "city": "Lincoln", "state_province": "Nebraska", "postal_code": "68508-1644", "country": "United States", "longitude": "-96.69768022", "latitude": "40.81481116", "phone": "4029752285", "website_url": null, "state": "Nebraska", "street": "1630 P St"}, {"id": "76e7738e-61bf-472b-8e97-44c5b2f5d2af", "name": "Green Gecko Brewing Co - St. Croix USVI", "brewery_type": "planning", "address_1": null, "address_2": null, "address_3": null, "city": "North Conway", "state_province": "New Hampshire", "postal_code": "03860-3190", "country": "United States", "longitude": null, "latitude": null, "phone": "6038606608", "website_url": null, "state": "New Hampshire", "street": null}, {"id": "467e3456-7b3b-4cc5-abe6-e86460e3473d", "name": "Green Man Brewing Co", "brewery_type": "micro", "address_1": "27 Buxton Ave", "address_2": null, "address_3": null, "city": "Asheville", "state_province": "North Carolina", "postal_code": "28801-4019", "country": "United States", "longitude": "-82.55367153", "latitude": "35.5886249", "phone": "8282525502", "website_url": "http://www.greenmanbrewery.com", "state": "North Carolina", "street": "27 Buxton Ave"}, {"id": "c949181b-f591-4035-b309-e04b5676ecfa", "name": "Green Mountain Beer Company", "brewery_type": "micro", "address_1": "2585 S Lewis Way Unit 110", "address_2": null, "address_3": null, "city": "Lakewood", "state_province": "Colorado", "postal_code": "80227-6560", "country": "United States", "longitude": null, "latitude": null, "phone": "3039860201", "website_url": "http://www.greenmountainbeercompany.com", "state": "Colorado", "street": "2585 S Lewis Way Unit 110"}, {"id": "99d5c421-3198-4d61-98b1-726595c930e2", "name": "Green Oak Brewing", "brewery_type": "brewpub", "address_1": "1427 Wine Country Rd", "address_2": null, "address_3": null, "city": "Prosser", "state_province": "Washington", "postal_code": "99350-1148", "country": "United States", "longitude": "-119.7707374", "latitude": "46.210051", "phone": "5097864922", "website_url": "http://www.whitstranbrewing.com", "state": "Washington", "street": "1427 Wine Country Rd"}, {"id": "6e0bab8b-6adc-4584-b6d1-927c9379fdd6", "name": "Green Room Brewing", "brewery_type": "micro", "address_1": "228 3rd St N", "address_2": null, "address_3": null, "city": "Jacksonville Beach", "state_province": "Florida", "postal_code": "32250-6935", "country": "United States", "longitude": "-81.39230143", "latitude": "30.29033471", "phone": "9042019283", "website_url": "http://www.greenroombrewing.com", "state": "Florida", "street": "228 3rd St N"}, {"id": "113283e7-f702-44d8-b86c-1203b4e20421", "name": "Green Room Burgers & Beer", "brewery_type": "brewpub", "address_1": "4010 Pennsylvania Ave", "address_2": null, "address_3": null, "city": "Kansas City", "state_province": "Missouri", "postal_code": "64111-3010", "country": "United States", "longitude": "-94.5932559", "latitude": "39.0544808", "phone": "8162167682", "website_url": "http://www.greenroomkc.com", "state": "Missouri", "street": "4010 Pennsylvania Ave"}, {"id": "9a1cdb87-cb36-40c3-8f76-3ef7ae24d6d0", "name": "Green Tree Brewery", "brewery_type": "micro", "address_1": "309 N Cody Road", "address_2": null, "address_3": null, "city": "Le Claire", "state_province": "Iowa", "postal_code": "52753", "country": "United States", "longitude": "-90.343376", "latitude": "41.599934", "phone": "5637291164", "website_url": "https://greentreebrewery.com", "state": "Iowa", "street": "309 N Cody Road"}, {"id": "580f1012-2d50-4f18-957e-cad9a534aa79", "name": "Green Wolf Brewing Co", "brewery_type": "micro", "address_1": "315 Main St", "address_2": null, "address_3": null, "city": "Middleburgh", "state_province": "New York", "postal_code": "12122-", "country": "United States", "longitude": "-74.334814", "latitude": "42.598257", "phone": "5188276444", "website_url": "http://www.greenwolfbrew.com", "state": "New York", "street": "315 Main St"}, {"id": "4e4dd1c0-4bfb-45ab-ae2d-33a45e0b6307", "name": "Greenbrier Valley Brewing Co", "brewery_type": "micro", "address_1": "862 Industrial Park Rd Ste A", "address_2": null, "address_3": null, "city": "Maxwelton", "state_province": "West Virginia", "postal_code": "24957", "country": "United States", "longitude": "-79.9614382", "latitude": "39.6272603", "phone": "3045204669", "website_url": "http://www.gvbeer.com", "state": "West Virginia", "street": "862 Industrial Park Rd Ste A"}, {"id": "aca6e2d8-e3b8-4a29-b77b-f5d91b3179dc", "name": "Greenbush Annex", "brewery_type": "micro", "address_1": "5870 Sawyer Rd", "address_2": null, "address_3": null, "city": "Sawyer", "state_province": "Michigan", "postal_code": "49125", "country": "United States", "longitude": "-86.59404729", "latitude": "41.88540971", "phone": null, "website_url": null, "state": "Michigan", "street": "5870 Sawyer Rd"}, {"id": "295e2956-574d-4cf1-a472-2df77d81bbc3", "name": "Greenbush Brewing Co", "brewery_type": "micro", "address_1": "5885 Sawyer Rd", "address_2": null, "address_3": null, "city": "Sawyer", "state_province": "Michigan", "postal_code": "49125-9380", "country": "United States", "longitude": "-86.59431314", "latitude": "41.88557686", "phone": "2694051076", "website_url": "http://greenbushbrewing.com", "state": "Michigan", "street": "5885 Sawyer Rd"}, {"id": "20b1559c-308c-469c-a5d3-91935ed72755", "name": "Greene Growlers", "brewery_type": "brewpub", "address_1": "227 E Diamond Ave", "address_2": null, "address_3": null, "city": "Gaithersburg", "state_province": "Maryland", "postal_code": "20877", "country": "United States", "longitude": "-77.19355584", "latitude": "39.1419364", "phone": "2402616196", "website_url": "http://www.greenegrowlers.com", "state": "Maryland", "street": "227 E Diamond Ave"}, {"id": "a10921c0-aa0f-4ca7-b669-ba0086c3e8a7", "name": "Greenpoint Beer", "brewery_type": "brewpub", "address_1": "7 N 15th St", "address_2": null, "address_3": null, "city": "Brooklyn", "state_province": "New York", "postal_code": "11222-2838", "country": "United States", "longitude": "-73.99607617", "latitude": "40.66893407", "phone": "9177501541", "website_url": "http://www.greenpointbeer.com", "state": "New York", "street": "7 N 15th St"}, {"id": "e3560926-3490-4bdd-a5f3-98383f767703", "name": "Greenport Harbor Brewing Co, LLC", "brewery_type": "brewpub", "address_1": "42155 Main Rd", "address_2": null, "address_3": null, "city": "Peconic", "state_province": "New York", "postal_code": "11958-1502", "country": "United States", "longitude": "-72.4545703", "latitude": "41.0415525", "phone": "6315139019", "website_url": "http://www.harborbrewing.com", "state": "New York", "street": "42155 Main Rd"}, {"id": "6b18f400-a3e7-4ddd-8445-0b21b3974e3c", "name": "Greenspring Brewing Company", "brewery_type": "micro", "address_1": null, "address_2": null, "address_3": null, "city": "Chesapeake Beach", "state_province": "Maryland", "postal_code": "20732-4664", "country": "United States", "longitude": null, "latitude": null, "phone": "4102063918", "website_url": "http://www.greenspringbrewingcompany.com", "state": "Maryland", "street": null}, {"id": "1850dc68-99e4-4ae4-8c66-f31497c9129c", "name": "Greenstar Brewing At Uncommon Ground", "brewery_type": "brewpub", "address_1": "3810 N Clark St", "address_2": null, "address_3": null, "city": "Chicago", "state_province": "Illinois", "postal_code": "60613-2812", "country": "United States", "longitude": "-87.66001045", "latitude": "41.95128495", "phone": "8472198834", "website_url": "http://www.uncommonground.com", "state": "Illinois", "street": "3810 N Clark St"}, {"id": "94009625-38ed-40cc-b7bc-df48ddd75b32", "name": "Greenwood Brewing LLC", "brewery_type": "contract", "address_1": "600 N 4th St Apt 210", "address_2": null, "address_3": null, "city": "Phoenix", "state_province": "Arizona", "postal_code": "85004-4489", "country": "United States", "longitude": null, "latitude": null, "phone": "4802089500", "website_url": "http://www.greenwoodbrews.com", "state": "Arizona", "street": "600 N 4th St Apt 210"}, {"id": "8d234406-06c0-4ae0-8d45-f962b4ef0db0", "name": "Greer Brewing", "brewery_type": "closed", "address_1": "16050 Manchester Rd", "address_2": null, "address_3": null, "city": "Ellisville", "state_province": "Missouri", "postal_code": "63011-2161", "country": "United States", "longitude": "-90.59484652", "latitude": "38.590625", "phone": "6363463979", "website_url": "http://www.greerbrewingco.com", "state": "Missouri", "street": "16050 Manchester Rd"}, {"id": "72ca0074-8bfb-4c8e-93c3-d37f82916ef3", "name": "Grey Sail Brewing Co. LLC", "brewery_type": "micro", "address_1": "63 Canal St", "address_2": null, "address_3": null, "city": "Westerly", "state_province": "Rhode Island", "postal_code": "02891-1552", "country": "United States", "longitude": "-71.832459", "latitude": "41.385011", "phone": "4102127592", "website_url": "http://www.greysailbrewing.com", "state": "Rhode Island", "street": "63 Canal St"}, {"id": "2b05e2fe-cb8a-49c2-ae69-f15c1491a469", "name": "Grey Tower Brewing", "brewery_type": "planning", "address_1": null, "address_2": null, "address_3": null, "city": "Ashburn", "state_province": "Virginia", "postal_code": "20147-5433", "country": "United States", "longitude": null, "latitude": null, "phone": "7032093107", "website_url": null, "state": "Virginia", "street": null}, {"id": "3b4eee5b-3094-46fe-b4df-198617fee502", "name": "Greyhound Brewery ltd", "brewery_type": "micro", "address_1": "Smock Alley", "address_2": null, "address_3": null, "city": "Pulborough", "state_province": "West Sussex", "postal_code": "RH20 2QX", "country": "England", "longitude": "-0.447595", "latitude": "50.942971", "phone": "1798815822", "website_url": "https://www.greyhoundbrewery.co.uk/", "state": "West Sussex", "street": "Smock Alley"}, {"id": "54b5f341-23dd-4c5d-bae9-15c0327c53fe", "name": "Greyline Brewing", "brewery_type": "brewpub", "address_1": "1727 Alpine Ave NW", "address_2": null, "address_3": null, "city": "Grand Rapids", "state_province": "Michigan", "postal_code": "49504-", "country": "United States", "longitude": "-85.68843549", "latitude": "42.99474375", "phone": "6168213786", "website_url": null, "state": "Michigan", "street": "1727 Alpine Ave NW"}, {"id": "252407ae-97a3-4204-a988-911047cd8b28", "name": "Greywolf Brewing", "brewery_type": "planning", "address_1": null, "address_2": null, "address_3": null, "city": "Riverside", "state_province": "California", "postal_code": "92508-9793", "country": "United States", "longitude": "-117.3961623", "latitude": "33.9533546", "phone": null, "website_url": "http://www.greywolfbrewing.com", "state": "California", "street": null}, {"id": "76da7caa-4120-4920-aff5-e85cbf15fbac", "name": "Grid City Beer Works", "brewery_type": "brewpub", "address_1": "333 W 2100 S", "address_2": null, "address_3": null, "city": "Salt Lake City", "state_province": "Utah", "postal_code": "84115-1825", "country": "United States", "longitude": "-111.9008077", "latitude": "40.7250681", "phone": "8019068390", "website_url": "http://www.gridcitybeerworks.com", "state": "Utah", "street": "333 W 2100 S"}, {"id": "33b1bd3c-c543-4855-83a6-d39fc99ce074", "name": "Gridlock Brewing Co", "brewery_type": "contract", "address_1": "2659 Pickfair Lane", "address_2": null, "address_3": null, "city": "Livermore", "state_province": "California", "postal_code": "94551", "country": "United States", "longitude": "-121.7669791", "latitude": "37.69251772", "phone": "4088358794", "website_url": "http://www.gridlockbrewing.com", "state": "California", "street": "2659 Pickfair Lane"}, {"id": "49f6d4fd-9671-4465-8d83-be8b2255d33e", "name": "Griesedieck Brothers Brewery", "brewery_type": "contract", "address_1": "1240 Switzer Ave", "address_2": null, "address_3": null, "city": "Saint Louis", "state_province": "Missouri", "postal_code": "63147-1840", "country": "United States", "longitude": "-90.23498721", "latitude": "38.70903511", "phone": "3143093210", "website_url": "http://www.gb-beer.com", "state": "Missouri", "street": "1240 Switzer Ave"}, {"id": "b421957f-cf1e-4a49-a263-3452c9e1cd61", "name": "Griffin Claw Brewing Co", "brewery_type": "micro", "address_1": "575 S Eton St", "address_2": null, "address_3": null, "city": "Birmingham", "state_province": "Michigan", "postal_code": "48009-6824", "country": "United States", "longitude": "-83.19546429", "latitude": "42.5434572", "phone": null, "website_url": "http://www.griffinclawbrewingcompany.com", "state": "Michigan", "street": "575 S Eton St"}, {"id": "ef0ff365-cdb8-4c4f-b424-081d4a338781", "name": "Griffin Owens Insurance Group", "brewery_type": "planning", "address_1": null, "address_2": null, "address_3": null, "city": "Herndon", "state_province": "Virginia", "postal_code": "20170-4609", "country": "United States", "longitude": null, "latitude": null, "phone": "7034710050", "website_url": "http://www.griffinowens.com", "state": "Virginia", "street": null}, {"id": "bf564705-6478-464b-acb1-04c343cc2ff4", "name": "Griffs Brewery", "brewery_type": "micro", "address_1": "5324 W Ridge Rd", "address_2": null, "address_3": null, "city": "Spencerport", "state_province": "New York", "postal_code": "14559-1101", "country": "United States", "longitude": null, "latitude": null, "phone": "5856173843", "website_url": "http://www.griffsbrewery.com", "state": "New York", "street": "5324 W Ridge Rd"}, {"id": "7872a82c-855e-489f-bb33-82a3f89268a8", "name": "Grillin & Chillin Alehouse", "brewery_type": "brewpub", "address_1": "401 McCray St # B24", "address_2": null, "address_3": null, "city": "Hollister", "state_province": "California", "postal_code": "95023-2225", "country": "United States", "longitude": "-121.398519", "latitude": "36.8518573", "phone": "8316372337", "website_url": "http://www.relaxgrillinchillin.com", "state": "California", "street": "401 McCray St # B24"}, {"id": "40e3e16f-ba2e-4403-8cbd-b7fe50863cb5", "name": "Grimm Artisanal Ales", "brewery_type": "micro", "address_1": "990 Metropolitan Ave", "address_2": null, "address_3": null, "city": "Brooklyn", "state_province": "New York", "postal_code": "11211-2607", "country": "United States", "longitude": "-73.93651911", "latitude": "40.7142757", "phone": null, "website_url": "http://GrimmAles.com", "state": "New York", "street": "990 Metropolitan Ave"}, {"id": "a3efb74a-543d-40a2-8820-44cab4a1492d", "name": "Grimm Brothers Brewhouse, LLC", "brewery_type": "micro", "address_1": "623 Denver Ave", "address_2": null, "address_3": null, "city": "Loveland", "state_province": "Colorado", "postal_code": "80537-5127", "country": "United States", "longitude": null, "latitude": null, "phone": "9706246045", "website_url": "http://www.grimmbeer.com", "state": "Colorado", "street": "623 Denver Ave"}, {"id": "7e5f0162-8ba1-4438-ac08-925878fcd96c", "name": "Grind City Brewing Company", "brewery_type": "micro", "address_1": "76 Waterworks Ave", "address_2": null, "address_3": null, "city": "Memphis", "state_province": "Tennessee", "postal_code": "38107-1806", "country": "United States", "longitude": "-90.0434951", "latitude": "35.1697202", "phone": "9015452337", "website_url": "https://grindcitybrew.com", "state": "Tennessee", "street": "76 Waterworks Ave"}, {"id": "bfca8916-7e6b-4978-ba73-ef4faa3898c9", "name": "Grinder\u00e2\u0080\u0099s High Noon Brewery", "brewery_type": "brewpub", "address_1": "206 Choctaw St", "address_2": null, "address_3": null, "city": "Leavenworth", "state_province": "Kansas", "postal_code": "66048-2821", "country": "United States", "longitude": "-94.91052465", "latitude": "39.31683651", "phone": "9136511000", "website_url": "http://info@grindershighnoon.com", "state": "Kansas", "street": "206 Choctaw St"}, {"id": "6bfe06c9-8741-41b9-b22a-b7a13d649a03", "name": "Grindhaus Brew Lab", "brewery_type": "micro", "address_1": "1650 N Hercules Ave Ste I", "address_2": null, "address_3": null, "city": "Clearwater", "state_province": "Florida", "postal_code": "33765-1969", "country": "United States", "longitude": null, "latitude": null, "phone": "7272400804", "website_url": "http://www.grindhausbrewlab.com", "state": "Florida", "street": "1650 N Hercules Ave Ste I"}, {"id": "34536644-1060-4bd2-8103-b9e8352696fb", "name": "Grist Brewing Company", "brewery_type": "micro", "address_1": "9150 Commerce Center Cir Ste 300", "address_2": null, "address_3": null, "city": "Highlands Ranch", "state_province": "Colorado", "postal_code": "80129-1563", "country": "United States", "longitude": null, "latitude": null, "phone": "703604782", "website_url": "http://gristbrewingcompany.com", "state": "Colorado", "street": "9150 Commerce Center Cir Ste 300"}, {"id": "42e70445-725e-464b-9ab5-68ae743cc256", "name": "Grist Brewing Company - Lone Tree", "brewery_type": "micro", "address_1": "9535 Park Meadows Dr Ste F", "address_2": null, "address_3": null, "city": "Lone Tree", "state_province": "Colorado", "postal_code": "80124", "country": "United States", "longitude": null, "latitude": null, "phone": "3037289394", "website_url": null, "state": "Colorado", "street": "9535 Park Meadows Dr Ste F"}, {"id": "7f4e13ac-9368-4324-81ad-ff4dab388ad6", "name": "Grist House Craft Brewery", "brewery_type": "micro", "address_1": "10 Sherman St", "address_2": null, "address_3": null, "city": "Pittsburgh", "state_province": "Pennsylvania", "postal_code": "15209-2728", "country": "United States", "longitude": null, "latitude": null, "phone": "4124471442", "website_url": "http://www.gristhouse.com", "state": "Pennsylvania", "street": "10 Sherman St"}, {"id": "8bedf283-d3ff-463e-9a7e-1aa4d8f3b491", "name": "Grist Iron Brewing Co.", "brewery_type": "brewpub", "address_1": "4880 State Route 414", "address_2": null, "address_3": null, "city": "Burdett", "state_province": "New York", "postal_code": "14818-9729", "country": "United States", "longitude": null, "latitude": null, "phone": "6078822739", "website_url": "http://www.gristironbrewing.com", "state": "New York", "street": "4880 State Route 414"}, {"id": "6a01fef8-dd06-4ba6-99f8-fca4874e14af", "name": "Gristworkz", "brewery_type": "brewpub", "address_1": "1504 Chapman St", "address_2": null, "address_3": null, "city": "Houston", "state_province": "Texas", "postal_code": "77009", "country": "United States", "longitude": null, "latitude": null, "phone": null, "website_url": "https://www.gristworkz.com/", "state": "Texas", "street": "1504 Chapman St"}, {"id": "89594197-5fd6-4032-842f-429832a52034", "name": "GRITS Brewing", "brewery_type": "planning", "address_1": null, "address_2": null, "address_3": null, "city": "Chamblee", "state_province": "Georgia", "postal_code": "30341-2024", "country": "United States", "longitude": null, "latitude": null, "phone": null, "website_url": null, "state": "Georgia", "street": null}, {"id": "b4d7adbc-50ad-4a81-ba14-1831a1a55b39", "name": "Gritty McDuffs - Freeport", "brewery_type": "brewpub", "address_1": "187 Lower Main St", "address_2": null, "address_3": null, "city": "Freeport", "state_province": "Maine", "postal_code": "04032", "country": "United States", "longitude": null, "latitude": null, "phone": "2078654321", "website_url": "http://www.grittys.com", "state": "Maine", "street": "187 Lower Main St"}, {"id": "22209ec8-d403-44af-9f67-97f08f89c9be", "name": "Gritty McDuffs - Lewiston/Auburn", "brewery_type": "brewpub", "address_1": "68 Main St", "address_2": null, "address_3": null, "city": "Auburn", "state_province": "Maine", "postal_code": "04210-5812", "country": "United States", "longitude": "-70.22448665", "latitude": "44.0971728", "phone": "2073762739", "website_url": null, "state": "Maine", "street": "68 Main St"}, {"id": "0eacb04d-cb09-4f16-83c7-81a7aeefef85", "name": "Gritty McDuffs - Portland", "brewery_type": "brewpub", "address_1": "396 Fore St", "address_2": null, "address_3": null, "city": "Portland", "state_province": "Maine", "postal_code": "04101-4026", "country": "United States", "longitude": "-70.2533609", "latitude": "43.6564108", "phone": "2077722739", "website_url": "http://www.grittys.com", "state": "Maine", "street": "396 Fore St"}, {"id": "8ea7776f-0bc8-445c-8153-7263e2b3124c", "name": "Grixsen Brewing Co", "brewery_type": "closed", "address_1": "1001 SE Division St Ste 1", "address_2": null, "address_3": null, "city": "Portland", "state_province": "Oregon", "postal_code": "97202-1076", "country": "United States", "longitude": "-122.6554541", "latitude": "45.5052337", "phone": "9713473100", "website_url": "http://www.grixsen.com", "state": "Oregon", "street": "1001 SE Division St Ste 1"}, {"id": "91361172-9875-4337-8a10-e12765e47071", "name": "Grizzly Peak Brewing Co", "brewery_type": "brewpub", "address_1": "120 W Washington St Ste 1", "address_2": null, "address_3": null, "city": "Ann Arbor", "state_province": "Michigan", "postal_code": "48104-1356", "country": "United States", "longitude": null, "latitude": null, "phone": "7347417325", "website_url": "http://www.grizzlypeak.net", "state": "Michigan", "street": "120 W Washington St Ste 1"}, {"id": "3ec5bbe4-5c5a-4428-952a-6b1a55e4004b", "name": "Groggs Pinnacle Brewing Co", "brewery_type": "brewpub", "address_1": "1653 Carbonville Rd", "address_2": null, "address_3": null, "city": "Helper", "state_province": "Utah", "postal_code": "84526-2504", "country": "United States", "longitude": "-110.842552", "latitude": "39.625031", "phone": "4356372924", "website_url": "https://www.groggspinnaclebrewing.com", "state": "Utah", "street": "1653 Carbonville Rd"}, {"id": "e0fcd6d9-7845-490d-8ce9-4e26ed33eae5", "name": "Grossen Bart Brewery", "brewery_type": "micro", "address_1": "1025 Delaware Ave Unit A", "address_2": null, "address_3": null, "city": "Longmont", "state_province": "Colorado", "postal_code": "80501-6188", "country": "United States", "longitude": null, "latitude": null, "phone": "7204382060", "website_url": "http://www.grossenbart.com", "state": "Colorado", "street": "1025 Delaware Ave Unit A"}, {"id": "b7e46ca9-3e5c-4f3e-9d53-910889ce0694", "name": "Ground Breaker Brewing", "brewery_type": "brewpub", "address_1": "715 SE Lincoln St", "address_2": null, "address_3": null, "city": "Portland", "state_province": "Oregon", "postal_code": "97214-4600", "country": "United States", "longitude": "-122.6583697", "latitude": "45.50809545", "phone": "5039284195", "website_url": "http://www.harvesterbrewing.com", "state": "Oregon", "street": "715 SE Lincoln St"}, {"id": "e5bd0c69-0309-4696-a031-221df1d49d29", "name": "GroundLion Brewing", "brewery_type": "planning", "address_1": null, "address_2": null, "address_3": null, "city": "Seagrove", "state_province": "North Carolina", "postal_code": "27341-0459", "country": "United States", "longitude": null, "latitude": null, "phone": "9192705112", "website_url": "http://www.groundlionbrewing.com", "state": "North Carolina", "street": null}, {"id": "eb8a316f-dd22-4b9d-9165-8b3d8853f84c", "name": "Groundswell Brewing Co", "brewery_type": "micro", "address_1": "10151 Prospect Ave", "address_2": null, "address_3": null, "city": "Santee", "state_province": "California", "postal_code": "92071-4411", "country": "United States", "longitude": "-116.9644235", "latitude": "32.8310696", "phone": "6107499123", "website_url": "http://www.groundswellbrew.com", "state": "California", "street": "10151 Prospect Ave"}, {"id": "9a4b3e7f-3c66-4d4a-8318-127d957ca2e4", "name": "Grove City Brewing Company", "brewery_type": "brewpub", "address_1": "3946 Broadway", "address_2": null, "address_3": null, "city": "Grove City", "state_province": "Ohio", "postal_code": "43123-2623", "country": "United States", "longitude": null, "latitude": null, "phone": "6149910338", "website_url": "http://www.grovecitybrewingcompany.com", "state": "Ohio", "street": "3946 Broadway"}, {"id": "2bd11bd2-132f-46f8-8e0b-5d3ddb3d2db8", "name": "Grove Roots Brewing", "brewery_type": "micro", "address_1": "302 3rd St SW", "address_2": null, "address_3": null, "city": "Winter Haven", "state_province": "Florida", "postal_code": "33880-3409", "country": "United States", "longitude": "-81.73049326", "latitude": "28.01977247", "phone": "8632910700", "website_url": "http://www.groveroots.com", "state": "Florida", "street": "302 3rd St SW"}, {"id": "a42cdc23-92ae-4234-a13a-86a3c1af3d8d", "name": "Growler Bay Brewing Co", "brewery_type": "planning", "address_1": null, "address_2": null, "address_3": null, "city": "Valdez", "state_province": "Alaska", "postal_code": "99686-3716", "country": "United States", "longitude": "-146.3493638", "latitude": "61.1299396", "phone": "9072555191", "website_url": "https://growlerbaybrewing.com", "state": "Alaska", "street": null}, {"id": "c7f34fa1-738d-46d8-a0b2-663c7096990d", "name": "Growling Bear Brewing Company", "brewery_type": "micro", "address_1": "14051 Crown Ct", "address_2": null, "address_3": null, "city": "Woodbridge", "state_province": "Virginia", "postal_code": "22193-1458", "country": "United States", "longitude": null, "latitude": null, "phone": null, "website_url": null, "state": "Virginia", "street": "14051 Crown Ct"}, {"id": "98a49693-43bc-4f99-99ff-bdb1bd6470b4", "name": "Gruff Brewing Company", "brewery_type": "micro", "address_1": "104 E Maple St # 101", "address_2": null, "address_3": null, "city": "Bellingham", "state_province": "Washington", "postal_code": "98225-5006", "country": "United States", "longitude": "-122.4822547", "latitude": "48.7472243", "phone": "3607340115", "website_url": "http://www.gruff-brewing.com", "state": "Washington", "street": "104 E Maple St # 101"}, {"id": "8a158d9f-026f-4ee4-8941-e78c0c0ec638", "name": "Gruhlke's Microbrewery / Bias Vineyards", "brewery_type": "brewpub", "address_1": "3166 Highway B", "address_2": null, "address_3": null, "city": "Berger", "state_province": "Missouri", "postal_code": "63014-1418", "country": "United States", "longitude": "-91.3352114", "latitude": "38.6769847", "phone": "5738345475", "website_url": "http://www.biaswinery.com", "state": "Missouri", "street": "3166 Highway B"}, {"id": "09c1302b-48d1-4272-bcc6-920e67672c86", "name": "Gruit Brewing", "brewery_type": "micro", "address_1": "200 Anderson St", "address_2": null, "address_3": null, "city": "Portland", "state_province": "Maine", "postal_code": "04101-2562", "country": "United States", "longitude": "-70.255898", "latitude": "43.669074", "phone": "2077738331", "website_url": "http://www.fermentory.com", "state": "Maine", "street": "200 Anderson St"}, {"id": "924b7483-1f85-4ffc-9ef2-0d2697ff8d09", "name": "Grumpy Old Men Brewing", "brewery_type": "micro", "address_1": "1315 E Main St", "address_2": null, "address_3": null, "city": "Blue Ridge", "state_province": "Georgia", "postal_code": "30513-8506", "country": "United States", "longitude": "-84.33050832", "latitude": "34.85747136", "phone": "7703318870", "website_url": "http://www.grumpyoldmenbrewing.com", "state": "Georgia", "street": "1315 E Main St"}, {"id": "8eca212a-08e8-43ae-bbf7-a782408ac247", "name": "Grumpy Troll, The", "brewery_type": "micro", "address_1": "105 S 2nd St", "address_2": null, "address_3": null, "city": "Mount Horeb", "state_province": "Wisconsin", "postal_code": "53572-2105", "country": "United States", "longitude": "-89.73830404", "latitude": "43.00841443", "phone": "6084372739", "website_url": "http://www.thegrumpytroll.com", "state": "Wisconsin", "street": "105 S 2nd St"}, {"id": "413d4838-10b7-466a-b755-d8377a8945f4", "name": "Gruner Brothers Brewing", "brewery_type": "planning", "address_1": null, "address_2": null, "address_3": null, "city": "Casper", "state_province": "Wyoming", "postal_code": "82601-1335", "country": "United States", "longitude": null, "latitude": null, "phone": "3073335110", "website_url": "http://www.grunerbrewing.com", "state": "Wyoming", "street": null}, {"id": "53b5c0a9-2201-4a60-a110-fe1136a658ea", "name": "GSP Craft Brewing", "brewery_type": "closed", "address_1": null, "address_2": null, "address_3": null, "city": "Gig Harbor", "state_province": "Washington", "postal_code": "98332-7918", "country": "United States", "longitude": null, "latitude": null, "phone": "2533281121", "website_url": "http://www.facebook.com/gspcraftbrewing", "state": "Washington", "street": null}, {"id": "8bc95996-c055-43d9-aeec-fc19240e50fb", "name": "Guadalupe Brewery", "brewery_type": "micro", "address_1": "5674 El Camino Real Ste D", "address_2": null, "address_3": null, "city": "Carlsbad", "state_province": "California", "postal_code": "92008-7130", "country": "United States", "longitude": "-117.2735422", "latitude": "33.13885281", "phone": "8587514278", "website_url": "http://www.guadalupebrewery.com", "state": "California", "street": "5674 El Camino Real Ste D"}, {"id": "303a23e1-3cb2-4f20-bfcf-25e82eb122e6", "name": "Guadalupe Brewery", "brewery_type": "micro", "address_1": "168 Rachel Dr", "address_2": null, "address_3": null, "city": "Canyon Lake", "state_province": "Texas", "postal_code": "78133-3527", "country": "United States", "longitude": null, "latitude": null, "phone": "5128789214", "website_url": "http://www.guadalupebrew.com", "state": "Texas", "street": "168 Rachel Dr"}, {"id": "69a152da-143e-4c71-b3aa-e0ffb6c3048e", "name": "Guadalupe Mountain Brewing Company", "brewery_type": "brewpub", "address_1": "3404 National Parks Hwy", "address_2": null, "address_3": null, "city": "Carlsbad", "state_province": "New Mexico", "postal_code": "88220-5349", "country": "United States", "longitude": "-104.2240211", "latitude": "32.3821008", "phone": "5753617761", "website_url": null, "state": "New Mexico", "street": "3404 National Parks Hwy"}, {"id": "8be0f9a4-7c89-4122-ba92-90591ed4aef7", "name": "Guanacaste Brewing LLC", "brewery_type": "planning", "address_1": null, "address_2": null, "address_3": null, "city": "Lorton", "state_province": "Virginia", "postal_code": "22079", "country": "United States", "longitude": null, "latitude": null, "phone": "7038537687", "website_url": "http://www.guanacastebrewingllc.com", "state": "Virginia", "street": null}, {"id": "b35b775a-2b1a-4203-b59c-0ce2e039c48c", "name": "Guanella Pass Brewing Company, LLC", "brewery_type": "micro", "address_1": "501 Rose Street", "address_2": null, "address_3": null, "city": "Georgetown", "state_province": "Colorado", "postal_code": "80444", "country": "United States", "longitude": "-105.697303", "latitude": "39.705772", "phone": "3035695167", "website_url": "http://www.guanellapass.com", "state": "Colorado", "street": "501 Rose Street"}, {"id": "c67959ff-a884-4d4a-be84-a194b410b969", "name": "Guardian Brewing Company", "brewery_type": "planning", "address_1": null, "address_2": null, "address_3": null, "city": "Saugatuck", "state_province": "Michigan", "postal_code": "49453", "country": "United States", "longitude": null, "latitude": null, "phone": "8125213611", "website_url": "http://www.guardianbrewingco.com", "state": "Michigan", "street": null}, {"id": "893c746b-cc59-44c0-8da1-6239d57a3825", "name": "Guggman Haus Brewing Co.", "brewery_type": "planning", "address_1": null, "address_2": null, "address_3": null, "city": "Indianapolis", "state_province": "Indiana", "postal_code": "46202-2158", "country": "United States", "longitude": null, "latitude": null, "phone": "8122302554", "website_url": "http://www.guggmanhausbrewing.com", "state": "Indiana", "street": null}, {"id": "b82b05d8-ca46-4954-b9a9-bb91a98406e5", "name": "Guinness Brewing (Diageo)", "brewery_type": "large", "address_1": "St. James's Gate", "address_2": "Dublin 8", "address_3": null, "city": "Dublin", "state_province": "Dublin", "postal_code": "D08 VF8H", "country": "Ireland", "longitude": "-6.286729743", "latitude": "53.34193275", "phone": "35314084800", "website_url": "https://www.guinness-storehouse.com/en", "state": "Dublin", "street": "St. James's Gate"}, {"id": "577e47da-8542-4261-a4ec-83b99325a42d", "name": "Guinness Open Gate Brewery and Barrel House", "brewery_type": "large", "address_1": "5001 Washington Blvd", "address_2": null, "address_3": null, "city": "Halethorpe", "state_province": "Maryland", "postal_code": "21227-5000", "country": "United States", "longitude": "-76.69843865", "latitude": "39.222265", "phone": "9022663839", "website_url": null, "state": "Maryland", "street": "5001 Washington Blvd"}, {"id": "ed040add-786c-4758-b42a-1ab876837de7", "name": "Gulf Coast Brewery LLC", "brewery_type": "micro", "address_1": "500 E Heinberg St", "address_2": null, "address_3": null, "city": "Pensacola", "state_province": "Florida", "postal_code": "32502-4145", "country": "United States", "longitude": "-87.20552274", "latitude": "30.41799103", "phone": "8506962335", "website_url": "http://www.gulfcoastbrewery.net", "state": "Florida", "street": "500 E Heinberg St"}, {"id": "b096f2f3-c941-418e-9011-f613fecdcd1a", "name": "Gulf Stream Brewing", "brewery_type": "planning", "address_1": null, "address_2": null, "address_3": null, "city": "Fort Lauderdale", "state_province": "Florida", "postal_code": "33304-1802", "country": "United States", "longitude": null, "latitude": null, "phone": "9547664842", "website_url": "http://www.gulfstreambeer.com", "state": "Florida", "street": null}, {"id": "81b4e34e-0bfb-47d8-917c-a057f2bae670", "name": "Gull Dam Brewing, Inc.", "brewery_type": "micro", "address_1": "23836 Smiley Rd", "address_2": null, "address_3": null, "city": "Nisswa", "state_province": "Minnesota", "postal_code": "56468", "country": "United States", "longitude": "-94.29766266", "latitude": "46.49834978", "phone": "2189632739", "website_url": "http://www.gulldambrewing.com", "state": "Minnesota", "street": "23836 Smiley Rd"}, {"id": "0aad28bf-9036-4880-9613-f8a7dcaee10a", "name": "Gun Brewery Ltd", "brewery_type": "micro", "address_1": "Gun Hill", "address_2": null, "address_3": null, "city": "Heathfield", "state_province": "East Sussex", "postal_code": "TN21 0JY", "country": "England", "longitude": "0.222494", "latitude": "50.899245", "phone": "1323700200", "website_url": "https://www.gunbrewery.co.uk/", "state": "East Sussex", "street": "Gun Hill"}, {"id": "21c53c8a-a1c1-4504-9040-a5bd3052c179", "name": "Gun Flint Tavern", "brewery_type": "brewpub", "address_1": "111 W Wisconsin St", "address_2": null, "address_3": null, "city": "Grand Marais", "state_province": "Minnesota", "postal_code": "55604-", "country": "United States", "longitude": "-90.3348245", "latitude": "47.74937733", "phone": "2183872836", "website_url": "http://www.gunflinttavern.com", "state": "Minnesota", "street": "111 W Wisconsin St"}, {"id": "7772fff2-1f62-48bf-8653-cff2a21ccaf6", "name": "Gun Hill Brewing Co", "brewery_type": "micro", "address_1": "3227 Laconia Ave", "address_2": null, "address_3": null, "city": "Bronx", "state_province": "New York", "postal_code": "10469-1403", "country": "United States", "longitude": "-73.855814", "latitude": "40.8721114", "phone": "7188810010", "website_url": "http://www.gunhillbrewing.com", "state": "New York", "street": "3227 Laconia Ave"}, {"id": "6872c14f-c3c4-49ea-a714-8c25b62163d4", "name": "Gunbarrel Brewing Company", "brewery_type": "micro", "address_1": "7088 Winchester Cir Ste 2", "address_2": null, "address_3": null, "city": "Boulder", "state_province": "Colorado", "postal_code": "80301-3761", "country": "United States", "longitude": null, "latitude": null, "phone": "8008035732", "website_url": "http://www.gunbarrelbrewing.com", "state": "Colorado", "street": "7088 Winchester Cir Ste 2"}, {"id": "c29d029c-2d13-472d-a0b4-94cdc96a2f4f", "name": "Gunpowder Falls Brewing Co", "brewery_type": "micro", "address_1": "15556 Elm Dr", "address_2": null, "address_3": null, "city": "New Freedom", "state_province": "Pennsylvania", "postal_code": "17349-9344", "country": "United States", "longitude": null, "latitude": null, "phone": "7177590330", "website_url": "http://www.gunpowderfallsbrewing.com", "state": "Pennsylvania", "street": "15556 Elm Dr"}, {"id": "45dcecc1-7ec4-4bbe-86f7-35b57396fa36", "name": "Guns & Oil Brewery", "brewery_type": "micro", "address_1": "111 W 33rd St", "address_2": null, "address_3": null, "city": "Boise", "state_province": "Idaho", "postal_code": "83714", "country": "United States", "longitude": "-116.2389395", "latitude": "43.62136196", "phone": null, "website_url": "http://www.gunsandoil.com", "state": "Idaho", "street": "111 W 33rd St"}, {"id": "0b76ee76-205d-4942-9aac-0008cd3d2e5e", "name": "Gunwhale Ales", "brewery_type": "micro", "address_1": "2960 Randolph Ave Unit A", "address_2": null, "address_3": null, "city": "Costa Mesa", "state_province": "California", "postal_code": "92626-4312", "country": "United States", "longitude": "-117.8872815", "latitude": "33.67899369", "phone": "9492399074", "website_url": "http://www.gunwhaleales.com", "state": "California", "street": "2960 Randolph Ave Unit A"}, {"id": "4c58219c-dc41-41b7-aeba-64cc6662c6ef", "name": "Gyppo Ale Mill", "brewery_type": "micro", "address_1": null, "address_2": null, "address_3": null, "city": "Whitethorn", "state_province": "California", "postal_code": "95589-0627", "country": "United States", "longitude": "-123.9430832", "latitude": "40.0237557", "phone": "7072233443", "website_url": null, "state": "California", "street": null}, {"id": "80e11204-916f-4d79-8687-9650e0d647bd", "name": "Gypsy Brewery", "brewery_type": "micro", "address_1": "3506 Vega Ave", "address_2": null, "address_3": null, "city": "Cleveland", "state_province": "Ohio", "postal_code": "44113-4900", "country": "United States", "longitude": "-81.70785488", "latitude": "41.47449194", "phone": null, "website_url": null, "state": "Ohio", "street": "3506 Vega Ave"}, {"id": "c2c62d00-922c-41be-b603-b3acb04373ee", "name": "Gypsy Brewing Company", "brewery_type": "micro", "address_1": null, "address_2": null, "address_3": null, "city": "Huntingtown", "state_province": "Maryland", "postal_code": "20639", "country": "United States", "longitude": null, "latitude": null, "phone": null, "website_url": null, "state": "Maryland", "street": null}, {"id": "43383e50-f0d2-4a30-95af-0e0ec92513ed", "name": "H.A. Brewing Co", "brewery_type": "brewpub", "address_1": "2525 Grave Creek Rd", "address_2": null, "address_3": null, "city": "Eureka", "state_province": "Montana", "postal_code": "59917-9609", "country": "United States", "longitude": null, "latitude": null, "phone": "4068893950", "website_url": "http://www.habrewing.com", "state": "Montana", "street": "2525 Grave Creek Rd"}, {"id": "ddfb8618-9884-481c-af46-9db75920906f", "name": "H2OPS LLC", "brewery_type": "planning", "address_1": null, "address_2": null, "address_3": null, "city": "Anaheim", "state_province": "California", "postal_code": "92808-1225", "country": "United States", "longitude": "-117.911732", "latitude": "33.8347516", "phone": "7143924414", "website_url": "http://www.h2ops.com", "state": "California", "street": null}, {"id": "b3f83269-b3e9-4637-b5a2-acfbfbe35387", "name": "Haas Innovations Brewing LLC", "brewery_type": "micro", "address_1": "1600 River Rd", "address_2": null, "address_3": null, "city": "Yakima", "state_province": "Washington", "postal_code": "98902-1249", "country": "United States", "longitude": "-120.530565", "latitude": "46.617844", "phone": "5094694000", "website_url": "https://www.johnihaas.com", "state": "Washington", "street": "1600 River Rd"}, {"id": "8b8d3e0f-22b8-4350-9975-575793331af8", "name": "Habitat Brewing Co", "brewery_type": "micro", "address_1": "174 Broadway St", "address_2": null, "address_3": null, "city": "Asheville", "state_province": "North Carolina", "postal_code": "28801-2305", "country": "United States", "longitude": "-82.5533973", "latitude": "35.5986648", "phone": "7047018141", "website_url": "http://www.habitatbrewing.com", "state": "North Carolina", "street": "174 Broadway St"}, {"id": "f98dd11d-f3ca-4bb4-bc2e-e9deb27de42d", "name": "Hackensack Brewing Company", "brewery_type": "planning", "address_1": null, "address_2": null, "address_3": null, "city": "Hackensack", "state_province": "New Jersey", "postal_code": "07601-4824", "country": "United States", "longitude": null, "latitude": null, "phone": null, "website_url": null, "state": "New Jersey", "street": null}, {"id": "580761b4-cca5-45d8-9eac-4b426bbfad2b", "name": "HailStorm Brewing Company", "brewery_type": "micro", "address_1": "8060 186th St", "address_2": null, "address_3": null, "city": "Tinley Park", "state_province": "Illinois", "postal_code": "60487-9215", "country": "United States", "longitude": "-87.81356158", "latitude": "41.55317823", "phone": "6306317173", "website_url": "http://www.hailstormbrewing.com", "state": "Illinois", "street": "8060 186th St"}, {"id": "9b732794-2a95-48ec-80b2-c01ef485d97a", "name": "Haines Brewing Co", "brewery_type": "micro", "address_1": "327 Main St", "address_2": null, "address_3": null, "city": "Haines", "state_province": "Alaska", "postal_code": "99827", "country": "United States", "longitude": "-135.4551927", "latitude": "59.2357624", "phone": "9077663823", "website_url": "http://www.hainesbrewing.com", "state": "Alaska", "street": "327 Main St"}, {"id": "314a71f6-2f8c-4461-8a64-d479b1002129", "name": "Haint Blue Brewing Company", "brewery_type": "contract", "address_1": "806 Monroe Street", "address_2": null, "address_3": null, "city": "Mobile", "state_province": "Alabama", "postal_code": "36602", "country": "United States", "longitude": "-88.05126184", "latitude": "30.68474321", "phone": null, "website_url": "http://haintbluebrew.com", "state": "Alabama", "street": "806 Monroe Street"}, {"id": "1503f786-1afe-44fb-9668-a32cc139df58", "name": "Hair of the Dog Brewing Co", "brewery_type": "brewpub", "address_1": "61 SE Yamhill St", "address_2": null, "address_3": null, "city": "Portland", "state_province": "Oregon", "postal_code": "97214-2134", "country": "United States", "longitude": "-122.6655236", "latitude": "45.5160413", "phone": "5032326585", "website_url": "http://www.hairofthedog.com", "state": "Oregon", "street": "61 SE Yamhill St"}, {"id": "cf1d9929-1881-4f8c-b4e2-9aefe750cc16", "name": "Hairless Hare Brewery", "brewery_type": "micro", "address_1": "738 W National Rd", "address_2": null, "address_3": null, "city": "Vandalia", "state_province": "Ohio", "postal_code": "45377-1015", "country": "United States", "longitude": null, "latitude": null, "phone": "9373876476", "website_url": "http://www.hairlessharebrewery.com", "state": "Ohio", "street": "738 W National Rd"}, {"id": "99379a99-f52f-4a6a-b966-073e30fa8c1b", "name": "Hairy Cow Brewing Co, LLC", "brewery_type": "planning", "address_1": null, "address_2": null, "address_3": null, "city": "Byron", "state_province": "Illinois", "postal_code": "61010", "country": "United States", "longitude": null, "latitude": null, "phone": "8152432866", "website_url": "http://www.hairycowbrewing.com", "state": "Illinois", "street": null}, {"id": "593a9ce4-520b-458f-a184-05debb3a7295", "name": "Hale's Ales Brewery and Pub", "brewery_type": "micro", "address_1": "4301 Leary Way NW", "address_2": null, "address_3": null, "city": "Seattle", "state_province": "Washington", "postal_code": "98107-4538", "country": "United States", "longitude": "-122.3655909", "latitude": "47.6592451", "phone": "2069632118", "website_url": "http://www.halesbrewery.com", "state": "Washington", "street": "4301 Leary Way NW"}, {"id": "49cf8feb-2997-4da6-99ba-6c2228ffaab1", "name": "Half Acre Beer Co", "brewery_type": "regional", "address_1": "4257 N Lincoln Ave", "address_2": null, "address_3": null, "city": "Chicago", "state_province": "Illinois", "postal_code": "60618-2953", "country": "United States", "longitude": "-87.6820201", "latitude": "41.9591945", "phone": "7737548488", "website_url": "http://www.halfacrebeer.com", "state": "Illinois", "street": "4257 N Lincoln Ave"}, {"id": "545394a7-58c6-4c11-92a8-c9218ebc82c7", "name": "Half Barrel Beer Project", "brewery_type": "brewpub", "address_1": "9650 Universal Blvd Ste 143", "address_2": null, "address_3": null, "city": "Orlando", "state_province": "Florida", "postal_code": "32819-9383", "country": "United States", "longitude": "-81.46606722", "latitude": "28.43441073", "phone": "4072033946", "website_url": "http://www.halfbarrelproject.com", "state": "Florida", "street": "9650 Universal Blvd Ste 143"}, {"id": "499f13b4-35de-4566-8817-15573433a453", "name": "Half Batch Brewing", "brewery_type": "micro", "address_1": "393 E Main St Suite 6A", "address_2": null, "address_3": null, "city": "Hendersonville", "state_province": "Tennessee", "postal_code": "37075-2575", "country": "United States", "longitude": null, "latitude": null, "phone": "6153394527", "website_url": "http://halfbatchbrewing.com", "state": "Tennessee", "street": "393 E Main St Suite 6A"}, {"id": "86fab29c-89f5-4a48-99f6-06ef4240e508", "name": "Half Brothers Brewing Company", "brewery_type": "brewpub", "address_1": "17 N 3rd St", "address_2": null, "address_3": null, "city": "Grand Forks", "state_province": "North Dakota", "postal_code": "58203-3713", "country": "United States", "longitude": "-97.0315443", "latitude": "47.9256052", "phone": "7017570805", "website_url": "http://www.halfbrothersbrewing.com", "state": "North Dakota", "street": "17 N 3rd St"}, {"id": "2cb07047-36be-45c7-aae3-97c10afa36c4", "name": "Half Day Brewing Company", "brewery_type": "brewpub", "address_1": "200 Village Grn", "address_2": null, "address_3": null, "city": "Lincolnshire", "state_province": "Illinois", "postal_code": "60069-3028", "country": "United States", "longitude": "-87.9330365", "latitude": "42.2031177", "phone": "8478216933", "website_url": "http://www.halfdaybrewing.com", "state": "Illinois", "street": "200 Village Grn"}, {"id": "7c4882e0-4366-41f3-b207-7be79d078c52", "name": "Half Door Brewing Company", "brewery_type": "brewpub", "address_1": "903 Island Ave", "address_2": null, "address_3": null, "city": "San Diego", "state_province": "California", "postal_code": "92101-7227", "country": "United States", "longitude": "-117.156268", "latitude": "32.710248", "phone": null, "website_url": "http://www.halfdoorbrewing.com", "state": "California", "street": "903 Island Ave"}, {"id": "4c461172-154f-4375-ba95-0c7356311e24", "name": "Half Full Brewery", "brewery_type": "micro", "address_1": "43 Homestead Ave", "address_2": null, "address_3": null, "city": "Stamford", "state_province": "Connecticut", "postal_code": "06902-7204", "country": "United States", "longitude": "-73.54959135", "latitude": "41.03933226", "phone": "2032748788", "website_url": "http://www.halffullbrewery.com", "state": "Connecticut", "street": "43 Homestead Ave"}, {"id": "afd6863b-7e66-4f05-aca0-319fc7054288", "name": "Half Lion Brewing Company", "brewery_type": "micro", "address_1": "1723 West Valley Hwy E Ste 101", "address_2": null, "address_3": null, "city": "Sumner", "state_province": "Washington", "postal_code": "98390-9700", "country": "United States", "longitude": "-122.2553244", "latitude": "47.24128441", "phone": "2537504479", "website_url": "http://www.halflion.com", "state": "Washington", "street": "1723 West Valley Hwy E Ste 101"}, {"id": "37d585b5-00ee-4be0-ac6b-6d15b6416cac", "name": "Half Lion Public House", "brewery_type": "brewpub", "address_1": "2019 W Meeker St", "address_2": null, "address_3": null, "city": "Kent", "state_province": "Washington", "postal_code": "98032", "country": "United States", "longitude": "-122.2629041", "latitude": "47.38103", "phone": "2532770685", "website_url": "https://www.halflion.com", "state": "Washington", "street": "2019 W Meeker St"}, {"id": "79a8cdd5-d995-4575-ba5f-6253077bb4ba", "name": "Half Moon Bay Brewing Co", "brewery_type": "brewpub", "address_1": "390 Capistrano Road", "address_2": null, "address_3": null, "city": "Half Moon Bay", "state_province": "California", "postal_code": "94019", "country": "United States", "longitude": "-122.4855902", "latitude": "37.50416699", "phone": "6507282739", "website_url": "http://www.hmbbrewingco.com", "state": "California", "street": "390 Capistrano Road"}, {"id": "d8c8fa76-7764-4315-8e9f-e32af713f713", "name": "Half Moon Restaurant & Brewery", "brewery_type": "brewpub", "address_1": "4051 S Lafountain St", "address_2": null, "address_3": null, "city": "Kokomo", "state_province": "Indiana", "postal_code": "46902-6913", "country": "United States", "longitude": "-86.1281745", "latitude": "40.4362867", "phone": "7654552739", "website_url": null, "state": "Indiana", "street": "4051 S Lafountain St"}, {"id": "abf50e49-2787-4478-851f-366154085942", "name": "Half Wall Brewery", "brewery_type": "micro", "address_1": "1887 SR 44", "address_2": null, "address_3": null, "city": "New Smyrna Beach", "state_province": "Florida", "postal_code": "32168", "country": "United States", "longitude": null, "latitude": null, "phone": "3864268410", "website_url": "http://www.halfwallbrewery.com", "state": "Florida", "street": "1887 SR 44"}, {"id": "d9817110-ab18-45a3-a48a-220863c8ef4d", "name": "Halfpenny Brewing Company", "brewery_type": "micro", "address_1": "5150 E Arapahoe Rd Ste D1-B", "address_2": null, "address_3": null, "city": "Centennial", "state_province": "Colorado", "postal_code": "80122-4825", "country": "United States", "longitude": null, "latitude": null, "phone": "7205830580", "website_url": "http://www.halfpennybrewing.com", "state": "Colorado", "street": "5150 E Arapahoe Rd Ste D1-B"}, {"id": "19fb8b9c-9a8e-4ed9-a5cb-ce00e818265e", "name": "Halpatter Brewing Company", "brewery_type": "micro", "address_1": "264 NE Hernando Ave", "address_2": null, "address_3": null, "city": "Lake City", "state_province": "Florida", "postal_code": "32055-4012", "country": "United States", "longitude": "-82.63654594", "latitude": "30.19050388", "phone": "3864388788", "website_url": "http://www.halpatterbrewing.com", "state": "Florida", "street": "264 NE Hernando Ave"}, {"id": "26d5210e-54b9-4375-9d69-5c296ca83038", "name": "Halyard Brewing Company", "brewery_type": "micro", "address_1": "80 Ethan Allen Dr Ste 2", "address_2": null, "address_3": null, "city": "South Burlington", "state_province": "Vermont", "postal_code": "05403-5971", "country": "United States", "longitude": null, "latitude": null, "phone": "9048742734", "website_url": "http://www.halyardbrewing.us", "state": "Vermont", "street": "80 Ethan Allen Dr Ste 2"}, {"id": "63e07cbd-4eea-445f-94a2-771bd1020b3e", "name": "Hamburg Brewing Company", "brewery_type": "micro", "address_1": "6553 Boston State Rd", "address_2": null, "address_3": null, "city": "Hamburg", "state_province": "New York", "postal_code": "14075-6630", "country": "United States", "longitude": null, "latitude": null, "phone": "7166493249", "website_url": "http://www.hamburgbrewing.com", "state": "New York", "street": "6553 Boston State Rd"}, {"id": "ba77ee7a-a62c-482e-8c3e-436ef62f11d8", "name": "Hamburger Mary's/Andersonville Brewing Company", "brewery_type": "brewpub", "address_1": "5402 N Clark St", "address_2": null, "address_3": null, "city": "Chicago", "state_province": "Illinois", "postal_code": "60640-1210", "country": "United States", "longitude": "-87.66855092", "latitude": "41.97997865", "phone": "7737846969", "website_url": "http://www.hamburgermaryschicago.com", "state": "Illinois", "street": "5402 N Clark St"}, {"id": "f31b2eb4-38d1-41b2-90d7-ef41f9362192", "name": "Hamilton Family Brewery", "brewery_type": "micro", "address_1": "9757 7th St Ste 802", "address_2": null, "address_3": null, "city": "Rancho Cucamonga", "state_province": "California", "postal_code": "91730-5297", "country": "United States", "longitude": "-117.591893", "latitude": "34.08815449", "phone": "9099897050", "website_url": "http://hamiltonfamilybrewery.com", "state": "California", "street": "9757 7th St Ste 802"}, {"id": "7b619ae8-fd5b-4751-976a-77111100b441", "name": "Hammer & Forge Brewing Company", "brewery_type": "micro", "address_1": "70 Main Street", "address_2": null, "address_3": null, "city": "Boones Mill", "state_province": "Virginia", "postal_code": "24064", "country": "United States", "longitude": "-79.95438626", "latitude": "37.1151673", "phone": "5406133913", "website_url": "http://www.hammerandforgebrewing.com", "state": "Virginia", "street": "70 Main Street"}, {"id": "ac43837a-d009-4df2-9984-6c536e85fe93", "name": "Hammer & Nail Brewing", "brewery_type": "planning", "address_1": null, "address_2": null, "address_3": null, "city": "Trumbull", "state_province": "Connecticut", "postal_code": "06611-4975", "country": "United States", "longitude": null, "latitude": null, "phone": "2032404987", "website_url": "http://www.HammerNailBrewing.com", "state": "Connecticut", "street": null}, {"id": "2deddb89-ee77-4758-a800-052de103c6db", "name": "HammerHeart Brewing Company", "brewery_type": "micro", "address_1": "7785 Lake Dr", "address_2": null, "address_3": null, "city": "Lino Lakes", "state_province": "Minnesota", "postal_code": "55014-1109", "country": "United States", "longitude": "-93.1064135", "latitude": "45.1890903", "phone": "6513482654", "website_url": "http://www.hammerheartbrewing.com", "state": "Minnesota", "street": "7785 Lake Dr"}, {"id": "5fe91dd7-0dac-41d0-aac9-7c2fd664a929", "name": "Hana Koa Brewing Company", "brewery_type": "brewpub", "address_1": "962 Kawaiahao St", "address_2": null, "address_3": null, "city": "Honolulu", "state_province": "Hawaii", "postal_code": "96814", "country": "United States", "longitude": "-157.852894", "latitude": "21.297494", "phone": "8085912337", "website_url": "http://www.hanakoabrewing.com", "state": "Hawaii", "street": "962 Kawaiahao St"}, {"id": "71e0c498-d10f-4229-a71c-070561d23702", "name": "Hand Brew Co Ltd", "brewery_type": "brewpub", "address_1": "Upper St. James Street", "address_2": null, "address_3": null, "city": "Brighton", "state_province": "East Sussex", "postal_code": "BN2 1JN", "country": "England", "longitude": "-0.12867", "latitude": "50.81986", "phone": "1273699595", "website_url": "http://www.handbrewpub.com/", "state": "East Sussex", "street": "Upper St. James Street"}, {"id": "652b410d-07ea-4134-be36-fd62679f29aa", "name": "Hand of Fate Brewing Co", "brewery_type": "micro", "address_1": "107 E Douglas Ave", "address_2": null, "address_3": null, "city": "Petersburg", "state_province": "Illinois", "postal_code": "62675-1558", "country": "United States", "longitude": "-89.92105943", "latitude": "38.59194278", "phone": "2176911098", "website_url": "http://www.handoffatebrewing.beer", "state": "Illinois", "street": "107 E Douglas Ave"}, {"id": "c75293cb-e18c-4c7f-ac21-a08418766428", "name": "Hand-Brewed Beer", "brewery_type": "micro", "address_1": "9771 Variel Ave", "address_2": null, "address_3": null, "city": "Chatsworth", "state_province": "California", "postal_code": "91311-4315", "country": "United States", "longitude": "-118.5930241", "latitude": "34.24766895", "phone": "8189641422", "website_url": "http://www.handbrewedbeer.com", "state": "California", "street": "9771 Variel Ave"}, {"id": "58f92618-b1c1-4737-b628-13abdfc7e0d9", "name": "Hangar 24 Craft Brewery", "brewery_type": "regional", "address_1": "1710 Sessums Dr", "address_2": null, "address_3": null, "city": "Redlands", "state_province": "California", "postal_code": "92374-1909", "country": "United States", "longitude": "-117.1419134", "latitude": "34.0831712", "phone": "9093891400", "website_url": "http://www.hangar24brewery.com", "state": "California", "street": "1710 Sessums Dr"}, {"id": "48dc261e-1cfa-436f-a947-51b53b330abc", "name": "Hanging Hills Brewing Company", "brewery_type": "micro", "address_1": "150 Ledyard St", "address_2": null, "address_3": null, "city": "Hartford", "state_province": "Connecticut", "postal_code": "06114-1403", "country": "United States", "longitude": "-72.67011733", "latitude": "41.74481243", "phone": "8602637033", "website_url": "http://www.hanginghillsbrewery.com", "state": "Connecticut", "street": "150 Ledyard St"}, {"id": "344298b7-4657-4f82-88e7-4e558131da4e", "name": "Hanging Horseshoe Brewing Company", "brewery_type": "micro", "address_1": "73892 332 Ave", "address_2": null, "address_3": null, "city": "Imperial", "state_province": "Nebraska", "postal_code": "69033", "country": "United States", "longitude": "-101.64814", "latitude": "40.536221", "phone": "3088827772", "website_url": null, "state": "Nebraska", "street": "73892 332 Ave"}, {"id": "77358748-54f0-4396-bc3c-d73ce170541c", "name": "Hank Hudson Brewing At Fairways of Halfmoon", "brewery_type": "brewpub", "address_1": "17 Johnson Rd", "address_2": null, "address_3": null, "city": "Mechanicville", "state_province": "New York", "postal_code": "12118-3505", "country": "United States", "longitude": null, "latitude": null, "phone": "5186641578", "website_url": null, "state": "New York", "street": "17 Johnson Rd"}, {"id": "dd702c3b-e231-4e25-865c-c9ef68a57c74", "name": "Hank Is Wiser Brewery", "brewery_type": "brewpub", "address_1": "213 N Main St", "address_2": null, "address_3": null, "city": "Cheney", "state_province": "Kansas", "postal_code": "67025-9730", "country": "United States", "longitude": "-97.7812689", "latitude": "37.62820924", "phone": "3165420113", "website_url": "http://www.hankiswiserbrewery.com", "state": "Kansas", "street": "213 N Main St"}, {"id": "1fcb7d97-83ee-4b1b-ba5a-f2c8c2b5b1d1", "name": "Hansa Brewery", "brewery_type": "brewpub", "address_1": "2717 Lorain Ave", "address_2": null, "address_3": null, "city": "Cleveland", "state_province": "Ohio", "postal_code": "44113-3414", "country": "United States", "longitude": "-81.70479139", "latitude": "41.48344207", "phone": "2166316585", "website_url": "http://www.hansabrewery.com", "state": "Ohio", "street": "2717 Lorain Ave"}, {"id": "d8549701-4cf1-4aff-9af1-b0ef1e2dc072", "name": "Hanson Brothers Beer Company", "brewery_type": "contract", "address_1": "209 N Main St", "address_2": null, "address_3": null, "city": "Tulsa", "state_province": "Oklahoma", "postal_code": "74103-2005", "country": "United States", "longitude": "-95.9936663", "latitude": "36.15851257", "phone": null, "website_url": "http://www.hansonbrothersbeer.com", "state": "Oklahoma", "street": "209 N Main St"}, {"id": "765e8c19-78dd-4117-ad3a-61ce5337d5a7", "name": "Hapa's Brewing Company", "brewery_type": "micro", "address_1": "460 Lincoln Ave # 90", "address_2": null, "address_3": null, "city": "San Jose", "state_province": "California", "postal_code": "95126-3702", "country": "United States", "longitude": "-121.888991", "latitude": "37.2917841", "phone": "4089823299", "website_url": "http://hapasbrewing.com/", "state": "California", "street": "460 Lincoln Ave # 90"}, {"id": "073d02c4-85e2-4118-955b-89e8d51ff119", "name": "Happy Basset Brewing Company", "brewery_type": "micro", "address_1": "6044 SW 29th St", "address_2": null, "address_3": null, "city": "Topeka", "state_province": "Kansas", "postal_code": "66614-4268", "country": "United States", "longitude": "-95.7637047", "latitude": "39.01466361", "phone": "7857833688", "website_url": "http://www.happybassetbrewingco.com", "state": "Kansas", "street": "6044 SW 29th St"}, {"id": "50adab67-c5bf-4be0-8116-e7311e7864d4", "name": "Happy Hippie Brewing Company", "brewery_type": "planning", "address_1": null, "address_2": null, "address_3": null, "city": "Richardson", "state_province": "Texas", "postal_code": "75080", "country": "United States", "longitude": null, "latitude": null, "phone": "2146167681", "website_url": "http://www.happyhippiebeer.com", "state": "Texas", "street": null}, {"id": "2d6f4446-21f5-4453-ac5b-84e228dff82c", "name": "Happy Trails Brewing Company", "brewery_type": "planning", "address_1": null, "address_2": null, "address_3": null, "city": "Sparta", "state_province": "Tennessee", "postal_code": "38583-5577", "country": "United States", "longitude": null, "latitude": null, "phone": "9312678027", "website_url": "http://www.happytrailsbrewingco.com", "state": "Tennessee", "street": null}, {"id": "e73fe117-041d-477f-ae73-ad19bf5f2f68", "name": "Happy Valley Brewing Company", "brewery_type": "brewpub", "address_1": "137 Elmwood St", "address_2": null, "address_3": null, "city": "State College", "state_province": "Pennsylvania", "postal_code": "16801-6851", "country": "United States", "longitude": null, "latitude": null, "phone": null, "website_url": null, "state": "Pennsylvania", "street": "137 Elmwood St"}, {"id": "1710a317-a662-45f5-9162-f7f3c8a16015", "name": "Harbinger Beer Company LLC", "brewery_type": "planning", "address_1": "111 Buffalo St", "address_2": null, "address_3": null, "city": "Caddo", "state_province": "Oklahoma", "postal_code": "74729-2606", "country": "United States", "longitude": "-96.2601872", "latitude": "34.1253524", "phone": "5803809398", "website_url": "http://harbingerbeer.com", "state": "Oklahoma", "street": "111 Buffalo St"}, {"id": "ae916041-5055-42ed-a19f-e03dfeafbf00", "name": "Harbor Head Brewing Co", "brewery_type": "micro", "address_1": "81 Fort Salonga Rd", "address_2": null, "address_3": null, "city": "Northport", "state_province": "New York", "postal_code": "11768-2889", "country": "United States", "longitude": "-73.3539709", "latitude": "40.8908555", "phone": "6318155588", "website_url": "http://www.harborheadbrew.com", "state": "New York", "street": "81 Fort Salonga Rd"}, {"id": "eb9f6c47-2c75-4462-9da1-9208979fdb07", "name": "Harbor Mountain Brewing Co", "brewery_type": "micro", "address_1": "1209 Sawmill Creek Rd Ste A", "address_2": null, "address_3": null, "city": "Sitka", "state_province": "Alaska", "postal_code": "99835-9759", "country": "United States", "longitude": "-135.309951", "latitude": "57.049586", "phone": "9073087339", "website_url": "https://www.harbormountainbrewing.com/", "state": "Alaska", "street": "1209 Sawmill Creek Rd Ste A"}, {"id": "24f4fa84-91d9-4cde-8e37-5cb430753f29", "name": "Harding House Brewing Company", "brewery_type": "planning", "address_1": null, "address_2": null, "address_3": null, "city": "Nashville", "state_province": "Tennessee", "postal_code": "37209", "country": "United States", "longitude": null, "latitude": null, "phone": "3034089405", "website_url": "http://www.hardinghousebrew.com", "state": "Tennessee", "street": null}, {"id": "ee478df6-9033-4f56-b6f7-94d3b242871d", "name": "Hardwood Bar and Smokery", "brewery_type": "brewpub", "address_1": "680 8th St Ste 170", "address_2": null, "address_3": null, "city": "San Francisco", "state_province": "California", "postal_code": "94103", "country": "United States", "longitude": "-122.404927", "latitude": "37.77073989", "phone": "4157962437", "website_url": "http://www.hardwoodsf.com", "state": "California", "street": "680 8th St Ste 170"}, {"id": "093c8814-568c-4b61-ad11-70ac6a4c3b6d", "name": "Hardywood Park Craft Brewery", "brewery_type": "micro", "address_1": "2408 Ownby Ln", "address_2": null, "address_3": null, "city": "Richmond", "state_province": "Virginia", "postal_code": "23220-1319", "country": "United States", "longitude": null, "latitude": null, "phone": "8044202420", "website_url": "http://www.hardywood.com", "state": "Virginia", "street": "2408 Ownby Ln"}, {"id": "675e5fbb-fe82-4e44-afee-116d1d924d90", "name": "Hardywood Park Craft Brewery-Charlottesville", "brewery_type": "micro", "address_1": "1000 W Main St", "address_2": null, "address_3": null, "city": "Charlottesville", "state_province": "Virginia", "postal_code": "22903-3277", "country": "United States", "longitude": "-78.49505511", "latitude": "38.03257623", "phone": "4342343386", "website_url": null, "state": "Virginia", "street": "1000 W Main St"}, {"id": "09aefb86-1ed9-4838-a5c1-42baa6e833b1", "name": "Hardywood West Creek", "brewery_type": "micro", "address_1": "820 Sanctuary Trail Dr", "address_2": null, "address_3": null, "city": "Richmond", "state_province": "Virginia", "postal_code": "23238", "country": "United States", "longitude": null, "latitude": null, "phone": "8044183548", "website_url": "http://hardywood.com/visit-us/westcreek/", "state": "Virginia", "street": "820 Sanctuary Trail Dr"}, {"id": "0ed75909-c4d0-4c3f-8639-a24f04620b34", "name": "Hare In the Forest", "brewery_type": "micro", "address_1": "9311 Gibson Ln", "address_2": null, "address_3": null, "city": "Potter Valley", "state_province": "California", "postal_code": "95469-8799", "country": "United States", "longitude": "-123.1252703", "latitude": "39.33623934", "phone": "9105457759", "website_url": "http://www.hareintheforest.com", "state": "California", "street": "9311 Gibson Ln"}, {"id": "95e2aecb-8c67-415f-aad7-02f1148871f6", "name": "Harlem Blue Beer", "brewery_type": "proprietor", "address_1": "2214 Frederick Douglass Blvd Ste 267", "address_2": null, "address_3": null, "city": "New York", "state_province": "New York", "postal_code": "10026-1123", "country": "United States", "longitude": null, "latitude": null, "phone": null, "website_url": "http://www.harlemblue.com", "state": "New York", "street": "2214 Frederick Douglass Blvd Ste 267"}]