[{"id": "19f5dd52-2120-49b5-8d2a-0d89bc617f93", "name": "Cynosure Brewing", "brewery_type": "micro", "address_1": "144 E Potter Dr Unit E", "address_2": null, "address_3": null, "city": "Anchorage", "state_province": "Alaska", "postal_code": "99518-1363", "country": "United States", "longitude": "-149.881789", "latitude": "61.168841", "phone": "9075632966", "website_url": "https://www.cynosure.beer", "state": "Alaska", "street": "144 E Potter Dr Unit E"}, {"id": "4b031da7-db66-4d57-995d-cb1473236ba3", "name": "Cypress and Grove Brewing Company", "brewery_type": "micro", "address_1": "1001 NW 4th Street", "address_2": null, "address_3": null, "city": "Gainesville", "state_province": "Florida", "postal_code": "32601-4256", "country": "United States", "longitude": "-82.328751", "latitude": "29.661257", "phone": "6419900950", "website_url": "http://www.cypressandgrove.com", "state": "Florida", "street": "1001 NW 4th Street"}, {"id": "93f912a8-83ce-4c31-a953-bd4c2b093f9a", "name": "Cypress Brewing Company", "brewery_type": "micro", "address_1": "30 Nixon Ln Unit E", "address_2": null, "address_3": null, "city": "Edison", "state_province": "New Jersey", "postal_code": "08837-3844", "country": "United States", "longitude": null, "latitude": null, "phone": "7322439565", "website_url": "http://www.cypressbrewing.com", "state": "New Jersey", "street": "30 Nixon Ln Unit E"}, {"id": "34b894d8-4439-4e1d-ad43-8764f5630483", "name": "Cypress Creek Southern Ales", "brewery_type": "micro", "address_1": "200 E Carnegie St", "address_2": null, "address_3": null, "city": "Winnsboro", "state_province": "Texas", "postal_code": "75494-3206", "country": "United States", "longitude": "-95.288727", "latitude": "32.955986", "phone": "2088414159", "website_url": "http://www.cypresscreeksouthernales.com", "state": "Texas", "street": "200 E Carnegie St"}, {"id": "4ab58ce4-055e-47bc-9e86-49af2f0f8c84", "name": "Czann's Brewing", "brewery_type": "micro", "address_1": "505 Lea Ave", "address_2": null, "address_3": null, "city": "Nashville", "state_province": "Tennessee", "postal_code": "37203-4499", "country": "United States", "longitude": "-86.77422743", "latitude": "36.1533486", "phone": "6154033517", "website_url": "http://czanns.com", "state": "Tennessee", "street": "505 Lea Ave"}, {"id": "b5e8e408-be62-4fbb-9798-7f6473f7bdbd", "name": "Cze\u015b\u0107 Brat!", "brewery_type": "micro", "address_1": "Polna 38", "address_2": null, "address_3": null, "city": "Jelcz-Laskowice", "state_province": "dolno\u015bl\u0105skie", "postal_code": "55-220", "country": "Poland", "longitude": "17.3502609", "latitude": "51.0389077", "phone": null, "website_url": null, "state": "dolno\u015bl\u0105skie", "street": "Polna 38"}, {"id": "a7a2afd9-f3c5-4343-a6d7-828a1656e33a", "name": "Czig Meister Brewing Co.", "brewery_type": "micro", "address_1": "106 Valentine St", "address_2": null, "address_3": null, "city": "Hackettstown", "state_province": "New Jersey", "postal_code": "07840-2156", "country": "United States", "longitude": "-74.83148308", "latitude": "40.8543396", "phone": "2018747342", "website_url": "http://www.CzigMeisterBrewing.com", "state": "New Jersey", "street": "106 Valentine St"}, {"id": "285cd494-30a4-4dd7-8034-5c0c648cde0a", "name": "D. G. Yuengling and Son Inc", "brewery_type": "regional", "address_1": "11111 N 30th St", "address_2": null, "address_3": null, "city": "Tampa", "state_province": "Florida", "postal_code": "33612-6439", "country": "United States", "longitude": "-82.42608918", "latitude": "28.04767978", "phone": "8139728552", "website_url": "http://www.yuengling.com", "state": "Florida", "street": "11111 N 30th St"}, {"id": "ed77e7da-44ac-45b2-bb8c-10285691a58f", "name": "D. G. Yuengling and Son Inc", "brewery_type": "regional", "address_1": "500 Mahantongo St", "address_2": null, "address_3": null, "city": "Pottsville", "state_province": "Pennsylvania", "postal_code": "17901", "country": "United States", "longitude": "-76.198585", "latitude": "40.682674", "phone": "5706224141", "website_url": "http://www.yuengling.com", "state": "Pennsylvania", "street": "500 Mahantongo St"}, {"id": "9cb69d16-aaf2-4692-b06f-877f2d69ec8c", "name": "D. G. Yuengling and Son Inc", "brewery_type": "regional", "address_1": "310 Mill Creek Ave", "address_2": null, "address_3": null, "city": "Pottsville", "state_province": "Pennsylvania", "postal_code": "17901-8692", "country": "United States", "longitude": "-76.1832368", "latitude": "40.6982044", "phone": "2156319461", "website_url": "http://www.yuengling.com", "state": "Pennsylvania", "street": "310 Mill Creek Ave"}, {"id": "5036c9a3-e210-4fa0-8a95-0a9bb054bcc0", "name": "D. MANATEE HOLDINGS, LLC", "brewery_type": "planning", "address_1": null, "address_2": null, "address_3": null, "city": "Miami", "state_province": "Florida", "postal_code": "33131-1210", "country": "United States", "longitude": null, "latitude": null, "phone": null, "website_url": "http://www.tiliaventure.com", "state": "Florida", "street": null}, {"id": "fd475f2e-1e9e-4cd4-a9eb-e78f995a9300", "name": "D.C. Oakes Brewhouse and Eatery", "brewery_type": "brewpub", "address_1": "3581 E Harmony Suite 110", "address_2": null, "address_3": null, "city": "Fort Collins", "state_province": "Colorado", "postal_code": "80528", "country": "United States", "longitude": null, "latitude": null, "phone": "3034061757", "website_url": "http://www.dcoakesbrewhouse.com", "state": "Colorado", "street": "3581 E Harmony Suite 110"}, {"id": "8167d47e-1fb4-44b8-b3db-6e33bee6a966", "name": "D.L. Geary Brewing Co Inc.", "brewery_type": "micro", "address_1": "38 Evergreen Dr", "address_2": null, "address_3": null, "city": "Portland", "state_province": "Maine", "postal_code": "04103-1066", "country": "United States", "longitude": "-70.31484813", "latitude": "43.70767416", "phone": "2078782337", "website_url": "http://www.gearybrewing.com", "state": "Maine", "street": "38 Evergreen Dr"}, {"id": "49f7e647-2035-4e16-a37e-6aa327acaa7f", "name": "D9 Brewing Company", "brewery_type": "micro", "address_1": "11138 Treynorth Dr Ste C", "address_2": null, "address_3": null, "city": "Cornelius", "state_province": "North Carolina", "postal_code": "28031-8186", "country": "United States", "longitude": null, "latitude": null, "phone": "7044579368", "website_url": "http://www.d9brewing.com", "state": "North Carolina", "street": "11138 Treynorth Dr Ste C"}, {"id": "1e0f99d5-0a6b-498a-beca-2d2c21b4bdd9", "name": "Dad & Dudes Breweria", "brewery_type": "brewpub", "address_1": "6730 S Cornerstar Way Ste D", "address_2": null, "address_3": null, "city": "Aurora", "state_province": "Colorado", "postal_code": "80016-1571", "country": "United States", "longitude": null, "latitude": null, "phone": "3034005699", "website_url": "http://breweria.com", "state": "Colorado", "street": "6730 S Cornerstar Way Ste D"}, {"id": "55deb669-5df9-4850-8639-166a87b59949", "name": "Daft Badger Brewing", "brewery_type": "brewpub", "address_1": "1710 N 2nd St", "address_2": null, "address_3": null, "city": "Coeur D Alene", "state_province": "Idaho", "postal_code": "83814-3403", "country": "United States", "longitude": "-116.783116", "latitude": "47.692323", "phone": "2086659892", "website_url": "https://www.facebook.com/daftbadgerbrewing", "state": "Idaho", "street": "1710 N 2nd St"}, {"id": "30b94075-ba6b-4e1f-9f35-519f7490af97", "name": "Dakota Point Brewing LLC", "brewery_type": "micro", "address_1": "405 Canal St Ste 1200", "address_2": null, "address_3": null, "city": "Rapid City", "state_province": "South Dakota", "postal_code": "57701-2577", "country": "United States", "longitude": "-103.2437026", "latitude": "44.0830123", "phone": "6057912739", "website_url": "http://www.dakotapointbrewing.com", "state": "South Dakota", "street": "405 Canal St Ste 1200"}, {"id": "56b77af4-f236-477b-8e5d-0d01a88bce58", "name": "Dakota Shivers Brewing", "brewery_type": "micro", "address_1": "717 W Main St", "address_2": null, "address_3": null, "city": "Lead", "state_province": "South Dakota", "postal_code": "57754-1539", "country": "United States", "longitude": "-103.7721626", "latitude": "44.35111622", "phone": "6054155352", "website_url": "http://www.dakotashiversbrewing.com", "state": "South Dakota", "street": "717 W Main St"}, {"id": "b2648189-33cc-4205-ad69-87d9f1e5abe1", "name": "Dakota Territory Brewing", "brewery_type": "closed", "address_1": "224 S Main St", "address_2": null, "address_3": null, "city": "Aberdeen", "state_province": "South Dakota", "postal_code": "57401-4138", "country": "United States", "longitude": "-98.48853502", "latitude": "45.46249262", "phone": "6052166650", "website_url": "http://www.facebook.com/DakotaTerritoryBrewing", "state": "South Dakota", "street": "224 S Main St"}, {"id": "85b56270-6c8c-41dd-9499-a6b5abc62160", "name": "Dalton Union Winery & Brewery", "brewery_type": "micro", "address_1": "2110 Shirk Rd", "address_2": null, "address_3": null, "city": "Marysville", "state_province": "Ohio", "postal_code": "43040", "country": "United States", "longitude": null, "latitude": null, "phone": "9373193667", "website_url": "http://www.daltonunion.com", "state": "Ohio", "street": "2110 Shirk Rd"}, {"id": "ad4d68e3-5b1d-4255-aa5d-a7a90685bba7", "name": "DAMARKOM, INC.", "brewery_type": "planning", "address_1": null, "address_2": null, "address_3": null, "city": "Seaside", "state_province": "Oregon", "postal_code": "97138-5803", "country": "United States", "longitude": "-123.915501", "latitude": "46.00331776", "phone": null, "website_url": null, "state": "Oregon", "street": null}, {"id": "042e48a4-d4c8-4d67-847b-46dfcec72dd5", "name": "Damascus Brewery", "brewery_type": "micro", "address_1": "32173 Government Rd", "address_2": null, "address_3": null, "city": "Damascus", "state_province": "Virginia", "postal_code": "24236-", "country": "United States", "longitude": "-81.80251841", "latitude": "36.63973356", "phone": "2764691069", "website_url": "http://www.thedamascusbrewery.com", "state": "Virginia", "street": "32173 Government Rd"}, {"id": "763d83ba-226c-477f-bc3c-da3a63280115", "name": "Damgoode Pies", "brewery_type": "brewpub", "address_1": "500 President Clinton Ave", "address_2": null, "address_3": null, "city": "Little Rock", "state_province": "Arkansas", "postal_code": "72201-1756", "country": "United States", "longitude": "-92.2653101", "latitude": "34.7475388", "phone": "5016642239", "website_url": "http://www.damgoodepies.com", "state": "Arkansas", "street": "500 President Clinton Ave"}, {"id": "8e53e0f0-49ad-47a6-a80a-0a5e8c419339", "name": "Dancing Gnome Beer", "brewery_type": "micro", "address_1": "925 Main St", "address_2": null, "address_3": null, "city": "Pittsburgh", "state_province": "Pennsylvania", "postal_code": "15215-2301", "country": "United States", "longitude": "-79.84116859", "latitude": "40.39862051", "phone": "4124082083", "website_url": "http://www.dancinggnomebeer.com", "state": "Pennsylvania", "street": "925 Main St"}, {"id": "f2966753-8d96-4939-bf1a-7802016e9d56", "name": "Dangerous Man Brewing Co", "brewery_type": "micro", "address_1": "1300 2nd St NE", "address_2": null, "address_3": null, "city": "Minneapolis", "state_province": "Minnesota", "postal_code": "55413-1132", "country": "United States", "longitude": "-93.26664", "latitude": "45.046388", "phone": "6122364087", "website_url": "http://www.dangerousmanbrewing.com", "state": "Minnesota", "street": "1300 2nd St NE"}, {"id": "96602876-0631-4e93-ae60-25bfaac0a6ae", "name": "Dangerous Minds Brewing Co", "brewery_type": "planning", "address_1": null, "address_2": null, "address_3": null, "city": "Pompano Beach", "state_province": "Florida", "postal_code": "33062", "country": "United States", "longitude": null, "latitude": null, "phone": "9549181698", "website_url": "https://dangerousmindsbrewing.com/", "state": "Florida", "street": null}, {"id": "5d604aea-8602-4e77-98a3-f7d7c7650575", "name": "Danielmark's Brewing Company", "brewery_type": "micro", "address_1": "209 E 18th St", "address_2": null, "address_3": null, "city": "Cheyenne", "state_province": "Wyoming", "postal_code": "82001-4507", "country": "United States", "longitude": "-104.8139377", "latitude": "41.13534815", "phone": "4024508044", "website_url": "http://www.danielmarksbrewing.com", "state": "Wyoming", "street": "209 E 18th St"}, {"id": "5fac14bb-dfe3-4d40-b056-d8d4353b80a9", "name": "DankHouse Brewing Company", "brewery_type": "micro", "address_1": "161 Forry St", "address_2": null, "address_3": null, "city": "Newark", "state_province": "Ohio", "postal_code": "43055-3760", "country": "United States", "longitude": "-82.41720528", "latitude": "40.0442341", "phone": null, "website_url": "http://www.dankhousebrewing.com", "state": "Ohio", "street": "161 Forry St"}, {"id": "67935791-24ca-4793-ad6f-5755a7189645", "name": "Danny Boy Beer Works", "brewery_type": "brewpub", "address_1": "12702 Meeting House Rd", "address_2": null, "address_3": null, "city": "Carmel", "state_province": "Indiana", "postal_code": "46032-7292", "country": "United States", "longitude": "-86.1971767", "latitude": "39.971556", "phone": "3176698080", "website_url": "http://www.dannyboybeerworks.com", "state": "Indiana", "street": "12702 Meeting House Rd"}, {"id": "bc1c658f-3780-4a49-b62a-ba9da764cf15", "name": "Daredevil Brewing Company", "brewery_type": "micro", "address_1": "1151 Main St", "address_2": null, "address_3": null, "city": "Indianapolis", "state_province": "Indiana", "postal_code": "46224-6976", "country": "United States", "longitude": "-86.64727", "latitude": "39.844367", "phone": null, "website_url": "http://www.daredevilbeer.com", "state": "Indiana", "street": "1151 Main St"}, {"id": "e819c7a4-d8a6-4999-b99f-1e7f45b46d71", "name": "Dark City Brewing Company", "brewery_type": "micro", "address_1": "801 Second Ave", "address_2": null, "address_3": null, "city": "Asbury Park", "state_province": "New Jersey", "postal_code": "07712-", "country": "United States", "longitude": null, "latitude": null, "phone": "7324553792", "website_url": "http://www.darkcitybrewing.com", "state": "New Jersey", "street": "801 Second Ave"}, {"id": "70dbd577-56bb-4480-b51c-6f33123147d3", "name": "Dark Horse Brewing Co", "brewery_type": "micro", "address_1": "511 S Kalamazoo Ave", "address_2": null, "address_3": null, "city": "Marshall", "state_province": "Michigan", "postal_code": "49068-1718", "country": "United States", "longitude": "-84.96397652", "latitude": "42.26638824", "phone": "2697819940", "website_url": "http://www.darkhorsebrewery.com", "state": "Michigan", "street": "511 S Kalamazoo Ave"}, {"id": "eca31bef-2859-48a2-b933-bb9908a600f5", "name": "Dark Sea Cinema And Brewery", "brewery_type": "planning", "address_1": null, "address_2": null, "address_3": null, "city": "Oakland", "state_province": "California", "postal_code": "94609-1804", "country": "United States", "longitude": "-122.2713563", "latitude": "37.8044557", "phone": null, "website_url": "http://microcinemabrewery.com", "state": "California", "street": null}, {"id": "f9d22f56-1b7d-4483-afe6-66526c954861", "name": "Dark Sky Brewing Co.", "brewery_type": "micro", "address_1": "117 N Beaver St Ste A", "address_2": null, "address_3": null, "city": "Flagstaff", "state_province": "Arizona", "postal_code": "86001-5677", "country": "United States", "longitude": null, "latitude": null, "phone": "9282354525", "website_url": "http://www.darkskybrewing.com", "state": "Arizona", "street": "117 N Beaver St Ste A"}, {"id": "bb8e4f8e-3197-4ce7-9ee5-41f3f8f2c192", "name": "Dark Star Brewing Co Ltd", "brewery_type": "taproom", "address_1": "Star Road", "address_2": null, "address_3": null, "city": "Horsham", "state_province": "West Sussex", "postal_code": "RH13 8RA", "country": "England", "longitude": "-0.304978", "latitude": "50.957145", "phone": "1403713085", "website_url": "https://www.darkstarbrewing.co.uk/", "state": "West Sussex", "street": "Star Road"}, {"id": "227fad1b-8030-4628-b62c-e82e544d7783", "name": "Darkness Brewing", "brewery_type": "micro", "address_1": "224 Fairfield Ave", "address_2": null, "address_3": null, "city": "Bellevue", "state_province": "Kentucky", "postal_code": "41073-1041", "country": "United States", "longitude": "-84.48468072", "latitude": "39.10500991", "phone": null, "website_url": null, "state": "Kentucky", "street": "224 Fairfield Ave"}, {"id": "57e52f8c-6b7f-4a55-83f1-203e2faa7f60", "name": "Darwin Brewing Co", "brewery_type": "micro", "address_1": "803 17th Ave W", "address_2": null, "address_3": null, "city": "Bradenton", "state_province": "Florida", "postal_code": "34205-7608", "country": "United States", "longitude": "-82.57040458", "latitude": "27.48432988", "phone": "9417471970", "website_url": "http://www.darwinbrewingco.com", "state": "Florida", "street": "803 17th Ave W"}, {"id": "fd74cc7b-1172-4664-9166-e9a7788d84c2", "name": "Daugherty Brewing Company", "brewery_type": "planning", "address_1": null, "address_2": null, "address_3": null, "city": "Erie", "state_province": "Pennsylvania", "postal_code": "16510-3680", "country": "United States", "longitude": null, "latitude": null, "phone": null, "website_url": "http://www.daughertybrewingcompany.com", "state": "Pennsylvania", "street": null}, {"id": "77fbe71c-77bd-4ace-99d6-e519f1f84f03", "name": "Dauntless Brewing Company", "brewery_type": "planning", "address_1": null, "address_2": null, "address_3": null, "city": "Farmers Branch", "state_province": "Texas", "postal_code": "75234-2334", "country": "United States", "longitude": null, "latitude": null, "phone": "9035213472", "website_url": null, "state": "Texas", "street": null}, {"id": "ef1cf3fb-430d-4334-a7db-69ea18ecead9", "name": "Dave's Brew Farm", "brewery_type": "micro", "address_1": "2470 Wilson St", "address_2": null, "address_3": null, "city": "Wilson", "state_province": "Wisconsin", "postal_code": "54027-3950", "country": "United States", "longitude": "-92.176188", "latitude": "44.959339", "phone": "6124328130", "website_url": "http://www.brewfarm.com", "state": "Wisconsin", "street": "2470 Wilson St"}, {"id": "0487123b-a36d-410a-8154-8e6f6b5f9bb0", "name": "Davidson Brothers Restaurant and Brewery", "brewery_type": "brewpub", "address_1": "184 Glen St Rte 9", "address_2": null, "address_3": null, "city": "Glens Falls", "state_province": "New York", "postal_code": "12801-0409", "country": "United States", "longitude": null, "latitude": null, "phone": "5187439026", "website_url": "http://www.davidsonbrothers.com", "state": "New York", "street": "184 Glen St Rte 9"}, {"id": "cd47e129-f9a4-4744-9f43-de3638550dbe", "name": "Day Block Brewing Company", "brewery_type": "brewpub", "address_1": "1105 Washington Ave S", "address_2": null, "address_3": null, "city": "Minneapolis", "state_province": "Minnesota", "postal_code": "55415-1225", "country": "United States", "longitude": "-93.253074", "latitude": "44.9751757", "phone": "6126177793", "website_url": "http://Dayblockbrewing.com", "state": "Minnesota", "street": "1105 Washington Ave S"}, {"id": "94cd9d0e-312e-4f41-8162-50179ef32e8a", "name": "Dayton Beer Co Production Brewery & Bierhall", "brewery_type": "micro", "address_1": "41 Madison St", "address_2": null, "address_3": null, "city": "Dayton", "state_province": "Ohio", "postal_code": "45402-2105", "country": "United States", "longitude": "-84.18528868", "latitude": "39.76226676", "phone": "9372282337", "website_url": "http://www.thedaytonbeerco.com", "state": "Ohio", "street": "41 Madison St"}, {"id": "4fe3ec65-0606-43e6-9eeb-33151ac9ce76", "name": "Daytona Beach Brewing Company", "brewery_type": "micro", "address_1": "482 Fentress Blvd Ste N", "address_2": null, "address_3": null, "city": "Daytona Beach", "state_province": "Florida", "postal_code": "32114-1298", "country": "United States", "longitude": null, "latitude": null, "phone": "3866792337", "website_url": "http://www.daytonabeachbrewingcompany.com", "state": "Florida", "street": "482 Fentress Blvd Ste N"}, {"id": "1cd1dfd7-851b-4912-9bfe-2828dddc6540", "name": "DC Brau Brewing Company", "brewery_type": "regional", "address_1": "3178 Bladensburg Rd NE Ste B", "address_2": null, "address_3": null, "city": "Washington", "state_province": "District of Columbia", "postal_code": "20018-2214", "country": "United States", "longitude": null, "latitude": null, "phone": "2026218890", "website_url": "http://www.dcbrau.com", "state": "District of Columbia", "street": "3178 Bladensburg Rd NE Ste B"}, {"id": "59f9f6fc-ea91-4fb3-9445-2f21156b1e6d", "name": "De Bine Brewing Company", "brewery_type": "micro", "address_1": "993 Florida Ave", "address_2": null, "address_3": null, "city": "Palm Harbor", "state_province": "Florida", "postal_code": "34683-4224", "country": "United States", "longitude": "-82.76761678", "latitude": "28.07847685", "phone": "7272337964", "website_url": "http://www.debinebrewingco.com", "state": "Florida", "street": "993 Florida Ave"}, {"id": "d563d869-5b6e-4da1-acf8-479d5d39dd6d", "name": "De Garde Brewing", "brewery_type": "micro", "address_1": "114 Ivy Ave", "address_2": null, "address_3": null, "city": "Tillamook", "state_province": "Oregon", "postal_code": "97141-2214", "country": "United States", "longitude": "-123.8454035", "latitude": "45.45730575", "phone": "5038151635", "website_url": "http://www.degardebrewing.com/", "state": "Oregon", "street": "114 Ivy Ave"}, {"id": "82d6623d-c9e3-4d5f-a2ae-82d175bf00e6", "name": "De La Vega\u00e2\u0080\u0099s Pecan Grill and Brewery", "brewery_type": "contract", "address_1": "500 S Telshor Blvd", "address_2": null, "address_3": null, "city": "Las Cruces", "state_province": "New Mexico", "postal_code": "88011-4613", "country": "United States", "longitude": "-106.7374222", "latitude": "32.3019659", "phone": "5755211099", "website_url": "http://www.pecangrill.com", "state": "New Mexico", "street": "500 S Telshor Blvd"}, {"id": "620a0c65-51c4-4be2-be16-025a3f102fbc", "name": "Dead Armadillo Brewery", "brewery_type": "micro", "address_1": "1004 E 4th St", "address_2": null, "address_3": null, "city": "Tulsa", "state_province": "Oklahoma", "postal_code": "74120-3222", "country": "United States", "longitude": "-95.97958641", "latitude": "36.15561908", "phone": "9189499233", "website_url": "http://www.dabrewery.com", "state": "Oklahoma", "street": "1004 E 4th St"}, {"id": "629f9712-6143-43a5-a29c-bf2a8396ea1d", "name": "Dead Bear Brewing Co", "brewery_type": "brewpub", "address_1": "2552 S I 75 Business Loop", "address_2": null, "address_3": null, "city": "Grayling", "state_province": "Michigan", "postal_code": "49738-2010", "country": "United States", "longitude": null, "latitude": null, "phone": "9897456289", "website_url": null, "state": "Michigan", "street": "2552 S I 75 Business Loop"}, {"id": "5f82df6e-52a9-4143-8ea5-93294d43d645", "name": "Dead Bird Brewing Company", "brewery_type": "contract", "address_1": "4539 Helgesen Dr", "address_2": null, "address_3": null, "city": "Madison", "state_province": "Wisconsin", "postal_code": "53718-6747", "country": "United States", "longitude": "-89.3053312", "latitude": "43.0662949", "phone": null, "website_url": "http://www.deadbirdbrewing.com", "state": "Wisconsin", "street": "4539 Helgesen Dr"}, {"id": "e34b5399-e300-423a-8c2e-34f1091878b1", "name": "Dead Centre Brewing", "brewery_type": "brewpub", "address_1": "Custume Pier Appartments", "address_2": null, "address_3": null, "city": "Athlone", "state_province": "Westmeath", "postal_code": "N37 N1F2", "country": "Ireland", "longitude": "-7.9428529", "latitude": "53.4236546", "phone": "353906420883", "website_url": "http://deadcentrebrewing.com/", "state": "Westmeath", "street": "Custume Pier Appartments"}, {"id": "8fbdcf95-99f8-4543-ad86-4e9ef3dd2819", "name": "Dead Eric Brewing Co. LLC", "brewery_type": "micro", "address_1": "433 Old House Rd", "address_2": null, "address_3": null, "city": "Ridgeland", "state_province": "South Carolina", "postal_code": "29936-6946", "country": "United States", "longitude": "-83.042921", "latitude": "34.723368", "phone": "8433383693", "website_url": "http://www.deadericbrewing.com", "state": "South Carolina", "street": "433 Old House Rd"}, {"id": "1d032e21-1272-4825-b33b-f3f6d4c6ec43", "name": "Dead Hippie Brewing", "brewery_type": "micro", "address_1": "3701 S Santa Fe Dr Unit 7", "address_2": null, "address_3": null, "city": "Sheridan", "state_province": "Colorado", "postal_code": "80110-3344", "country": "United States", "longitude": null, "latitude": null, "phone": "7204467961", "website_url": "http://www.deadhippiebrewing.com", "state": "Colorado", "street": "3701 S Santa Fe Dr Unit 7"}, {"id": "53b24a8d-eb78-4361-8cf8-c060925d2f73", "name": "Dead Lizard Brewing Company", "brewery_type": "micro", "address_1": "4507 36th St Ste C", "address_2": null, "address_3": null, "city": "Orlando", "state_province": "Florida", "postal_code": "32811-6520", "country": "United States", "longitude": null, "latitude": null, "phone": "4077108949", "website_url": "http://www.deadlizardbrewing.com", "state": "Florida", "street": "4507 36th St Ste C"}, {"id": "7324090e-aaf4-4a30-8370-e8eb664445d0", "name": "Dead Low Brewing", "brewery_type": "planning", "address_1": null, "address_2": null, "address_3": null, "city": "Cincinnati", "state_province": "Ohio", "postal_code": "45230", "country": "United States", "longitude": null, "latitude": null, "phone": "5132909434", "website_url": "http://www.deadlowbrewing.com", "state": "Ohio", "street": null}, {"id": "ccb30821-042d-43fc-a8a1-1ef9f9c6a288", "name": "Dead Oak Brewing Company", "brewery_type": "micro", "address_1": "5925 Entrada Ave", "address_2": null, "address_3": null, "city": "Atascadero", "state_province": "California", "postal_code": "93422-4223", "country": "United States", "longitude": "-120.6687359", "latitude": "35.4897884", "phone": "6023327027", "website_url": "http://www.facebook.com/deadoakbrewing", "state": "California", "street": "5925 Entrada Ave"}, {"id": "61101f4b-cd7e-401e-bab1-159dc83df85a", "name": "Deadbeach Brewery", "brewery_type": "brewpub", "address_1": "406 S Durango St", "address_2": null, "address_3": null, "city": "El Paso", "state_province": "Texas", "postal_code": "79901-1063", "country": "United States", "longitude": null, "latitude": null, "phone": "9158012337", "website_url": "http://www.deadbeach.com", "state": "Texas", "street": "406 S Durango St"}, {"id": "c6c9841a-2199-4cf7-9892-4fcaa46d7fa1", "name": "Deadly Sins Brewing", "brewery_type": "micro", "address_1": "750 Jackson Ave Ste 102", "address_2": null, "address_3": null, "city": "Winter Park", "state_province": "Florida", "postal_code": "32789-4673", "country": "United States", "longitude": null, "latitude": null, "phone": "4079008726", "website_url": "http://www.deadlysinsbrewing.com", "state": "Florida", "street": "750 Jackson Ave Ste 102"}, {"id": "d2f3c749-faf4-4551-a912-c207ccbc141a", "name": "Deadwood Brewery / Boston Bowl", "brewery_type": "brewpub", "address_1": "820 William T Morrissey Blvd", "address_2": null, "address_3": null, "city": "Boston", "state_province": "Massachusetts", "postal_code": "02122-3404", "country": "United States", "longitude": "-71.04799748", "latitude": "42.29485605", "phone": "6177401440", "website_url": "http://www.deadwoodbrewery.com", "state": "Massachusetts", "street": "820 William T Morrissey Blvd"}, {"id": "e18fd074-fb35-422b-85bd-b5ce56b72d2a", "name": "Dean and Co", "brewery_type": "micro", "address_1": "201 Grant St", "address_2": null, "address_3": null, "city": "La Junta", "state_province": "Colorado", "postal_code": "81050", "country": "United States", "longitude": null, "latitude": null, "phone": null, "website_url": null, "state": "Colorado", "street": "201 Grant St"}, {"id": "532b0c2e-6f35-448e-8f77-2e4042be5e9b", "name": "Deanitude Brewing Company, LLC", "brewery_type": "planning", "address_1": null, "address_2": null, "address_3": null, "city": "Dallas", "state_province": "Texas", "postal_code": "75225-0734", "country": "United States", "longitude": null, "latitude": null, "phone": "2143600004", "website_url": "http://www.deanitudebrewing.com", "state": "Texas", "street": null}, {"id": "6204438f-fe47-448d-9f43-25a19793d874", "name": "Deans Brothers Brewing Co.", "brewery_type": "micro", "address_1": "1006 S Hathaway St", "address_2": null, "address_3": null, "city": "Santa Ana", "state_province": "California", "postal_code": "92705-4129", "country": "United States", "longitude": "-117.853182", "latitude": "33.7353305", "phone": "7145422001", "website_url": "http://www.deansbros.com", "state": "California", "street": "1006 S Hathaway St"}, {"id": "1d6ae265-d8dd-4a19-9524-801019b356c6", "name": "Dearborn Brewing", "brewery_type": "micro", "address_1": "21930 Michigan Ave", "address_2": null, "address_3": null, "city": "Dearborn", "state_province": "Michigan", "postal_code": "48124-2351", "country": "United States", "longitude": "-83.2433835", "latitude": "42.30664415", "phone": "3139144187", "website_url": "http://www.dearbornbrewing.com", "state": "Michigan", "street": "21930 Michigan Ave"}, {"id": "c3a06a86-327d-43f5-8305-bef7578db4e9", "name": "Death Avenue", "brewery_type": "brewpub", "address_1": "315 10th Ave B/W 28th & 29th St.", "address_2": null, "address_3": null, "city": "New York", "state_province": "New York", "postal_code": "10001-1416", "country": "United States", "longitude": null, "latitude": null, "phone": "2126958080", "website_url": "http://www.deathave.com", "state": "New York", "street": "315 10th Ave B/W 28th & 29th St."}, {"id": "37534d85-42a3-4ba2-ac1f-96a207b20c80", "name": "Death Of The Fox", "brewery_type": "micro", "address_1": "119 Berkley Rd Ste B", "address_2": null, "address_3": null, "city": "Clarksboro", "state_province": "New Jersey", "postal_code": "08020-1161", "country": "United States", "longitude": null, "latitude": null, "phone": null, "website_url": "http://www.deathofthefoxbrewing.com", "state": "New Jersey", "street": "119 Berkley Rd Ste B"}, {"id": "ce7b7506-b385-43ad-96d9-4736c60a8843", "name": "Death Valley Brewing", "brewery_type": "micro", "address_1": "102 Old Spanish Trail Hwy", "address_2": null, "address_3": null, "city": "Tecopa", "state_province": "California", "postal_code": "92389", "country": "United States", "longitude": "-116.2063394", "latitude": "35.84889235", "phone": "7608524273", "website_url": "http://www.deathvalleybrewing.com", "state": "California", "street": "102 Old Spanish Trail Hwy"}, {"id": "1aa70549-6274-422c-ac3f-9c2e9df3b210", "name": "Deb's Brewtopia", "brewery_type": "micro", "address_1": "106 Cedar St", "address_2": null, "address_3": null, "city": "Elkader", "state_province": "Iowa", "postal_code": "52043", "country": "United States", "longitude": "-91.40608353", "latitude": "42.85486681", "phone": "5632453737", "website_url": "http://www.debsbrewtopia.com", "state": "Iowa", "street": "106 Cedar St"}, {"id": "9e543dda-cb7f-4dc9-a43d-e5c730b02ef0", "name": "Decadent Ales", "brewery_type": "micro", "address_1": "607A E Boston Post Rd", "address_2": null, "address_3": null, "city": "Mamaroneck", "state_province": "New York", "postal_code": "10543-", "country": "United States", "longitude": "-73.72755206", "latitude": "40.95193675", "phone": "8005981085", "website_url": "http://www.decadentales.com", "state": "New York", "street": "607A E Boston Post Rd"}, {"id": "cfb26ba4-d716-495e-9ce8-b40d3a0cf9f3", "name": "Decatur Brew Works", "brewery_type": "micro", "address_1": "101 N Main St", "address_2": null, "address_3": null, "city": "Decatur", "state_province": "Illinois", "postal_code": "62523-1206", "country": "United States", "longitude": "-88.95573973", "latitude": "39.84128742", "phone": "2173308683", "website_url": "http://www.decaturbrewworks.com", "state": "Illinois", "street": "101 N Main St"}, {"id": "4e286a11-b83b-4b84-9cc7-26165de8cbb7", "name": "Deception Brewing Company", "brewery_type": "closed", "address_1": "1174 SW Highway 99W", "address_2": null, "address_3": null, "city": "Dundee", "state_province": "Oregon", "postal_code": "97115", "country": "United States", "longitude": "-123.0147466", "latitude": "45.27437643", "phone": "9718328054", "website_url": "http://www.deceptionbrewingco.com", "state": "Oregon", "street": "1174 SW Highway 99W"}, {"id": "3bdba496-2442-4bef-b18d-08d6f2c525b3", "name": "Decibel Brewing Co", "brewery_type": "micro", "address_1": "18204 Bothell Everett Hwy Ste C", "address_2": null, "address_3": null, "city": "Bothell", "state_province": "Washington", "postal_code": "98012-6869", "country": "United States", "longitude": "-122.210174", "latitude": "47.833364", "phone": "4254081946", "website_url": "http://www.decibelbrewing.com", "state": "Washington", "street": "18204 Bothell Everett Hwy Ste C"}, {"id": "f8eb2cdf-8cda-482f-9df5-53e7bdc3d42f", "name": "Deciduous Brewing Company", "brewery_type": "micro", "address_1": "12 Weaver St", "address_2": null, "address_3": null, "city": "Newmarket", "state_province": "New Hampshire", "postal_code": "03857-2307", "country": "United States", "longitude": null, "latitude": null, "phone": "6032925809", "website_url": null, "state": "New Hampshire", "street": "12 Weaver St"}, {"id": "e2610530-7819-4b89-80e6-86ea6fd7ff44", "name": "Deck Beer Garden", "brewery_type": "brewpub", "address_1": "Av. Aida 63", "address_2": null, "address_3": null, "city": "Estoril", "state_province": "Lisboa", "postal_code": "2765-187", "country": "Portugal", "longitude": "-9.399351099325555", "latitude": "38.70428229725156", "phone": "+351 21 468 2661", "website_url": "https://www.facebook.com/deckbeerlab", "state": "Lisboa", "street": "Av. Aida 63"}, {"id": "9fbd0b0c-5aa5-417c-a699-85aa4dc90f86", "name": "Declaration Brewing Company", "brewery_type": "micro", "address_1": "2030 S Cherokee St", "address_2": null, "address_3": null, "city": "Denver", "state_province": "Colorado", "postal_code": "80223-3917", "country": "United States", "longitude": "-104.9910056", "latitude": "39.67973155", "phone": "3039557410", "website_url": "http://www.declarationbrewing.com", "state": "Colorado", "street": "2030 S Cherokee St"}, {"id": "60e1a83a-3b06-4d02-aef9-7e1ae7e9feec", "name": "Deep Brewing Company", "brewery_type": "micro", "address_1": "2524 Cathay Ct STE 2", "address_2": null, "address_3": null, "city": "Tallahassee", "state_province": "Florida", "postal_code": "32308-4248", "country": "United States", "longitude": null, "latitude": null, "phone": "8505701478", "website_url": "http://www.deepbrewing.com", "state": "Florida", "street": "2524 Cathay Ct STE 2"}, {"id": "ca92dd91-e748-41dc-a471-e87554a91a06", "name": "Deep Draft Brewing", "brewery_type": "micro", "address_1": "3536 W Belfair Valley Rd", "address_2": null, "address_3": null, "city": "Bremerton", "state_province": "Washington", "postal_code": "98312-4928", "country": "United States", "longitude": "-122.698446", "latitude": "47.53034342", "phone": "3605504438", "website_url": "https://www.deepdraftbrew.com/", "state": "Washington", "street": "3536 W Belfair Valley Rd"}, {"id": "1998961a-6504-470f-af2a-15cef23e71b0", "name": "Deep Ellum Brewing Co", "brewery_type": "regional", "address_1": "2821 Saint Louis St", "address_2": null, "address_3": null, "city": "Dallas", "state_province": "Texas", "postal_code": "75226-1904", "country": "United States", "longitude": "-96.78156845", "latitude": "32.78062733", "phone": "2148883322", "website_url": "http://www.deepellumbrewing.com", "state": "Texas", "street": "2821 Saint Louis St"}, {"id": "a20aa253-c1dc-4922-a3f5-7e905f774d8d", "name": "Deep River Brewing Company", "brewery_type": "micro", "address_1": "700 W Main St Ste 102", "address_2": null, "address_3": null, "city": "Clayton", "state_province": "North Carolina", "postal_code": "27520-1657", "country": "United States", "longitude": null, "latitude": null, "phone": "9193683243", "website_url": "http://www.deepriverbrewing.com", "state": "North Carolina", "street": "700 W Main St Ste 102"}, {"id": "26540a50-0fa6-4fcc-85e0-5079d118c6ee", "name": "Deep Roots Brewing", "brewery_type": "planning", "address_1": null, "address_2": null, "address_3": null, "city": "Phoenix", "state_province": "Arizona", "postal_code": "85007-3115", "country": "United States", "longitude": "-112.0773456", "latitude": "33.4485866", "phone": "6023306790", "website_url": "http://www.deeprootsbrewing.com", "state": "Arizona", "street": null}, {"id": "a50dfe25-5de9-4b5f-8a1a-b04a489e26ea", "name": "Deep Sleep Brewing Company LLC", "brewery_type": "closed", "address_1": "6891 Whiskey Creek Rd.", "address_2": null, "address_3": null, "city": "Washington", "state_province": "Missouri", "postal_code": "63090", "country": "United States", "longitude": null, "latitude": null, "phone": "3142395801", "website_url": null, "state": "Missouri", "street": "6891 Whiskey Creek Rd."}, {"id": "c9e5fb87-9609-4683-81ea-a90dc6c8b50f", "name": "Deep Space Brewing / Out of This World Pizza", "brewery_type": "brewpub", "address_1": "6255 NE Century Blvd", "address_2": null, "address_3": null, "city": "Hillsboro", "state_province": "Oregon", "postal_code": "97124-8621", "country": "United States", "longitude": "-122.912049", "latitude": "45.564963", "phone": "5036298700", "website_url": null, "state": "Oregon", "street": "6255 NE Century Blvd"}, {"id": "8476a30e-0e24-40a2-907e-92109c972a03", "name": "DeepWater Brewing Company", "brewery_type": "micro", "address_1": "33 Tenney Hl", "address_2": null, "address_3": null, "city": "Blue Hill", "state_province": "Maine", "postal_code": "04614", "country": "United States", "longitude": null, "latitude": null, "phone": "2073742411", "website_url": "http://www.arborvine.com", "state": "Maine", "street": "33 Tenney Hl"}, {"id": "4000af9a-d444-4ec9-9561-8dfab554e043", "name": "Deer Creek Brewery", "brewery_type": "micro", "address_1": "17661 Cumberland Rd", "address_2": null, "address_3": null, "city": "Noblesville", "state_province": "Indiana", "postal_code": "46060-", "country": "United States", "longitude": "-85.9962796", "latitude": "40.0443978", "phone": "3176748266", "website_url": "http://www.deercreekbrewery.com", "state": "Indiana", "street": "17661 Cumberland Rd"}, {"id": "a3f25ad0-001b-4e6b-8dd3-cbcbd0962654", "name": "Dees Brothers Brewery", "brewery_type": "planning", "address_1": null, "address_2": null, "address_3": null, "city": "Orlando", "state_province": "Florida", "postal_code": "32807-1633", "country": "United States", "longitude": null, "latitude": null, "phone": "4072575104", "website_url": "http://www.deesbrosbrew.com", "state": "Florida", "street": null}, {"id": "7606b693-f67c-4f45-8d3c-8b81d2c9b415", "name": "Defeat River Brewery", "brewery_type": "micro", "address_1": "473 Fir Avenue", "address_2": null, "address_3": null, "city": "Reedsport", "state_province": "Oregon", "postal_code": "97467", "country": "United States", "longitude": "-124.0974021", "latitude": "43.70234471", "phone": "5418088862", "website_url": "http://www.defeatriverbrewery.com", "state": "Oregon", "street": "473 Fir Avenue"}, {"id": "7b891d71-9462-467d-ad32-54fd732162ea", "name": "Defiance Brewing Co.", "brewery_type": "micro", "address_1": "2050 E US Highway 40", "address_2": null, "address_3": null, "city": "Hays", "state_province": "Kansas", "postal_code": "67601-9310", "country": "United States", "longitude": null, "latitude": null, "phone": "7853012337", "website_url": "http://www.defiancebeer.com", "state": "Kansas", "street": "2050 E US Highway 40"}, {"id": "47b0b67c-099f-47ba-a549-4144f69c0234", "name": "Defiant Brewing Co", "brewery_type": "brewpub", "address_1": "6 E Dexter Plz", "address_2": null, "address_3": null, "city": "Pearl River", "state_province": "New York", "postal_code": "10965-2360", "country": "United States", "longitude": "-74.02302217", "latitude": "41.06015492", "phone": "8459208602", "website_url": "http://www.defiantbrewing.com", "state": "New York", "street": "6 E Dexter Plz"}, {"id": "8f2ea1f7-965f-4106-ab3c-46efecfb941e", "name": "Definitive Brewing Company", "brewery_type": "micro", "address_1": "35 Industrial Way", "address_2": null, "address_3": null, "city": "Portland", "state_province": "Maine", "postal_code": "04103-1071", "country": "United States", "longitude": "-70.3142737", "latitude": "43.70629522", "phone": null, "website_url": "http://www.definitivebrewing.com", "state": "Maine", "street": "35 Industrial Way"}, {"id": "0338af09-60df-4e16-9fd6-89d3033c9cc2", "name": "Deft Brewing", "brewery_type": "micro", "address_1": "5328 Banks St", "address_2": null, "address_3": null, "city": "San Diego", "state_province": "California", "postal_code": "92110-4008", "country": "United States", "longitude": "-117.1993433", "latitude": "32.76435432", "phone": "8589995728", "website_url": "http://www.deftbrewing.com", "state": "California", "street": "5328 Banks St"}, {"id": "121c725d-bf10-4f10-8e7f-73bbbd76fbd2", "name": "Del Cielo Brewing Co.", "brewery_type": "micro", "address_1": "701 Escobar St Ste A", "address_2": null, "address_3": null, "city": "Martinez", "state_province": "California", "postal_code": "94553-1150", "country": "United States", "longitude": "-122.1369329", "latitude": "38.01845197", "phone": "9253301229", "website_url": "http://www.delcielobrewing.com", "state": "California", "street": "701 Escobar St Ste A"}, {"id": "199fdb4e-b2aa-4f46-a43e-832a6f07b879", "name": "Delafield Brewhaus", "brewery_type": "brewpub", "address_1": "3832 Hillside Dr", "address_2": null, "address_3": null, "city": "Delafield", "state_province": "Wisconsin", "postal_code": "53018-2174", "country": "United States", "longitude": "-88.350304", "latitude": "43.048373", "phone": "2626467821", "website_url": "http://www.delafield-brewhaus.com", "state": "Wisconsin", "street": "3832 Hillside Dr"}, {"id": "0ab6f6fc-b741-4c2e-8e03-6987401a3837", "name": "Delicious Science Brewing", "brewery_type": "closed", "address_1": "11626 Sterling Ave Ste G", "address_2": null, "address_3": null, "city": "Riverside", "state_province": "California", "postal_code": "92503-4991", "country": "United States", "longitude": "-117.4850052", "latitude": "33.89543379", "phone": "9513522739", "website_url": "http://www.delicioussciencebreing.com", "state": "California", "street": "11626 Sterling Ave Ste G"}, {"id": "e272df56-966d-4587-8e7c-46adda39ccba", "name": "Delta Sunshine Brewing Company", "brewery_type": "planning", "address_1": null, "address_2": null, "address_3": null, "city": "Memphis", "state_province": "Tennessee", "postal_code": "38120-8859", "country": "United States", "longitude": null, "latitude": null, "phone": "9016748330", "website_url": null, "state": "Tennessee", "street": null}, {"id": "7dc2107f-007b-4435-a23b-9d4278512460", "name": "Deluxe Brewing Co", "brewery_type": "micro", "address_1": "PO Box 3358", "address_2": null, "address_3": null, "city": "Albany", "state_province": "Oregon", "postal_code": "97321-0713", "country": "United States", "longitude": "-123.0981451", "latitude": "44.63937563", "phone": "5419287699", "website_url": "http://www.deluxebrewing.com", "state": "Oregon", "street": "PO Box 3358"}, {"id": "d28cea89-9e32-40a6-8a98-684ca83c54ca", "name": "Demented Brewing Co.", "brewery_type": "micro", "address_1": "600 Lincoln Blvd", "address_2": null, "address_3": null, "city": "Middlesex", "state_province": "New Jersey", "postal_code": "08846-2443", "country": "United States", "longitude": "-74.4946842", "latitude": "40.5707752", "phone": "7326298260", "website_url": "http://www.dementedbrewing.com", "state": "New Jersey", "street": "600 Lincoln Blvd"}, {"id": "a78baae3-6e1e-496a-b014-544a5dc5d8d0", "name": "Democracy Brewing", "brewery_type": "brewpub", "address_1": "35 Temple Pl", "address_2": null, "address_3": null, "city": "Boston", "state_province": "Massachusetts", "postal_code": "02111", "country": "United States", "longitude": "-71.06231578", "latitude": "42.35529623", "phone": "8572172739", "website_url": "http://www.democracybrewing.com", "state": "Massachusetts", "street": "35 Temple Pl"}, {"id": "da34f414-042a-4e65-ad6e-3069b6a205d0", "name": "Dempsey's Brew Pub and Restaurant - Baltimore", "brewery_type": "brewpub", "address_1": "333 W Camden St", "address_2": null, "address_3": null, "city": "Baltimore", "state_province": "Maryland", "postal_code": "21201", "country": "United States", "longitude": "-76.62013833", "latitude": "39.28518467", "phone": "4108437901", "website_url": "http://www.dempseysbaltimore.com", "state": "Maryland", "street": "333 W Camden St"}, {"id": "0d2f7fc6-727f-47ac-a931-00117b5aa2db", "name": "Dempsey's Restaurant And Brewery", "brewery_type": "brewpub", "address_1": "50 E Washington St", "address_2": null, "address_3": null, "city": "Petaluma", "state_province": "California", "postal_code": "94952-3115", "country": "United States", "longitude": "-122.6391907", "latitude": "38.2348199", "phone": "7077659694", "website_url": "http://www.dempseys.com", "state": "California", "street": "50 E Washington St"}, {"id": "cff33451-0f08-4488-9233-0f3f5876a1a5", "name": "Dempseys Brewery, Pub", "brewery_type": "brewpub", "address_1": "127 N Broadway", "address_2": null, "address_3": null, "city": "Watertown", "state_province": "South Dakota", "postal_code": "57201-3525", "country": "United States", "longitude": "-97.11389409", "latitude": "44.90302636", "phone": "6058829760", "website_url": "http://www.dempseybrewpub.com", "state": "South Dakota", "street": "127 N Broadway"}, {"id": "6cfdd1a7-5875-490d-ac21-972b403aaf56", "name": "Denali Brewing Company", "brewery_type": "micro", "address_1": "37083 Talkeetna Spur Rd", "address_2": null, "address_3": null, "city": "Talkeetna", "state_province": "Alaska", "postal_code": "99676", "country": "United States", "longitude": "-150.029188", "latitude": "62.161453", "phone": "9077332536", "website_url": "http://www.denalibrewing.com", "state": "Alaska", "street": "37083 Talkeetna Spur Rd"}, {"id": "1a390f44-9b37-4c41-b482-c974f068092a", "name": "Denizens Brewing Company", "brewery_type": "brewpub", "address_1": "1115 E West Hwy", "address_2": null, "address_3": null, "city": "Silver Spring", "state_province": "Maryland", "postal_code": "20910-4852", "country": "United States", "longitude": "-77.02848142", "latitude": "38.98957715", "phone": "3015579818", "website_url": "http://www.denizensbrewingco.com", "state": "Maryland", "street": "1115 E West Hwy"}, {"id": "887a5d64-2fa8-4695-9265-8bc11cfd686f", "name": "DeNovo Beverage of Monmouth", "brewery_type": "micro", "address_1": "105 S A St", "address_2": null, "address_3": null, "city": "Monmouth", "state_province": "Illinois", "postal_code": "61462-1706", "country": "United States", "longitude": "-90.64964464", "latitude": "40.9112055", "phone": null, "website_url": "http://www.denovobrewing.co", "state": "Illinois", "street": "105 S A St"}, {"id": "72d8f50e-0dff-46ec-9251-e79c917786b2", "name": "Dented Face Brewing Company", "brewery_type": "planning", "address_1": null, "address_2": null, "address_3": null, "city": "Delta", "state_province": "Colorado", "postal_code": "81416", "country": "United States", "longitude": null, "latitude": null, "phone": null, "website_url": null, "state": "Colorado", "street": null}, {"id": "fc88252f-a4fb-4016-a929-6111f6c15eb5", "name": "Denton County Brewing Company", "brewery_type": "micro", "address_1": "200 E McKinney St", "address_2": null, "address_3": null, "city": "Denton", "state_province": "Texas", "postal_code": "76201-4230", "country": "United States", "longitude": "-97.131672", "latitude": "33.216517", "phone": "9404350710", "website_url": "http://www.dentoncountybrewingco.com", "state": "Texas", "street": "200 E McKinney St"}, {"id": "4405d177-19d8-44d4-bbf2-3b94894d460c", "name": "Denver Beer Co", "brewery_type": "micro", "address_1": "1695 Platte St", "address_2": null, "address_3": null, "city": "Denver", "state_province": "Colorado", "postal_code": "80202-1123", "country": "United States", "longitude": "-105.0072502", "latitude": "39.7583143", "phone": "3034332739", "website_url": "http://www.denverbeerco.com", "state": "Colorado", "street": "1695 Platte St"}, {"id": "4b5c7db7-9157-47f7-ac78-299248150164", "name": "Denver Beer Co Canworks", "brewery_type": "micro", "address_1": "4455 Jason St", "address_2": null, "address_3": null, "city": "Denver", "state_province": "Colorado", "postal_code": "80211-2412", "country": "United States", "longitude": "-105.0008302", "latitude": "39.7769429", "phone": "7202954781", "website_url": null, "state": "Colorado", "street": "4455 Jason St"}, {"id": "29c1c73e-3eac-4a09-8fd2-16967e838f9e", "name": "Denver Beer Co Olde Town Arvada", "brewery_type": "micro", "address_1": "5768 Olde Wadsworth Blvd", "address_2": null, "address_3": null, "city": "Arvada", "state_province": "Colorado", "postal_code": "80002-2549", "country": "United States", "longitude": "-105.0814554", "latitude": "39.801625", "phone": null, "website_url": null, "state": "Colorado", "street": "5768 Olde Wadsworth Blvd"}, {"id": "1890caa7-06e0-4bb9-8a98-2c1a21480ae7", "name": "Departed Soles Brewing", "brewery_type": "micro", "address_1": "150 Bay Street, Commercial Side", "address_2": null, "address_3": null, "city": "Jersey City", "state_province": "New Jersey", "postal_code": "07302-2900", "country": "United States", "longitude": null, "latitude": null, "phone": "2014798578", "website_url": "http://www.departedsoles.com", "state": "New Jersey", "street": "150 Bay Street, Commercial Side"}, {"id": "6d646324-bf6f-49c8-b9d9-e2d2cf508e2f", "name": "Department Coffee", "brewery_type": "contract", "address_1": "1940 N 30th Rd", "address_2": null, "address_3": null, "city": "Hollywood", "state_province": "Florida", "postal_code": "33021-4401", "country": "United States", "longitude": "-80.16836199", "latitude": "26.02618324", "phone": "3235382955", "website_url": "http://www.depatmentcoffee.com", "state": "Florida", "street": "1940 N 30th Rd"}, {"id": "574d5320-9db5-4b09-a017-5d0eeb92dba3", "name": "Depot Deli and Lounge", "brewery_type": "brewpub", "address_1": "101 N Railroad St", "address_2": null, "address_3": null, "city": "Shenandoah", "state_province": "Iowa", "postal_code": "51601-1158", "country": "United States", "longitude": "-95.376823", "latitude": "40.765042", "phone": "7122464444", "website_url": "http://www.depotdeli.com", "state": "Iowa", "street": "101 N Railroad St"}, {"id": "80e88a16-8dd6-4d29-a518-32ecd2ffdfe3", "name": "Depot Saloon", "brewery_type": "brewpub", "address_1": "9 S Race St", "address_2": null, "address_3": null, "city": "Greenville", "state_province": "Pennsylvania", "postal_code": "16125-2213", "country": "United States", "longitude": "-80.390239", "latitude": "41.40444", "phone": "7245884201", "website_url": "http://www.depotsaloon.com", "state": "Pennsylvania", "street": "9 S Race St"}, {"id": "ae6e6e2a-84f4-45c2-adce-e5b80997f35c", "name": "Division Brewing", "brewery_type": "micro", "address_1": "506 E Main St", "address_2": null, "address_3": null, "city": "Arlington", "state_province": "Texas", "postal_code": "76010-1228", "country": "United States", "longitude": "-97.10256904", "latitude": "32.73630741", "phone": "2146978350", "website_url": "http://www.divisionbrewing.com", "state": "Texas", "street": "506 E Main St"}, {"id": "afa9d016-15d3-4fd1-b8f1-ede356fc0da7", "name": "Depot Street Brewing Co", "brewery_type": "micro", "address_1": "904 Depot St", "address_2": null, "address_3": null, "city": "Jonesborough", "state_province": "Tennessee", "postal_code": "37659-5662", "country": "United States", "longitude": "-82.48054524", "latitude": "36.28765395", "phone": "4237537628", "website_url": "http://www.depotstreetbrewing.com", "state": "Tennessee", "street": "904 Depot St"}, {"id": "afcd66d0-520e-456b-a377-caeda279a70e", "name": "Der Blokken Brewery", "brewery_type": "closed", "address_1": "1100 Perry Ave Unit C", "address_2": null, "address_3": null, "city": "Bremerton", "state_province": "Washington", "postal_code": "98310-4945", "country": "United States", "longitude": null, "latitude": null, "phone": "3603772344", "website_url": "http://www.derblokken.com", "state": "Washington", "street": "1100 Perry Ave Unit C"}, {"id": "09c632a5-61d8-4653-abd0-e2f55da61d8a", "name": "Derive Brewing company", "brewery_type": "micro", "address_1": "2808 N. High St.", "address_2": null, "address_3": null, "city": "Columbus", "state_province": "Ohio", "postal_code": "43206", "country": "United States", "longitude": "-83.01185", "latitude": "40.01939", "phone": "614-732-4186", "website_url": "https://www.derivebeer.com/", "state": "Ohio", "street": "2808 N. High St."}, {"id": "03345ba6-46c2-4ab9-88f5-d872169e99cc", "name": "Descendants Brewing Company", "brewery_type": "brewpub", "address_1": "61 Bridge St", "address_2": null, "address_3": null, "city": "Milford", "state_province": "New Jersey", "postal_code": "08848-1264", "country": "United States", "longitude": "-75.095372", "latitude": "40.568461", "phone": null, "website_url": null, "state": "New Jersey", "street": "61 Bridge St"}, {"id": "9e06a19e-312b-4d45-b264-cecf6e51a783", "name": "Deschutes Brewery", "brewery_type": "regional", "address_1": "901 SW Simpson Ave", "address_2": null, "address_3": null, "city": "Bend", "state_province": "Oregon", "postal_code": "97702-3118", "country": "United States", "longitude": "-121.3246184", "latitude": "44.04780638", "phone": "5413858606", "website_url": "http://www.deschutesbrewery.com", "state": "Oregon", "street": "901 SW Simpson Ave"}, {"id": "481d796e-a8aa-4253-b188-960dd7862ddc", "name": "Deschutes Brewery & Public House", "brewery_type": "brewpub", "address_1": "1044 NW Bond St", "address_2": null, "address_3": null, "city": "Bend", "state_province": "Oregon", "postal_code": "97703-2002", "country": "United States", "longitude": "-121.3113845", "latitude": "44.05941415", "phone": "5413829242", "website_url": "http://www.deschutesbrewery.com", "state": "Oregon", "street": "1044 NW Bond St"}, {"id": "620e6a25-dd43-4c59-9598-226c62829135", "name": "Deschutes Brewery & Public House", "brewery_type": "brewpub", "address_1": "210 NW 11th Ave", "address_2": null, "address_3": null, "city": "Portland", "state_province": "Oregon", "postal_code": "97209-2929", "country": "United States", "longitude": "-122.6818808", "latitude": "45.52468", "phone": "5032964906", "website_url": "http://www.deschutesbrewery.com", "state": "Oregon", "street": "210 NW 11th Ave"}, {"id": "0e67f77f-badf-42fe-98c0-c746c6e9140c", "name": "Desert Barn Brewing Co.", "brewery_type": "brewpub", "address_1": "11352 Hesperia Rd Ste B", "address_2": null, "address_3": null, "city": "Hesperia", "state_province": "California", "postal_code": "92345-2165", "country": "United States", "longitude": null, "latitude": null, "phone": null, "website_url": null, "state": "California", "street": "11352 Hesperia Rd Ste B"}, {"id": "9c367e3f-82fc-4d51-bc2c-05c6aa90d708", "name": "Desert Eagle Brewing Company", "brewery_type": "micro", "address_1": "150 W Main St", "address_2": null, "address_3": null, "city": "Mesa", "state_province": "Arizona", "postal_code": "85201-7310", "country": "United States", "longitude": "-111.8568311", "latitude": "33.4148261", "phone": "4806562662", "website_url": "http://www.deserteaglebrewing.com", "state": "Arizona", "street": "150 W Main St"}, {"id": "3c7bbeb4-bb5b-4cdf-a5e9-e5ded84078c8", "name": "Desert Edge Brewery", "brewery_type": "brewpub", "address_1": "551 E 600 S", "address_2": null, "address_3": null, "city": "Salt Lake City", "state_province": "Utah", "postal_code": "84102-2717", "country": "United States", "longitude": "-111.8750211", "latitude": "40.75639108", "phone": "8015218917", "website_url": "http://www.desertedgebrewery.com", "state": "Utah", "street": "551 E 600 S"}, {"id": "f6253cbe-624f-4eb4-8aa5-5e6e0eca41ae", "name": "Desert Monks Brewing Co.", "brewery_type": "planning", "address_1": null, "address_2": null, "address_3": null, "city": "Gilbert", "state_province": "Arizona", "postal_code": "85296-3480", "country": "United States", "longitude": "-111.7890239", "latitude": "33.3528259", "phone": "4805257444", "website_url": "https://www.desertmonksbrewing.com/", "state": "Arizona", "street": null}, {"id": "cd625c02-0023-4fdd-803c-34a1343d37da", "name": "Desert Valley Brewing Co.", "brewery_type": "micro", "address_1": "2809 Broadbent Pkwy NE, Suite D C/O The Craftroom", "address_2": null, "address_3": null, "city": "Albuquerque", "state_province": "New Mexico", "postal_code": "87107-1613", "country": "United States", "longitude": null, "latitude": null, "phone": "5057171985", "website_url": null, "state": "New Mexico", "street": "2809 Broadbent Pkwy NE, Suite D C/O The Craftroom"}, {"id": "1a9e21df-18dd-4373-a41c-a54d949336e8", "name": "Deslogetown Brewery", "brewery_type": "brewpub", "address_1": "1669 Pine Ridge Trail", "address_2": null, "address_3": null, "city": "Park Hills", "state_province": "Missouri", "postal_code": "63601", "country": "United States", "longitude": "-90.561161", "latitude": "37.830972", "phone": "5734314294", "website_url": "http://stfrancoiswinery.com", "state": "Missouri", "street": "1669 Pine Ridge Trail"}, {"id": "59d438c2-772b-46ff-b357-e12068eba653", "name": "Desperate Times Brewing Co", "brewery_type": "brewpub", "address_1": "1201 Carlisle Springs Rd", "address_2": null, "address_3": null, "city": "Carlisle", "state_province": "Pennsylvania", "postal_code": "17013-1554", "country": "United States", "longitude": "-77.187054", "latitude": "40.213096", "phone": "7177063192", "website_url": "http://www.desperatetimesbrewery.com", "state": "Pennsylvania", "street": "1201 Carlisle Springs Rd"}, {"id": "e8cf3258-6464-4de0-8769-40027573fc5f", "name": "DeSteeg Brewing Co/Blind Faith Brewing", "brewery_type": "micro", "address_1": "4342 Tennyson St", "address_2": null, "address_3": null, "city": "Denver", "state_province": "Colorado", "postal_code": "80212-2308", "country": "United States", "longitude": "-105.0438193", "latitude": "39.7760619", "phone": "3034849698", "website_url": "http://www.desteegbrewing.com", "state": "Colorado", "street": "4342 Tennyson St"}, {"id": "bebafffa-c64f-4b11-8497-7b3ec0648bfd", "name": "DESTIHL - Champaign", "brewery_type": "brewpub", "address_1": "301 N Neil St", "address_2": null, "address_3": null, "city": "Champaign", "state_province": "Illinois", "postal_code": "61820-3163", "country": "United States", "longitude": "-88.2437783", "latitude": "40.1184918", "phone": "2173560301", "website_url": "http://www.destihl.com", "state": "Illinois", "street": "301 N Neil St"}, {"id": "088897ee-bbe3-4ba5-9aaf-5ff9618cf260", "name": "DESTIHL - Normal", "brewery_type": "brewpub", "address_1": "318 S Towanda Ave", "address_2": null, "address_3": null, "city": "Normal", "state_province": "Illinois", "postal_code": "61761-2212", "country": "United States", "longitude": "-88.960562", "latitude": "40.509706", "phone": "3098622337", "website_url": "http://www.destihl.com", "state": "Illinois", "street": "318 S Towanda Ave"}, {"id": "74311046-203d-4c6e-b156-1100b4b7a2eb", "name": "DESTIHL Brewery", "brewery_type": "micro", "address_1": "1200 Greenbriar Dr", "address_2": null, "address_3": null, "city": "Normal", "state_province": "Illinois", "postal_code": "61761-6459", "country": "United States", "longitude": "-88.94598211", "latitude": "40.52905465", "phone": "3092209901", "website_url": "http://www.destihl.com", "state": "Illinois", "street": "1200 Greenbriar Dr"}, {"id": "89e47f0f-7710-4478-ac7e-ddb8268e7897", "name": "Destin Brewery", "brewery_type": "micro", "address_1": "505 Mountain Dr Ste N", "address_2": null, "address_3": null, "city": "Destin", "state_province": "Florida", "postal_code": "32541-7334", "country": "United States", "longitude": null, "latitude": null, "phone": null, "website_url": "http://www.destinbrewery.com", "state": "Florida", "street": "505 Mountain Dr Ste N"}, {"id": "e4895f5c-e308-4d17-893f-2f86bb50868d", "name": "Destination Brewing Company", "brewery_type": "contract", "address_1": "2708 Lawrence Drive", "address_2": null, "address_3": null, "city": "Austin", "state_province": "Texas", "postal_code": "78734", "country": "United States", "longitude": null, "latitude": null, "phone": "5129659858", "website_url": "http://www.destinationbrewing.co", "state": "Texas", "street": "2708 Lawrence Drive"}, {"id": "06aa77d8-4925-448f-9f0b-183a1c0b9d31", "name": "Destination Unknown Beer Company", "brewery_type": "micro", "address_1": "1 S Chicago Ave Unit C", "address_2": null, "address_3": null, "city": "Bay Shore", "state_province": "New York", "postal_code": "11706-7000", "country": "United States", "longitude": null, "latitude": null, "phone": "6314852232", "website_url": "http://www.destinationunknownbeercompany.com", "state": "New York", "street": "1 S Chicago Ave Unit C"}, {"id": "51d1d1c9-4e63-4517-8538-419e8fb18042", "name": "Detroit Beer Co", "brewery_type": "brewpub", "address_1": "1529 Broadway St Ste 100", "address_2": null, "address_3": null, "city": "Detroit", "state_province": "Michigan", "postal_code": "48226-2141", "country": "United States", "longitude": "-83.04871786", "latitude": "42.335962", "phone": "3139621529", "website_url": "http://www.detroitbeerco.com", "state": "Michigan", "street": "1529 Broadway St Ste 100"}, {"id": "7ff0b266-a8d0-423a-a831-2df0fca90a5a", "name": "Deviant Wolfe Brewing", "brewery_type": "micro", "address_1": "121 W 1st St", "address_2": null, "address_3": null, "city": "Sanford", "state_province": "Florida", "postal_code": "32771-1201", "country": "United States", "longitude": null, "latitude": null, "phone": "4078786239", "website_url": "http://www.facebook.com/DeviantWolfeBrewing", "state": "Florida", "street": "121 W 1st St"}, {"id": "2c39f664-b7ea-4886-9534-d2bb13bc775b", "name": "Deviate Brewing Co", "brewery_type": "micro", "address_1": "4004 W 96th St", "address_2": null, "address_3": null, "city": "Indianapolis", "state_province": "Indiana", "postal_code": "46268-2909", "country": "United States", "longitude": null, "latitude": null, "phone": null, "website_url": "http://www.deviatebrewing.com", "state": "Indiana", "street": "4004 W 96th St"}, {"id": "d681717b-abd3-4c20-a9fb-18cbda1254ec", "name": "Device Brewing Company", "brewery_type": "micro", "address_1": "8166 14th Ave", "address_2": null, "address_3": null, "city": "Sacramento", "state_province": "California", "postal_code": "95826-4722", "country": "United States", "longitude": "-121.4059371", "latitude": "38.53949252", "phone": "9167372739", "website_url": "http://www.devicebrewing.com", "state": "California", "street": "8166 14th Ave"}, {"id": "bec65b87-eadc-4db1-b303-f0ee724f4988", "name": "Devil and the Deep", "brewery_type": "micro", "address_1": "2425 Postoffice St", "address_2": null, "address_3": null, "city": "Galveston", "state_province": "Texas", "postal_code": "77550-4629", "country": "United States", "longitude": null, "latitude": null, "phone": "7134028868", "website_url": "http://www.devilandthedeep.com", "state": "Texas", "street": "2425 Postoffice St"}, {"id": "ce046f9c-50f8-433e-93a5-1fede0c47538", "name": "Devil Wind Brewing LLC", "brewery_type": "micro", "address_1": "130 S Detroit St", "address_2": null, "address_3": null, "city": "Xenia", "state_province": "Ohio", "postal_code": "45385", "country": "United States", "longitude": "-83.92913685", "latitude": "39.68294798", "phone": "9376090002", "website_url": "http://www.devilwindbrewing.com", "state": "Ohio", "street": "130 S Detroit St"}, {"id": "82b4a5a5-31a0-4e82-8f9d-1b8e6e4d39de", "name": "Devil's Canyon Brewing Company", "brewery_type": "micro", "address_1": "935 Washington St", "address_2": null, "address_3": null, "city": "San Carlos", "state_province": "California", "postal_code": "94070-5316", "country": "United States", "longitude": "-122.2445413", "latitude": "37.49896576", "phone": "6505922739", "website_url": "http://www.DevilsCanyon.com", "state": "California", "street": "935 Washington St"}, {"id": "f4a8753b-095c-470b-9336-f639441ba51c", "name": "Devil's Club Brewing", "brewery_type": "brewpub", "address_1": "100 N Franklin St", "address_2": null, "address_3": null, "city": "Juneau", "state_province": "Alaska", "postal_code": "99801-1223", "country": "United States", "longitude": "-134.406956", "latitude": "58.301309", "phone": "9077232337", "website_url": "http://www.devilsclubbrewing.com", "state": "Alaska", "street": "100 N Franklin St"}, {"id": "def7fa43-5b3d-46a1-98ca-a413882988e2", "name": "Devil's Creek Brewery", "brewery_type": "micro", "address_1": "1 Powell Ln", "address_2": null, "address_3": null, "city": "Collingswood", "state_province": "New Jersey", "postal_code": "08108-1945", "country": "United States", "longitude": "-75.0712461", "latitude": "39.9169234", "phone": "8564252520", "website_url": "http://www.DevilsCreekBrewery.com", "state": "New Jersey", "street": "1 Powell Ln"}, {"id": "58ff2d70-8794-4eac-ba96-2ec4c590539d", "name": "Devil's Kettle Brewing", "brewery_type": "micro", "address_1": "97 Columbus Rd", "address_2": null, "address_3": null, "city": "Athens", "state_province": "Ohio", "postal_code": "45701-1313", "country": "United States", "longitude": "-82.09543176", "latitude": "39.34871425", "phone": "7405897187", "website_url": "http://www.devilskettlebrewing.com", "state": "Ohio", "street": "97 Columbus Rd"}, {"id": "1da0090d-b471-4667-b4e5-e440f35ac023", "name": "Devil's Potion Brewing Company LLC", "brewery_type": "planning", "address_1": null, "address_2": null, "address_3": null, "city": "Escondido", "state_province": "California", "postal_code": "92026-3187", "country": "United States", "longitude": "-117.0814849", "latitude": "33.1216751", "phone": "7605329091", "website_url": "http://www.devilspotion.com", "state": "California", "street": null}, {"id": "31a96dc8-4986-42df-98d3-484a727f3ead", "name": "Devil's Purse Brewing Co", "brewery_type": "micro", "address_1": "120 Great Western Rd", "address_2": null, "address_3": null, "city": "South Dennis", "state_province": "Massachusetts", "postal_code": "02660-3715", "country": "United States", "longitude": "-70.1416854", "latitude": "41.6885379", "phone": "5086947171", "website_url": "http://www.devilspurse.com", "state": "Massachusetts", "street": "120 Great Western Rd"}, {"id": "b837ff0c-ea8e-40c2-885d-2a4bd4b04c3d", "name": "Devil's Trumpet Brewing Co", "brewery_type": "micro", "address_1": "8250 Utah St", "address_2": null, "address_3": null, "city": "Merrillville", "state_province": "Indiana", "postal_code": "46410-6578", "country": "United States", "longitude": null, "latitude": null, "phone": "2195767118", "website_url": "http://www.thedevilstrumpet.com", "state": "Indiana", "street": "8250 Utah St"}, {"id": "74495b65-cdc1-4197-9f23-baaf2f7c02af", "name": "Devils Backbone Brewing Co - Basecamp", "brewery_type": "large", "address_1": "200 Mosbys Run", "address_2": null, "address_3": null, "city": "Roseland", "state_province": "Virginia", "postal_code": "22967-8551", "country": "United States", "longitude": null, "latitude": null, "phone": "4343611001", "website_url": "http://www.dbbrewingcompany.com", "state": "Virginia", "street": "200 Mosbys Run"}, {"id": "ddc7e926-0165-4586-89bd-c42fbcbb9fe9", "name": "Devils Backbone Brewing Co - Outpost Production Facility", "brewery_type": "large", "address_1": "50 Northwind Ln", "address_2": null, "address_3": null, "city": "Lexington", "state_province": "Virginia", "postal_code": "24450-3303", "country": "United States", "longitude": null, "latitude": null, "phone": "4343611001", "website_url": "http://www.dbbrewingcompany.com", "state": "Virginia", "street": "50 Northwind Ln"}, {"id": "82606c09-9315-47f5-9754-5149dc8a1205", "name": "Devour Brewing Co", "brewery_type": "micro", "address_1": "1500 SW 30th Ave Ste 4", "address_2": null, "address_3": null, "city": "Boynton Beach", "state_province": "Florida", "postal_code": "33426-9044", "country": "United States", "longitude": null, "latitude": null, "phone": "5618066011", "website_url": "http://www.devourbrewing.com", "state": "Florida", "street": "1500 SW 30th Ave Ste 4"}]