[{"id": "b7f79d7b-c8c8-45de-bbe0-2764c8be72d2", "name": "Devout Brewing", "brewery_type": "planning", "address_1": null, "address_2": null, "address_3": null, "city": "Export", "state_province": "Pennsylvania", "postal_code": "15632", "country": "United States", "longitude": null, "latitude": null, "phone": null, "website_url": "http://www.devoutbrewingco.com", "state": "Pennsylvania", "street": null}, {"id": "14f7353b-3b35-4e62-8a41-5d2a0b87ef59", "name": "Dew Point Brewing", "brewery_type": "brewpub", "address_1": "2878 Creek Rd", "address_2": null, "address_3": null, "city": "Yorklyn", "state_province": "Delaware", "postal_code": "19736-", "country": "United States", "longitude": "-75.6729188", "latitude": "39.8100606", "phone": "3025183636", "website_url": "http://www.dewpointbrewing.com", "state": "Delaware", "street": "2878 Creek Rd"}, {"id": "23bca581-dd99-43ea-9fe1-6ebf78c7a6ec", "name": "Dewey Beer Co.", "brewery_type": "brewpub", "address_1": "2100 Coastal Hwy", "address_2": null, "address_3": null, "city": "Dewey Beach", "state_province": "Delaware", "postal_code": "19971-2317", "country": "United States", "longitude": "-75.07497503", "latitude": "38.6961465", "phone": "3022271182", "website_url": "http://www.deweybeerco.com", "state": "Delaware", "street": "2100 Coastal Hwy"}, {"id": "74ded0c0-4d57-423b-943c-166cb125402c", "name": "Dialectic Brewing Company", "brewery_type": "micro", "address_1": "416 W Main St", "address_2": null, "address_3": null, "city": "Mandan", "state_province": "North Dakota", "postal_code": "58554-3145", "country": "United States", "longitude": "-100.8950937", "latitude": "46.82578828", "phone": "7013181328", "website_url": "http://www.dialecticbrewingcompany.com", "state": "North Dakota", "street": "416 W Main St"}, {"id": "483666c9-df7b-48b6-a09e-9dc2c39ddd22", "name": "Dialogue Brewing", "brewery_type": "micro", "address_1": "1501 1st St NW", "address_2": null, "address_3": null, "city": "Albuquerque", "state_province": "New Mexico", "postal_code": "87102-1535", "country": "United States", "longitude": "-106.6456104", "latitude": "35.0976942", "phone": "5055851501", "website_url": "http://www.dialoguebrewing.com", "state": "New Mexico", "street": "1501 1st St NW"}, {"id": "83e2f163-0cbf-4473-8edd-48456837a603", "name": "Diamond Bear Brewing Co", "brewery_type": "micro", "address_1": "600 N Broadway St", "address_2": null, "address_3": null, "city": "North Little Rock", "state_province": "Arkansas", "postal_code": "72114-5381", "country": "United States", "longitude": "-92.27268921", "latitude": "34.75942775", "phone": "5017082739", "website_url": "http://www.diamondbear.com", "state": "Arkansas", "street": "600 N Broadway St"}, {"id": "812c75c6-5a52-4b6a-84b8-384f8745fd3e", "name": "Diamond Knot Brewery B2 Brewery & Taproom", "brewery_type": "micro", "address_1": "4602 Chennault Beach Rd Ste B2", "address_2": null, "address_3": null, "city": "Mukilteo", "state_province": "Washington", "postal_code": "98275-5016", "country": "United States", "longitude": "-122.2955193", "latitude": "47.89611026", "phone": "4253554488", "website_url": "http://www.diamondknot.com", "state": "Washington", "street": "4602 Chennault Beach Rd Ste B2"}, {"id": "41fbdb32-a0ba-4893-a16f-442598b23832", "name": "Diamond Knot Craft Brewery - Brewpub @ MLT", "brewery_type": "brewpub", "address_1": "5602 232rd St SW", "address_2": null, "address_3": null, "city": "Mountlake Terrace", "state_province": "Washington", "postal_code": "98043", "country": "United States", "longitude": "-122.3095359", "latitude": "47.78800503", "phone": "4253554488", "website_url": "http://www.diamondknot.com", "state": "Washington", "street": "5602 232rd St SW"}, {"id": "308265eb-0865-41bc-ae74-b8b494521be9", "name": "Diamond Knot Craft Brewing - Brewery & Alehouse", "brewery_type": "brewpub", "address_1": "621 Front St", "address_2": null, "address_3": null, "city": "Mukilteo", "state_province": "Washington", "postal_code": "98275-1557", "country": "United States", "longitude": "-122.3047075", "latitude": "47.9484603", "phone": "4253554488", "website_url": "http://www.diamondknot.com", "state": "Washington", "street": "621 Front St"}, {"id": "56159d4d-8d37-41c1-a6d3-5193a66a15e9", "name": "Diamond Mountain Brewery", "brewery_type": "brewpub", "address_1": "900 Skyline Dr", "address_2": null, "address_3": null, "city": "Susanville", "state_province": "California", "postal_code": "96130-6071", "country": "United States", "longitude": "-120.6575072", "latitude": "40.43092351", "phone": "5302521369", "website_url": "http://www.diamondmountainbrewery.com", "state": "California", "street": "900 Skyline Dr"}, {"id": "8ed61459-cc2b-41c2-925a-a6c622e65d49", "name": "Dicks Brewing Co", "brewery_type": "micro", "address_1": "3516 Galvin Rd", "address_2": null, "address_3": null, "city": "Centralia", "state_province": "Washington", "postal_code": "98531-9002", "country": "United States", "longitude": "-122.9999693", "latitude": "46.73549248", "phone": "3607367760", "website_url": "http://www.dicksbeer.com", "state": "Washington", "street": "3516 Galvin Rd"}, {"id": "16fb2c6e-c7e1-4d46-b9d0-1c86816eb129", "name": "Die Bierbotschaft", "brewery_type": "brewpub", "address_1": "Ponigler Str. 52", "address_2": null, "address_3": null, "city": "Wundschuh", "state_province": "Steiermark", "postal_code": "8142", "country": "Austria", "longitude": "15.455186813460086", "latitude": "46.91291590525785", "phone": "+436763530560", "website_url": "https://www.bierbotschaft.at", "state": "Steiermark", "street": "Ponigler Str. 52"}, {"id": "6f89022e-0f54-4054-b37f-919c1ed4218c", "name": "Diebolt Brewing", "brewery_type": "micro", "address_1": "3855 Mariposa St", "address_2": null, "address_3": null, "city": "Denver", "state_province": "Colorado", "postal_code": "80211-2647", "country": "United States", "longitude": "-105.0032079", "latitude": "39.770332", "phone": "7206435940", "website_url": "http://www.dieboltbrewing.com", "state": "Colorado", "street": "3855 Mariposa St"}, {"id": "dac4379b-8ecd-4a9c-ba7f-8042580c72fc", "name": "Dillinger Brewing Company", "brewery_type": "micro", "address_1": "3895 N Oracle Rd", "address_2": null, "address_3": null, "city": "Tucson", "state_province": "Arizona", "postal_code": "85705-3228", "country": "United States", "longitude": "-110.9785303", "latitude": "32.2997436", "phone": "5202072312", "website_url": "http://www.dillingerbrewing.com", "state": "Arizona", "street": "3895 N Oracle Rd"}, {"id": "d40976bd-2a96-41ed-81b1-3b6c3eab2843", "name": "Dillon Dam Brewery", "brewery_type": "brewpub", "address_1": "100 Little Dam Street", "address_2": null, "address_3": null, "city": "Dillon", "state_province": "Colorado", "postal_code": "80435-4845", "country": "United States", "longitude": "-106.0603129", "latitude": "39.62760465", "phone": "9702627777", "website_url": "http://www.dambrewery.com", "state": "Colorado", "street": "100 Little Dam Street"}, {"id": "0bcb0b7a-5328-4186-9264-1a068316de22", "name": "Dimensional Brewing Co.", "brewery_type": "micro", "address_1": "67 Main St", "address_2": null, "address_3": null, "city": "Dubuque", "state_province": "Iowa", "postal_code": "52001-7627", "country": "United States", "longitude": "-90.664108", "latitude": "42.494438", "phone": null, "website_url": "http://www.dimensionalbrewing.com", "state": "Iowa", "street": "67 Main St"}, {"id": "fd4412ec-311a-4e87-8b55-10dca2b00b94", "name": "Dimes Brewhouse", "brewery_type": "micro", "address_1": "145 N Bridge St", "address_2": null, "address_3": null, "city": "Dimondale", "state_province": "Michigan", "postal_code": "48821-9201", "country": "United States", "longitude": "-84.6483014", "latitude": "42.64660055", "phone": "5173032067", "website_url": "http://www.dimesbrewhouse.com", "state": "Michigan", "street": "145 N Bridge St"}, {"id": "d9640321-8cf9-41bd-aeb8-9a2163e23f42", "name": "Dingo Dog Brewing Co", "brewery_type": "micro", "address_1": null, "address_2": null, "address_3": null, "city": "Carrboro", "state_province": "North Carolina", "postal_code": "27510", "country": "United States", "longitude": null, "latitude": null, "phone": "9198859793", "website_url": "http://www.dingodogbrewing.com", "state": "North Carolina", "street": null}, {"id": "31050850-d1fd-433f-98a2-b19bf07a29f1", "name": "Dionysus Brewing Co.", "brewery_type": "micro", "address_1": "6201 Schirra Ct Ste 13", "address_2": null, "address_3": null, "city": "Bakersfield", "state_province": "California", "postal_code": "93313-2119", "country": "United States", "longitude": "-119.0716427", "latitude": "35.31614762", "phone": "6618336000", "website_url": "http://www.dionysusbrewing.com", "state": "California", "street": "6201 Schirra Ct Ste 13"}, {"id": "3cf021a2-dc21-469c-a56d-2bd377e3a1eb", "name": "Dirigo Brewing Co.", "brewery_type": "micro", "address_1": "28 Pearl St", "address_2": null, "address_3": null, "city": "Biddeford", "state_province": "Maine", "postal_code": "04005-2040", "country": "United States", "longitude": "-70.45608584", "latitude": "43.49545704", "phone": "2078385321", "website_url": "http://www.dirigobrewingcompany.com", "state": "Maine", "street": "28 Pearl St"}, {"id": "7f16cd0c-2a66-4b93-9c1f-c3d6386c2550", "name": "Dirt Farm Brewing", "brewery_type": "brewpub", "address_1": "18701 Foggy Bottom Rd", "address_2": null, "address_3": null, "city": "Bluemont", "state_province": "Virginia", "postal_code": "20135-1858", "country": "United States", "longitude": null, "latitude": null, "phone": "5405542337", "website_url": "http://www.dirtfarmbrewing.com", "state": "Virginia", "street": "18701 Foggy Bottom Rd"}, {"id": "b5449cda-10d5-4356-a60e-aca42e338b18", "name": "Dirt Road Brewing", "brewery_type": "planning", "address_1": "1301 Main St", "address_2": null, "address_3": null, "city": "Philomath", "state_province": "Oregon", "postal_code": "97370", "country": "United States", "longitude": "-123.3677101", "latitude": "44.54045973", "phone": "5419297818", "website_url": "http://dirtroadbrewing.com", "state": "Oregon", "street": "1301 Main St"}, {"id": "48ff4878-7666-422c-8ba0-6107382ff258", "name": "Dirtbag Ales Brewery and Taproom", "brewery_type": "micro", "address_1": "5435 Corporation Dr", "address_2": null, "address_3": null, "city": "Hope Mills", "state_province": "North Carolina", "postal_code": "28348-8413", "country": "United States", "longitude": "-78.92209697", "latitude": "34.99397526", "phone": "9104262537", "website_url": "http://www.dirtbagales.com", "state": "North Carolina", "street": "5435 Corporation Dr"}, {"id": "57143be8-1253-4486-a45e-f725021068a5", "name": "Dirty Bucket Brewery", "brewery_type": "closed", "address_1": "19151 144th Ave NE", "address_2": null, "address_3": null, "city": "Woodinville", "state_province": "Washington", "postal_code": "98072-4374", "country": "United States", "longitude": "-122.1484843", "latitude": "47.7661918", "phone": "2068191570", "website_url": "http://www.dirtybucketbrewery.com", "state": "Washington", "street": "19151 144th Ave NE"}, {"id": "8a5a869c-247b-4c5a-bb78-c092abed8440", "name": "Dirty Couch Brewing", "brewery_type": "micro", "address_1": "2715 W Fort St", "address_2": null, "address_3": null, "city": "Seattle", "state_province": "Washington", "postal_code": "98199-1224", "country": "United States", "longitude": "-122.392155", "latitude": "47.66192056", "phone": "2063959414", "website_url": "http://www.dirtycouchbrewing.com", "state": "Washington", "street": "2715 W Fort St"}, {"id": "ad8c6d2f-e4bf-4a8c-86d7-11e87f36bf9a", "name": "Dirty Job Brewing", "brewery_type": "micro", "address_1": "117 N Main St", "address_2": null, "address_3": null, "city": "Mansfield", "state_province": "Texas", "postal_code": "76063", "country": "United States", "longitude": "-97.14195567", "latitude": "32.56489124", "phone": "6825181791", "website_url": "http://www.dirtyjobbrewing.com", "state": "Texas", "street": "117 N Main St"}, {"id": "77fc61b5-b1e7-4ee3-a28c-823a3de62365", "name": "Dirty Oar Beer Company", "brewery_type": "micro", "address_1": "329 W King St", "address_2": null, "address_3": null, "city": "Cocoa", "state_province": "Florida", "postal_code": "32922-4607", "country": "United States", "longitude": "-80.7473064", "latitude": "28.355795", "phone": null, "website_url": "http://dirtyoarbeercompany.com/", "state": "Florida", "street": "329 W King St"}, {"id": "02368546-6d67-4e2f-8d45-917628306622", "name": "Discovery Bay Brewing", "brewery_type": "micro", "address_1": "948 N Park Avenue", "address_2": null, "address_3": null, "city": "Port Townsend", "state_province": "Washington", "postal_code": "98368-1512", "country": "United States", "longitude": "-122.8030594", "latitude": "48.1065812", "phone": "3603442999", "website_url": null, "state": "Washington", "street": "948 N Park Avenue"}, {"id": "76286586-a06b-4609-b971-615cb56607ed", "name": "Discretion Brewing", "brewery_type": "micro", "address_1": "2703 41st Ave Ste A& # B", "address_2": null, "address_3": null, "city": "Soquel", "state_province": "California", "postal_code": "95073-3104", "country": "United States", "longitude": "-121.9659512", "latitude": "36.98629328", "phone": "8313160662", "website_url": "http://www.discretionbrewing.com", "state": "California", "street": "2703 41st Ave Ste A& # B"}, {"id": "c6dd7547-06f7-4cc6-8041-f1fab596b201", "name": "Disgruntled Brewing", "brewery_type": "micro", "address_1": "735 2nd St NE", "address_2": null, "address_3": null, "city": "Perham", "state_province": "Minnesota", "postal_code": "56573-1828", "country": "United States", "longitude": "-95.55777031", "latitude": "46.59047473", "phone": "2183464677", "website_url": "http://www.disgruntledbeer.com", "state": "Minnesota", "street": "735 2nd St NE"}, {"id": "b67ada4b-9179-4e79-ba2f-70d956f0af1c", "name": "Dissent Craft Brewing Company, LLC", "brewery_type": "micro", "address_1": "5518 Haines Rd N", "address_2": null, "address_3": null, "city": "Saint Petersburg", "state_province": "Florida", "postal_code": "33714-1999", "country": "United States", "longitude": "-82.66998676", "latitude": "27.82225781", "phone": "7273420255", "website_url": "http://www.dissentcraftbrewing.com", "state": "Florida", "street": "5518 Haines Rd N"}, {"id": "ad2e2d38-f7f8-4c10-899a-9b14ad947743", "name": "Dissident Brewing", "brewery_type": "planning", "address_1": null, "address_2": null, "address_3": null, "city": "Milwaukee", "state_province": "Wisconsin", "postal_code": "53207-3221", "country": "United States", "longitude": null, "latitude": null, "phone": "4145171845", "website_url": "http://www.dissidentbrewing.com", "state": "Wisconsin", "street": null}, {"id": "57b8c4a5-0975-4916-ab6b-661e85a1fe4c", "name": "Distraction Brewing Company", "brewery_type": "planning", "address_1": null, "address_2": null, "address_3": null, "city": "Roslindale", "state_province": "Massachusetts", "postal_code": "02131-3006", "country": "United States", "longitude": null, "latitude": null, "phone": null, "website_url": "http://www.distractionbrewingco.com", "state": "Massachusetts", "street": null}, {"id": "30f9fd9f-a8c2-46c2-863d-2dcf129b12fe", "name": "District 1 Brewing Company", "brewery_type": "micro", "address_1": "200 Division St N", "address_2": null, "address_3": null, "city": "Stevens Point", "state_province": "Wisconsin", "postal_code": "54481", "country": "United States", "longitude": "-89.5634341", "latitude": "44.3786458", "phone": "7155446707", "website_url": "http://www.district1brewing.com", "state": "Wisconsin", "street": "200 Division St N"}, {"id": "f6f63bf2-1334-4a58-8254-a0ac22457e05", "name": "District 14 Brewery & Pub", "brewery_type": "brewpub", "address_1": "2273 S Howell Ave", "address_2": null, "address_3": null, "city": "Milwaukee", "state_province": "Wisconsin", "postal_code": "53207-1325", "country": "United States", "longitude": "-87.9095587", "latitude": "42.9581912", "phone": "4147440399", "website_url": null, "state": "Wisconsin", "street": "2273 S Howell Ave"}, {"id": "e69d7c0d-f29a-4668-9419-f74ffc9e19cf", "name": "District 96 Beer Factory", "brewery_type": "brewpub", "address_1": "395 S Main St", "address_2": null, "address_3": null, "city": "New City", "state_province": "New York", "postal_code": "10956", "country": "United States", "longitude": "-73.99100071", "latitude": "41.13457391", "phone": "8454992409", "website_url": "http://www.district96beer.com", "state": "New York", "street": "395 S Main St"}, {"id": "98946d35-5b30-40ae-9028-951bca3bfb59", "name": "District Brewing", "brewery_type": "brewpub", "address_1": "520 S Main St", "address_2": null, "address_3": null, "city": "Mount Vernon", "state_province": "Washington", "postal_code": "98273-3840", "country": "United States", "longitude": "-122.338828", "latitude": "48.419204", "phone": "3608736714", "website_url": "https://districtbrewco.com", "state": "Washington", "street": "520 S Main St"}, {"id": "a5f7b66a-2f51-4161-9365-0eef5aa282a5", "name": "District ChopHouse and Brewery", "brewery_type": "brewpub", "address_1": "509 7th St NW", "address_2": null, "address_3": null, "city": "Washington", "state_province": "District of Columbia", "postal_code": "20004-1600", "country": "United States", "longitude": "-77.0216694", "latitude": "38.8965132", "phone": "2023473434", "website_url": "http://www.districtchophouse.com", "state": "District of Columbia", "street": "509 7th St NW"}, {"id": "e6521135-22e0-458a-9245-16e9625f700b", "name": "Dive Bar Brewing Company", "brewery_type": "proprietor", "address_1": "5994 S Holly Street #146", "address_2": null, "address_3": null, "city": "Greenwood Village", "state_province": "Colorado", "postal_code": "80111", "country": "United States", "longitude": null, "latitude": null, "phone": "3039134355", "website_url": "http://divebarbeer.com", "state": "Colorado", "street": "5994 S Holly Street #146"}, {"id": "45fc6ccc-c048-4964-9093-a18c6daa430d", "name": "Diversion Brewing Co", "brewery_type": "micro", "address_1": "729 Wyncoop Creek Rd", "address_2": null, "address_3": null, "city": "Chemung", "state_province": "New York", "postal_code": "14825-9755", "country": "United States", "longitude": "-76.62211", "latitude": "42.019871", "phone": "6075429168", "website_url": "http://www.diversionbrewing.com", "state": "New York", "street": "729 Wyncoop Creek Rd"}, {"id": "24b9cbee-b251-4444-b5b1-714b0cb90c0c", "name": "Divine Barrel Brewing", "brewery_type": "micro", "address_1": "3701 N Davidson St Ste 203", "address_2": null, "address_3": null, "city": "Charlotte", "state_province": "North Carolina", "postal_code": "28205-1303", "country": "United States", "longitude": null, "latitude": null, "phone": "9802371803", "website_url": "http://www.divinebarrel.com", "state": "North Carolina", "street": "3701 N Davidson St Ste 203"}, {"id": "ec0363c4-8d72-4b1a-b7c9-9aeb1637cbd7", "name": "Divine Swine BBQ", "brewery_type": "brewpub", "address_1": "2684 Lebanon Rd", "address_2": null, "address_3": null, "city": "Manheim", "state_province": "Pennsylvania", "postal_code": "17545-9524", "country": "United States", "longitude": null, "latitude": null, "phone": "7178799494", "website_url": "http://www.divine-swine-bbq.com", "state": "Pennsylvania", "street": "2684 Lebanon Rd"}, {"id": "ecb3dc09-11f9-4844-8cac-83340856e42d", "name": "Diving Dog Brewhouse", "brewery_type": "micro", "address_1": "1802 Telegraph Ave", "address_2": null, "address_3": null, "city": "Oakland", "state_province": "California", "postal_code": "94612-2110", "country": "United States", "longitude": "-122.2698881", "latitude": "37.807739", "phone": "5103061914", "website_url": "http://www.divingdogbrew.com", "state": "California", "street": "1802 Telegraph Ave"}, {"id": "887c1eb4-f403-4081-9dff-e8d0867b04ed", "name": "Division 23 Brewing", "brewery_type": "micro", "address_1": "7408 Trade St", "address_2": null, "address_3": null, "city": "San Diego", "state_province": "California", "postal_code": "92121-3415", "country": "United States", "longitude": "-117.162908", "latitude": "32.890353", "phone": "8587521924", "website_url": "http://www.division23brewing.com", "state": "California", "street": "7408 Trade St"}, {"id": "4e240752-baf7-4fb7-8f32-c22e7a1e9933", "name": "Divots Brewery", "brewery_type": "brewpub", "address_1": "4200 W Norfolk Ave", "address_2": null, "address_3": null, "city": "Norfolk", "state_province": "Nebraska", "postal_code": "68701-9202", "country": "United States", "longitude": "-97.466386", "latitude": "42.032539", "phone": "4028442985", "website_url": "http://www.divotsbrewery.com", "state": "Nebraska", "street": "4200 W Norfolk Ave"}, {"id": "ee957438-dbb4-4cc4-8731-d3482d3a4775", "name": "Dixie Brewing Co Inc.", "brewery_type": "contract", "address_1": "6221 S Claiborne Ave Ste 101", "address_2": null, "address_3": null, "city": "New Orleans", "state_province": "Louisiana", "postal_code": "70125-4191", "country": "United States", "longitude": null, "latitude": null, "phone": "5048228711", "website_url": null, "state": "Louisiana", "street": "6221 S Claiborne Ave Ste 101"}, {"id": "2795f339-b872-44dd-af71-e79550711989", "name": "Dixie Brewing Company, LLC", "brewery_type": "contract", "address_1": "1450 Poydras St Ste 580", "address_2": null, "address_3": null, "city": "New Orleans", "state_province": "Louisiana", "postal_code": "70112-1227", "country": "United States", "longitude": null, "latitude": null, "phone": "5059176071", "website_url": "http://www.dixiebeer.com", "state": "Louisiana", "street": "1450 Poydras St Ste 580"}, {"id": "f4b8dca8-d143-4ec1-ad09-9bc6426723be", "name": "Dixie Grill & Brewery", "brewery_type": "brewpub", "address_1": "5101 South Dixie Highway", "address_2": null, "address_3": null, "city": "West Palm Beach", "state_province": "Florida", "postal_code": "33405", "country": "United States", "longitude": "-80.055437", "latitude": "26.667349", "phone": "5615863189", "website_url": null, "state": "Florida", "street": "5101 South Dixie Highway"}, {"id": "0e0d87e1-64b3-423d-a658-a81fc56341c2", "name": "Dobra Zupas", "brewery_type": "brewpub", "address_1": "600 S Oakwood Ave", "address_2": null, "address_3": null, "city": "Beckley", "state_province": "West Virginia", "postal_code": "25801-5928", "country": "United States", "longitude": "-81.196413", "latitude": "37.770874", "phone": "3042539872", "website_url": "http://www.dobrazupas.com", "state": "West Virginia", "street": "600 S Oakwood Ave"}, {"id": "dfc62a12-e290-4c54-b40f-9ce1eb11e683", "name": "Doc G's Brewing Company", "brewery_type": "brewpub", "address_1": "208 W Long Ave", "address_2": null, "address_3": null, "city": "Du Bois", "state_province": "Pennsylvania", "postal_code": "15801-2106", "country": "United States", "longitude": null, "latitude": null, "phone": "8142997938", "website_url": null, "state": "Pennsylvania", "street": "208 W Long Ave"}, {"id": "869a2ee4-c387-4263-b1b7-e620d903a829", "name": "Docent Brewing", "brewery_type": "brewpub", "address_1": "33049 Calle Aviador Ste C", "address_2": null, "address_3": null, "city": "San Juan Capistrano", "state_province": "California", "postal_code": "92675-4785", "country": "United States", "longitude": "-117.675787", "latitude": "33.48333541", "phone": null, "website_url": "http://www.docentbrewing.com", "state": "California", "street": "33049 Calle Aviador Ste C"}, {"id": "850ac35e-0bdb-4662-a133-22c819b5620e", "name": "Dock Street Brewery", "brewery_type": "brewpub", "address_1": "701 S 50th St Fl 1", "address_2": null, "address_3": null, "city": "Philadelphia", "state_province": "Pennsylvania", "postal_code": "19143-1689", "country": "United States", "longitude": null, "latitude": null, "phone": "2157262337", "website_url": "http://www.dockstreetbeer.com", "state": "Pennsylvania", "street": "701 S 50th St Fl 1"}, {"id": "5235f708-e30a-49ae-8681-0ff7167c8e76", "name": "Dock Street Brewing Co", "brewery_type": "planning", "address_1": null, "address_2": null, "address_3": null, "city": "Philadelphia", "state_province": "Pennsylvania", "postal_code": "19146", "country": "United States", "longitude": null, "latitude": null, "phone": null, "website_url": null, "state": "Pennsylvania", "street": null}, {"id": "93306d28-6e24-47ea-af40-dac378f99ea5", "name": "Dockery's", "brewery_type": "brewpub", "address_1": "186 Seven Farms Dr Ste F399", "address_2": null, "address_3": null, "city": "Charleston", "state_province": "South Carolina", "postal_code": "29492-8510", "country": "United States", "longitude": null, "latitude": null, "phone": "8432841173", "website_url": "http://www.dockerysdi.com", "state": "South Carolina", "street": "186 Seven Farms Dr Ste F399"}, {"id": "7f4c815f-5a2f-4e29-adc0-88bcec5acac4", "name": "Dockside Waterfront Biergarten and Brewery", "brewery_type": "planning", "address_1": null, "address_2": null, "address_3": null, "city": "Milford", "state_province": "Connecticut", "postal_code": "06460", "country": "United States", "longitude": null, "latitude": null, "phone": null, "website_url": null, "state": "Connecticut", "street": null}, {"id": "56dce899-ff23-4f0e-be56-05900ecac53e", "name": "Dodge City Brewing", "brewery_type": "brewpub", "address_1": "701 3rd Ave", "address_2": null, "address_3": null, "city": "Dodge City", "state_province": "Kansas", "postal_code": "67801-4336", "country": "United States", "longitude": "-100.020307", "latitude": "37.754632", "phone": "6203713999", "website_url": "http://www.dodgecitybrewing.com", "state": "Kansas", "street": "701 3rd Ave"}, {"id": "87250580-6954-4d75-972d-75f7759fefc0", "name": "Dodgeton Creek Brewing Co.", "brewery_type": "planning", "address_1": null, "address_2": null, "address_3": null, "city": "Trinidad", "state_province": "Colorado", "postal_code": "81082-9788", "country": "United States", "longitude": "-104.5005411", "latitude": "37.169397", "phone": "7198462339", "website_url": "http://www.dodgetoncreek.com", "state": "Colorado", "street": null}, {"id": "ac4fe7b3-c512-4b96-9953-27e8362101ff", "name": "Dodging Duck Brewhaus", "brewery_type": "brewpub", "address_1": "402 River Rd", "address_2": null, "address_3": null, "city": "Boerne", "state_province": "Texas", "postal_code": "78006-2312", "country": "United States", "longitude": "-98.72596163", "latitude": "29.78961761", "phone": "8302483825", "website_url": "http://www.dodgingduck.com", "state": "Texas", "street": "402 River Rd"}, {"id": "78c50e54-34e3-415d-9574-ac0cc0505113", "name": "Dog & Pony Alehouse and Grill", "brewery_type": "closed", "address_1": "351 Park Ave N", "address_2": null, "address_3": null, "city": "Renton", "state_province": "Washington", "postal_code": "98057-5716", "country": "United States", "longitude": "-122.2023129", "latitude": "47.48758261", "phone": "4252548080", "website_url": "http://www.thedogandpony.com", "state": "Washington", "street": "351 Park Ave N"}, {"id": "c27f55b4-f410-4389-ae35-a5a9bada3578", "name": "Dog Days Brewing", "brewery_type": "brewpub", "address_1": "260 4th St", "address_2": null, "address_3": null, "city": "Bremerton", "state_province": "Washington", "postal_code": "98337-1813", "country": "United States", "longitude": "-122.6259002", "latitude": "47.5658843", "phone": "3606279925", "website_url": "https://www.dogdaysbrewing.com", "state": "Washington", "street": "260 4th St"}, {"id": "e7663a51-2d14-4e31-b52b-a3cd846fd19a", "name": "Dog Money Restaurant", "brewery_type": "brewpub", "address_1": "50 Catoctin Cir NE STE 100", "address_2": null, "address_3": null, "city": "Leesburg", "state_province": "Virginia", "postal_code": "20176-3102", "country": "United States", "longitude": null, "latitude": null, "phone": "7035775452", "website_url": "http://dogmoneyllc.com", "state": "Virginia", "street": "50 Catoctin Cir NE STE 100"}, {"id": "fe4c36a3-d900-46b0-b445-a4f951b9f7e2", "name": "Dog Rose Brewing Company", "brewery_type": "micro", "address_1": "77 Bridge St", "address_2": null, "address_3": null, "city": "Saint Augustine", "state_province": "Florida", "postal_code": "32084-4335", "country": "United States", "longitude": "-81.31306668", "latitude": "29.88948146", "phone": "9042173355", "website_url": "http://www.dogrosebrewing.com", "state": "Florida", "street": "77 Bridge St"}, {"id": "e4054c02-8992-4c0c-8954-89f0d6ebaead", "name": "Dog Tag Brewing", "brewery_type": "contract", "address_1": "2042 Stadium Dr Ste 2", "address_2": null, "address_3": null, "city": "Bozeman", "state_province": "Montana", "postal_code": "59715-0710", "country": "United States", "longitude": null, "latitude": null, "phone": null, "website_url": "http://www.dogtagbrewing.org", "state": "Montana", "street": "2042 Stadium Dr Ste 2"}, {"id": "9144058f-df13-47b0-b656-4c4384058085", "name": "DogBerry Brewing LLC", "brewery_type": "micro", "address_1": "9964 Crescent Park Dr", "address_2": null, "address_3": null, "city": "West Chester", "state_province": "Ohio", "postal_code": "45069", "country": "United States", "longitude": null, "latitude": null, "phone": "5138478208", "website_url": "http://www.dogberrybrewing.com", "state": "Ohio", "street": "9964 Crescent Park Dr"}, {"id": "7a6bd1cf-4385-4677-a9d7-3507535399e4", "name": "Dogfish Head Brewings & Eats", "brewery_type": "brewpub", "address_1": "320 Rehoboth Ave", "address_2": null, "address_3": null, "city": "Rehoboth Beach", "state_province": "Delaware", "postal_code": "19971-3108", "country": "United States", "longitude": "-75.08731545", "latitude": "38.7151767", "phone": "3022262739", "website_url": "http://www.dogfish.com", "state": "Delaware", "street": "320 Rehoboth Ave"}, {"id": "281e6980-e2e2-4493-9896-3517e8cafe21", "name": "Dogfish Head Craft Brewery", "brewery_type": "regional", "address_1": "6 Cannery Village Ctr", "address_2": null, "address_3": null, "city": "Milton", "state_province": "Delaware", "postal_code": "19968-1308", "country": "United States", "longitude": "-75.31158206", "latitude": "38.76691205", "phone": "3026841000", "website_url": "http://www.dogfish.com", "state": "Delaware", "street": "6 Cannery Village Ctr"}, {"id": "c117151a-0efe-4a7a-bbab-ce130ffc2f08", "name": "Doghaus Brewery", "brewery_type": "micro", "address_1": "321 9th St", "address_2": null, "address_3": null, "city": "Leavenworth", "state_province": "Washington", "postal_code": "98826-1464", "country": "United States", "longitude": "-120.6598225", "latitude": "47.59460883", "phone": "5098601446", "website_url": "http://www.doghausbrewery.com", "state": "Washington", "street": "321 9th St"}, {"id": "b391b3db-33bf-47d4-8878-ab3f8b610bde", "name": "Dogtown Brewing", "brewery_type": "brewpub", "address_1": "1209 Hull St", "address_2": null, "address_3": null, "city": "Richmond", "state_province": "Virginia", "postal_code": "23224", "country": "United States", "longitude": null, "latitude": null, "phone": "8047242337", "website_url": "https://www.dogtownbrewingco.com/", "state": "Virginia", "street": "1209 Hull St"}, {"id": "27d18114-31bb-4baf-b330-71bcba80cc8a", "name": "Dois Corvos Cervejeira, Lda.", "brewery_type": "micro", "address_1": "Rua Capit\u00e3o Leit\u00e3o, 94", "address_2": null, "address_3": null, "city": "Lisboa", "state_province": "Lisboa", "postal_code": "1950-052", "country": "Portugal", "longitude": "-9.105483084696079", "latitude": "38.73826742792099", "phone": "+351 211 331 093", "website_url": "https://www.doiscorvos.pt", "state": "Lisboa", "street": "Rua Capit\u00e3o Leit\u00e3o, 94"}, {"id": "612d5f63-901f-4b34-abac-cf88157db26c", "name": "Dolores River Brewery", "brewery_type": "brewpub", "address_1": "100 S. 4th St.", "address_2": null, "address_3": null, "city": "Dolores", "state_province": "Colorado", "postal_code": "81323-1003", "country": "United States", "longitude": "-108.504562", "latitude": "37.47323", "phone": "9708824677", "website_url": "http://www.doloresriverbrewery.com", "state": "Colorado", "street": "100 S. 4th St."}, {"id": "bf311f48-d8a7-46f6-aa24-cdffee1423d0", "name": "Donavon Brewing Company", "brewery_type": "planning", "address_1": null, "address_2": null, "address_3": null, "city": "Arvada", "state_province": "Colorado", "postal_code": "80005-3644", "country": "United States", "longitude": null, "latitude": null, "phone": "3039975920", "website_url": "http://www.donavonbrewing.com", "state": "Colorado", "street": null}, {"id": "44684d87-a612-43d1-9eda-afd9357f3af1", "name": "Donegal Brewing Company", "brewery_type": "regional", "address_1": "Unit 1 Erneside Business Park", "address_2": "Portnason", "address_3": null, "city": "Ballyshannon", "state_province": "Donegal", "postal_code": "F94 Y2NE", "country": "Ireland", "longitude": "-8.2142367", "latitude": "54.4977199", "phone": "353719852434", "website_url": "https://mcmbrands.ie/beer/", "state": "Donegal", "street": "Unit 1 Erneside Business Park"}, {"id": "966c6f2f-fc9a-4d45-84f1-43a7934069b4", "name": "Donum Dei Brewery", "brewery_type": "brewpub", "address_1": "3211 Grant Line Rd Ste 3", "address_2": null, "address_3": null, "city": "New Albany", "state_province": "Indiana", "postal_code": "47150-2175", "country": "United States", "longitude": null, "latitude": null, "phone": "5025412950", "website_url": null, "state": "Indiana", "street": "3211 Grant Line Rd Ste 3"}, {"id": "388db412-bf61-4655-a93e-24367b6db51c", "name": "Doomsday Brewing Company and Pizza - Washougal", "brewery_type": "brewpub", "address_1": "421 C St Ste 3", "address_2": null, "address_3": null, "city": "Washougal", "state_province": "Washington", "postal_code": "98671-2169", "country": "United States", "longitude": "-122.3735012", "latitude": "45.58111086", "phone": "3603359909", "website_url": "http://www.doomsdaybrewing.com", "state": "Washington", "street": "421 C St Ste 3"}, {"id": "55608d36-62d6-449d-a7f6-a1e0df277831", "name": "Doomsday Brewing Pub and Pizza - Vancouver", "brewery_type": "brewpub", "address_1": "9301 NE 5th Ave Ste 120", "address_2": null, "address_3": null, "city": "Vancouver", "state_province": "Washington", "postal_code": "98665-8271", "country": "United States", "longitude": "-122.6666369", "latitude": "45.68816081", "phone": "3605598241", "website_url": "http://www.doomsdaybrewing.com", "state": "Washington", "street": "9301 NE 5th Ave Ste 120"}, {"id": "d916d0af-0cad-4876-a015-d44411332878", "name": "Doomsday Brewing Safe House", "brewery_type": "micro", "address_1": "1919 Main St", "address_2": null, "address_3": null, "city": "Vancouver", "state_province": "Washington", "postal_code": "98660-2634", "country": "United States", "longitude": "-122.6712833", "latitude": "45.6364012", "phone": "3605037649", "website_url": "http://www.doomsdaybrewing.com", "state": "Washington", "street": "1919 Main St"}, {"id": "d4a27cbf-93bd-4b3d-89b3-3b1898336f74", "name": "Door 4 Brewing Co", "brewery_type": "micro", "address_1": "1214 W Cerro Gordo St", "address_2": null, "address_3": null, "city": "Decatur", "state_province": "Illinois", "postal_code": "62522-2008", "country": "United States", "longitude": "-88.97523814", "latitude": "39.84662586", "phone": "2173302008", "website_url": "http://www.door4brewing.com", "state": "Illinois", "street": "1214 W Cerro Gordo St"}, {"id": "4761d4a5-08c2-4b99-94d6-9870a1296f0b", "name": "Door County Brewing Co./ Hacienda Beer Co", "brewery_type": "micro", "address_1": "8099 State Highway 57 PO Box 201", "address_2": null, "address_3": null, "city": "Baileys Harbor", "state_province": "Wisconsin", "postal_code": "54202-0201", "country": "United States", "longitude": null, "latitude": null, "phone": "9204931517", "website_url": "http://doorcountybrewingco.com", "state": "Wisconsin", "street": "8099 State Highway 57 PO Box 201"}, {"id": "113d2b74-bb5c-4954-9277-da0101571737", "name": "Dorchester Brewing Company", "brewery_type": "micro", "address_1": "1250 Massachusetts Ave", "address_2": null, "address_3": null, "city": "Dorchester", "state_province": "Massachusetts", "postal_code": "02125-1698", "country": "United States", "longitude": "-71.0615585", "latitude": "42.3204879", "phone": "6175140900", "website_url": "http://www.dorchesterbrewing.com", "state": "Massachusetts", "street": "1250 Massachusetts Ave"}, {"id": "25dd3b18-3204-4539-b58b-95478fbcb531", "name": "Dorcol Distilling and Brewing CO", "brewery_type": "micro", "address_1": "1902 S Flores St", "address_2": null, "address_3": null, "city": "San Antonio", "state_province": "Texas", "postal_code": "78204", "country": "United States", "longitude": "-98.502373", "latitude": "29.405708", "phone": "2102290607", "website_url": "http://www.dorcolspirits.com", "state": "Texas", "street": "1902 S Flores St"}, {"id": "69303b89-551f-4ef5-8e2f-268910c9b5e6", "name": "Dos Desperados Brewery", "brewery_type": "micro", "address_1": "1241 Linda Vista Dr", "address_2": null, "address_3": null, "city": "San Marcos", "state_province": "California", "postal_code": "92078-3809", "country": "United States", "longitude": "-117.1928216", "latitude": "33.13740391", "phone": "7605666209", "website_url": "http://www.dosdesperadosbrew.com", "state": "California", "street": "1241 Linda Vista Dr"}, {"id": "cc134379-14ee-4246-9535-ae117501b9af", "name": "Dos Luces Brewery", "brewery_type": "contract", "address_1": "1236 S Broadway", "address_2": null, "address_3": null, "city": "Denver", "state_province": "Colorado", "postal_code": "80210-1504", "country": "United States", "longitude": "-104.9874923", "latitude": "39.6830067", "phone": "3037254527", "website_url": "http://www.dosluces.com", "state": "Colorado", "street": "1236 S Broadway"}, {"id": "b6aee9c0-d332-4363-a4af-1d89c93f134a", "name": "Dostal Alley Brewing Co", "brewery_type": "brewpub", "address_1": "116 Main St", "address_2": null, "address_3": null, "city": "Central City", "state_province": "Colorado", "postal_code": "80427", "country": "United States", "longitude": "-105.512426", "latitude": "39.8001431", "phone": "3035821610", "website_url": "http://www.dostalalley.net", "state": "Colorado", "street": "116 Main St"}, {"id": "beb3aa65-0024-42a1-8943-74017faed659", "name": "DOT Brew", "brewery_type": "micro", "address_1": "9 Dolphin's Barn", "address_2": "Ushers", "address_3": null, "city": "Dublin", "state_province": "Dublin", "postal_code": "D08 WD35", "country": "Ireland", "longitude": "-6.2950084", "latitude": "53.3337548", "phone": null, "website_url": "https://dotbrew.ie/", "state": "Dublin", "street": "9 Dolphin's Barn"}, {"id": "4c3bac7f-3fa2-4153-8abd-28009c6e3031", "name": "Double Barley Brewing", "brewery_type": "brewpub", "address_1": "3174 US Highway 70 W", "address_2": null, "address_3": null, "city": "Smithfield", "state_province": "North Carolina", "postal_code": "27577-7613", "country": "United States", "longitude": null, "latitude": null, "phone": "9199343433", "website_url": "http://www.doublebarleybrewing.com", "state": "North Carolina", "street": "3174 US Highway 70 W"}, {"id": "685d73e3-bb8c-47a7-a73a-b8f168903ddd", "name": "Double Bluff Brewing", "brewery_type": "micro", "address_1": "112 Anthes Ave", "address_2": null, "address_3": null, "city": "Langley", "state_province": "Washington", "postal_code": "98260-", "country": "United States", "longitude": "-122.4090435", "latitude": "48.0403212", "phone": "3603339113", "website_url": "http://www.dblfbrewing.com", "state": "Washington", "street": "112 Anthes Ave"}, {"id": "4de6e1d2-9c69-438d-97a6-f9adcfb4c15b", "name": "Double D Brewing / Dommy's Pizza", "brewery_type": "brewpub", "address_1": "1100 Hancock Ave", "address_2": null, "address_3": null, "city": "Vandergrift", "state_province": "Pennsylvania", "postal_code": "15690-2061", "country": "United States", "longitude": "-79.57625", "latitude": "40.588461", "phone": "7245676789", "website_url": "http://dommyspizza.com", "state": "Pennsylvania", "street": "1100 Hancock Ave"}, {"id": "95269547-cf11-40b4-bd0c-81cf20fb49fe", "name": "Double Edge Brewing Co", "brewery_type": "micro", "address_1": "158 W Chestnut St", "address_2": null, "address_3": null, "city": "Lancaster", "state_province": "Ohio", "postal_code": "43130-4308", "country": "United States", "longitude": "-82.6042529", "latitude": "39.7123647", "phone": "7402777465", "website_url": "http://www.double-edge.beer", "state": "Ohio", "street": "158 W Chestnut St"}, {"id": "bedc4634-4155-4448-9d33-b5a8a2e5fb71", "name": "Double Horn Brewing Co", "brewery_type": "brewpub", "address_1": "208 Avenue H", "address_2": null, "address_3": null, "city": "Marble Falls", "state_province": "Texas", "postal_code": "78654-5750", "country": "United States", "longitude": "-98.27635445", "latitude": "30.57127795", "phone": "8306935165", "website_url": "http://www.doublehornbrewing.com", "state": "Texas", "street": "208 Avenue H"}, {"id": "128d2350-9a0a-4f2e-b327-887af1cc2f7d", "name": "Double Mountain Brewery", "brewery_type": "micro", "address_1": "8 4th St Ste 204", "address_2": null, "address_3": null, "city": "Hood River", "state_province": "Oregon", "postal_code": "97031-2123", "country": "United States", "longitude": "-121.5145087", "latitude": "45.71003675", "phone": "5413870042", "website_url": "http://www.doublemountainbrewery.com", "state": "Oregon", "street": "8 4th St Ste 204"}, {"id": "ef9cbcd6-3087-44f1-add7-2e2ea086dc4c", "name": "Double Nickel Brewing Company", "brewery_type": "micro", "address_1": "1585 Route 73", "address_2": null, "address_3": null, "city": "Pennsauken", "state_province": "New Jersey", "postal_code": "08110-1330", "country": "United States", "longitude": null, "latitude": null, "phone": "8563562499", "website_url": "http://www.DNBCBEER.com", "state": "New Jersey", "street": "1585 Route 73"}, {"id": "98ba45e2-9378-4b2b-8e58-82b651e99d5e", "name": "Double Shift Brewing", "brewery_type": "micro", "address_1": "412 E 18th St", "address_2": null, "address_3": null, "city": "Kansas City", "state_province": "Missouri", "postal_code": "64108-1410", "country": "United States", "longitude": "-94.57868373", "latitude": "39.09170494", "phone": "8163047028", "website_url": "http://www.doubleshiftbrewing.com", "state": "Missouri", "street": "412 E 18th St"}, {"id": "1fd31bf5-ffde-495e-8bdc-cc4666cd7cb5", "name": "Double Wing Brewing Co", "brewery_type": "brewpub", "address_1": "7840 Doty Rd", "address_2": null, "address_3": null, "city": "Madison", "state_province": "Ohio", "postal_code": "44057-9511", "country": "United States", "longitude": "-81.00537902", "latitude": "41.74037309", "phone": "4404663485", "website_url": "http://www.ratbrew.com", "state": "Ohio", "street": "7840 Doty Rd"}, {"id": "c71cd9d0-be0f-4528-8d21-9f89957372f9", "name": "Dovetail Brewery", "brewery_type": "micro", "address_1": "1800 W Belle Plaine Ave", "address_2": null, "address_3": null, "city": "Chicago", "state_province": "Illinois", "postal_code": "60613-1827", "country": "United States", "longitude": "-87.6743858", "latitude": "41.9561589", "phone": null, "website_url": "http://www.dovetailbrewery.com", "state": "Illinois", "street": "1800 W Belle Plaine Ave"}, {"id": "e1e4d221-608a-4a65-9a55-4f142ffb57d8", "name": "Down the Road Brewery", "brewery_type": "micro", "address_1": "199 Ashland Street", "address_2": null, "address_3": null, "city": "Everett", "state_province": "Massachusetts", "postal_code": "02149", "country": "United States", "longitude": "-71.061481", "latitude": "42.397645", "phone": "6174544255", "website_url": "http://www.downtheroadbrewery.com", "state": "Massachusetts", "street": "199 Ashland Street"}, {"id": "ffcc9d52-9de7-41a6-956c-36875ca71dca", "name": "Downdraft Brewing Co", "brewery_type": "closed", "address_1": "418 W Seltice Way", "address_2": null, "address_3": null, "city": "Post Falls", "state_province": "Idaho", "postal_code": "83854-", "country": "United States", "longitude": "-116.9573256", "latitude": "47.715079", "phone": "2082624233", "website_url": "http://www.downdraftbrewing.com", "state": "Idaho", "street": "418 W Seltice Way"}, {"id": "51421b18-93e4-4d09-b694-388dcb5df2fe", "name": "Downey Brewing Company", "brewery_type": "micro", "address_1": "13121 Prospect St", "address_2": null, "address_3": null, "city": "Dearborn", "state_province": "Michigan", "postal_code": "48126-3603", "country": "United States", "longitude": "-83.17350725", "latitude": "42.31625295", "phone": "3132888442", "website_url": "http://www.downeybrewingcompany.com", "state": "Michigan", "street": "13121 Prospect St"}, {"id": "817d2caa-c087-4b68-abea-6b7b797d17f8", "name": "Downhill Brewing", "brewery_type": "micro", "address_1": "18921 Plaza Dr Ste 104", "address_2": null, "address_3": null, "city": "Parker", "state_province": "Colorado", "postal_code": "80134-9679", "country": "United States", "longitude": null, "latitude": null, "phone": "3038052739", "website_url": "http://www.elkmountainbrewing.com", "state": "Colorado", "street": "18921 Plaza Dr Ste 104"}, {"id": "ae2d14fa-3144-4a8d-8161-c2c3febc01bd", "name": "Downpour Brewing LLC", "brewery_type": "micro", "address_1": "10991 NE State Highway 104", "address_2": null, "address_3": null, "city": "Kingston", "state_province": "Washington", "postal_code": "98346-", "country": "United States", "longitude": "-122.5001587", "latitude": "47.8010831", "phone": "3608810452", "website_url": "http://www.downpourbrewing.com", "state": "Washington", "street": "10991 NE State Highway 104"}, {"id": "42114875-dc49-4158-b524-f130768441c8", "name": "Downtown Grill & Brewery / Woodruff Brewing", "brewery_type": "brewpub", "address_1": "424 S Gay St", "address_2": null, "address_3": null, "city": "Knoxville", "state_province": "Tennessee", "postal_code": "37902-1103", "country": "United States", "longitude": "-83.9186686", "latitude": "35.96606301", "phone": "8656338111", "website_url": "http://www.downtownbrewery.com", "state": "Tennessee", "street": "424 S Gay St"}, {"id": "e7857d07-0058-48f8-b064-e76029c6ee6e", "name": "Downtown Joes Brewery and Restaurant", "brewery_type": "brewpub", "address_1": "902 Main St", "address_2": null, "address_3": null, "city": "Napa", "state_province": "California", "postal_code": "94559-3045", "country": "United States", "longitude": "-122.2848936", "latitude": "38.29865653", "phone": "7072582337", "website_url": "http://www.downtownjoes.com", "state": "California", "street": "902 Main St"}, {"id": "6b607ba6-859a-4a16-a51f-c0f55f4a98f8", "name": "Doylestown Brewing Co", "brewery_type": "proprietor", "address_1": "52 East State St.", "address_2": null, "address_3": null, "city": "Doylestown", "state_province": "Pennsylvania", "postal_code": "18901", "country": "United States", "longitude": "-75.1291116", "latitude": "40.31027305", "phone": "2153401414", "website_url": null, "state": "Pennsylvania", "street": "52 East State St."}, {"id": "fe0fd454-10bb-437c-912c-3fd5d416e7db", "name": "Dr Hops Kombucha Beer", "brewery_type": "planning", "address_1": null, "address_2": null, "address_3": null, "city": "San Leandro", "state_province": "California", "postal_code": "94577-1263", "country": "United States", "longitude": "-122.1560768", "latitude": "37.7249296", "phone": "3109168090", "website_url": "http://www.DrhopsKombuchaBeer.com", "state": "California", "street": null}, {"id": "a776c995-076a-4562-8434-467f01f3818a", "name": "Dr Jekyll's Craft Beer", "brewery_type": "contract", "address_1": "825 Cambridge Ct", "address_2": null, "address_3": null, "city": "Pasadena", "state_province": "California", "postal_code": "91107-1977", "country": "United States", "longitude": "-118.0798642", "latitude": "34.16059077", "phone": "3102738339", "website_url": "http://www.drjekylls.com", "state": "California", "street": "825 Cambridge Ct"}, {"id": "85478ddc-a830-43e5-beeb-66cead1a99c4", "name": "Drafting Table Brewing Company", "brewery_type": "micro", "address_1": "49438 Pontiac Trl", "address_2": null, "address_3": null, "city": "Wixom", "state_province": "Michigan", "postal_code": "48393-2005", "country": "United States", "longitude": "-83.53663792", "latitude": "42.52440117", "phone": "2489567279", "website_url": "http://www.draftingtablebeer.com", "state": "Michigan", "street": "49438 Pontiac Trl"}, {"id": "a9a0f855-a16c-4ee8-a0a2-8e9c0552b985", "name": "Dragon Hops Brewing", "brewery_type": "micro", "address_1": "130 E Main St", "address_2": null, "address_3": null, "city": "Purcellville", "state_province": "Virginia", "postal_code": "20132-3162", "country": "United States", "longitude": "-77.69298485", "latitude": "39.1360524", "phone": "5404413279", "website_url": "http://www.dragonhopsbrewing.com", "state": "Virginia", "street": "130 E Main St"}, {"id": "9429d00b-cdaf-46a0-8073-362cc90aad08", "name": "Dragon Run Brewing", "brewery_type": "planning", "address_1": null, "address_2": null, "address_3": null, "city": "Manquin", "state_province": "Virginia", "postal_code": "23106", "country": "United States", "longitude": null, "latitude": null, "phone": "8043800730", "website_url": "http://www.dragonrunbrewing.com", "state": "Virginia", "street": null}, {"id": "52c41ba0-3c69-4e41-b028-d9d4c3035249", "name": "Dragon's Gate Brewery", "brewery_type": "micro", "address_1": "52288 Sunquist Rd", "address_2": null, "address_3": null, "city": "Milton Freewater", "state_province": "Oregon", "postal_code": "97862-6856", "country": "United States", "longitude": "-118.4439713", "latitude": "45.98541686", "phone": "5412152622", "website_url": "http://www.dragonsgatebrewery.com", "state": "Oregon", "street": "52288 Sunquist Rd"}, {"id": "8ace7ff0-245c-4133-862c-2ca4eb3b7a65", "name": "Dragon's Tale Brewery", "brewery_type": "micro", "address_1": "8920 Vernon Ave Ste 122", "address_2": null, "address_3": null, "city": "Montclair", "state_province": "California", "postal_code": "91763-1662", "country": "United States", "longitude": "-117.686437", "latitude": "34.09189898", "phone": "9095292688", "website_url": "http://www.dragonstalebrewery.com", "state": "California", "street": "8920 Vernon Ave Ste 122"}, {"id": "f10850c4-f516-4ecd-9b8c-3fc20f134187", "name": "Dragonmead Microbrewery", "brewery_type": "micro", "address_1": "14600 E 11 Mile Rd", "address_2": null, "address_3": null, "city": "Warren", "state_province": "Michigan", "postal_code": "48089-1556", "country": "United States", "longitude": "-83.0278041", "latitude": "42.492142", "phone": "5867769428", "website_url": null, "state": "Michigan", "street": "14600 E 11 Mile Rd"}, {"id": "71eb91ae-4d50-4f01-840c-7552df4d96bd", "name": "Dragoon Brewing Co", "brewery_type": "micro", "address_1": "1859 W Grant Rd Ste 111", "address_2": null, "address_3": null, "city": "Tucson", "state_province": "Arizona", "postal_code": "85745-1214", "country": "United States", "longitude": "-111.0054521", "latitude": "32.25049461", "phone": "5203293606", "website_url": "http://www.dragoonbrewing.com", "state": "Arizona", "street": "1859 W Grant Rd Ste 111"}, {"id": "8f19cd9b-a675-473d-8493-42fd6b12c38e", "name": "Drake's Brewing Co.", "brewery_type": "regional", "address_1": "1933 Davis St Ste 177", "address_2": null, "address_3": null, "city": "San Leandro", "state_province": "California", "postal_code": "94577-1256", "country": "United States", "longitude": "-122.1791401", "latitude": "37.71493644", "phone": "5105682739", "website_url": "http://www.drinkdrakes.com", "state": "California", "street": "1933 Davis St Ste 177"}, {"id": "0fde773c-3201-4be7-b3ba-caf278efa4d3", "name": "Draper Brewing", "brewery_type": "micro", "address_1": "640 SE Jackson St", "address_2": null, "address_3": null, "city": "Roseburg", "state_province": "Oregon", "postal_code": "97470", "country": "United States", "longitude": "-123.3445979", "latitude": "43.2084738", "phone": "5415805585", "website_url": "http://www.draperbrewing.com", "state": "Oregon", "street": "640 SE Jackson St"}, {"id": "7b2f69d5-fc55-4ff2-9df1-b53ace7bc173", "name": "Dratz Brewing Company", "brewery_type": "planning", "address_1": null, "address_2": null, "address_3": null, "city": "Loveland", "state_province": "Colorado", "postal_code": "80537", "country": "United States", "longitude": null, "latitude": null, "phone": "9705660036", "website_url": "http://www.dratzbrewing.com", "state": "Colorado", "street": null}, {"id": "b70bb5a2-bcc5-43c5-8370-58d292c4625d", "name": "Draught Horse Brewery", "brewery_type": "brewpub", "address_1": "57721 Grand River Ave", "address_2": null, "address_3": null, "city": "New Hudson", "state_province": "Michigan", "postal_code": "48165-8542", "country": "United States", "longitude": "-83.61459", "latitude": "42.5113546", "phone": "2486173000", "website_url": "http://www.draughthorsebrewery.com", "state": "Michigan", "street": "57721 Grand River Ave"}, {"id": "9e3d79b0-5411-425d-9ead-e86abeb58c98", "name": "Draught House Pub and Brewery", "brewery_type": "micro", "address_1": "4112 Medical Pkwy Ste 100", "address_2": null, "address_3": null, "city": "Austin", "state_province": "Texas", "postal_code": "78756-3715", "country": "United States", "longitude": "-97.7428611", "latitude": "30.3110713", "phone": "5124526258", "website_url": "http://www.draughthouse.com", "state": "Texas", "street": "4112 Medical Pkwy Ste 100"}, {"id": "07ee729a-9c76-4092-9b11-4cc951eb3baf", "name": "Draught Works Brewing", "brewery_type": "micro", "address_1": "915 Toole Ave", "address_2": null, "address_3": null, "city": "Missoula", "state_province": "Montana", "postal_code": "59802-2625", "country": "United States", "longitude": "-114.0044493", "latitude": "46.8782576", "phone": "4062412423", "website_url": "http://www.draughtworksbrewery.com", "state": "Montana", "street": "915 Toole Ave"}, {"id": "f6f59f19-f861-42de-9367-023645506733", "name": "Draughtsman Brewery", "brewery_type": "planning", "address_1": null, "address_2": null, "address_3": null, "city": "La Mirada", "state_province": "California", "postal_code": "90638-3454", "country": "United States", "longitude": "-118.0107092", "latitude": "33.9060971", "phone": null, "website_url": null, "state": "California", "street": null}, {"id": "063dc603-aa8f-412d-9c8a-ac7c598c043a", "name": "Draughtsmen Aleworks", "brewery_type": "micro", "address_1": "53 Santa Felicia Dr", "address_2": null, "address_3": null, "city": "Goleta", "state_province": "California", "postal_code": "93117-2804", "country": "United States", "longitude": "-119.8759909", "latitude": "34.43146172", "phone": "8053872577", "website_url": "http://www.draughtsmenaleworks.com", "state": "California", "street": "53 Santa Felicia Dr"}, {"id": "0e7be133-1cb4-4c39-848c-2014ee5b359b", "name": "Dreadnought Brewing LLC", "brewery_type": "brewpub", "address_1": "16726 146th St SE Ste 153", "address_2": null, "address_3": null, "city": "Monroe", "state_province": "Washington", "postal_code": "98272-2937", "country": "United States", "longitude": "-122.0062527", "latitude": "47.86470473", "phone": "3608632479", "website_url": "http://www.dreadnoughtbrewing.com", "state": "Washington", "street": "16726 146th St SE Ste 153"}, {"id": "fcc44f51-2c5c-4baa-9c37-5996a01b5512", "name": "Dreaming Creek Brewery", "brewery_type": "micro", "address_1": "109 E Irvine St", "address_2": null, "address_3": null, "city": "Richmond", "state_province": "Kentucky", "postal_code": "40475-1521", "country": "United States", "longitude": "-84.29111565", "latitude": "37.747285", "phone": null, "website_url": "http://www.dreamingcreekbrewery.beer", "state": "Kentucky", "street": "109 E Irvine St"}, {"id": "350f58c9-f1e6-4668-bf55-15dc557ec94c", "name": "Dreaming Dog Brewery", "brewery_type": "micro", "address_1": "2501 W Taron Ct", "address_2": null, "address_3": null, "city": "Elk Grove", "state_province": "California", "postal_code": "95757-8423", "country": "United States", "longitude": "-121.4809068", "latitude": "38.40805044", "phone": null, "website_url": null, "state": "California", "street": "2501 W Taron Ct"}, {"id": "3799434f-4c20-4d7b-9085-6c83db87c1c7", "name": "Drekker Brewing Company", "brewery_type": "micro", "address_1": "1666 1st Ave N", "address_2": null, "address_3": null, "city": "Fargo", "state_province": "North Dakota", "postal_code": "58102-4246", "country": "United States", "longitude": "-96.80829701", "latitude": "46.87930301", "phone": "7015320506", "website_url": "http://www.drekkerbrewing.com", "state": "North Dakota", "street": "1666 1st Ave N"}, {"id": "5caa5486-f355-4e8a-b7c5-90d7a9c85cbd", "name": "Drew Fox Brewing Company", "brewery_type": "micro", "address_1": "Unit 8", "address_2": "Clonard Rd", "address_3": "Westpoint Business Park", "city": "Wexford", "state_province": "Wexford", "postal_code": "Y35 HN50", "country": "Ireland", "longitude": "-6.4921242", "latitude": "52.3311164", "phone": null, "website_url": "http://www.cleverman.ie/", "state": "Wexford", "street": "Unit 8"}, {"id": "44c3432e-9643-4a92-b7fc-4fa6c375995c", "name": "Driftless Brewing Co", "brewery_type": "micro", "address_1": "102 Sunbeam Blvd W", "address_2": null, "address_3": null, "city": "Soldiers Grove", "state_province": "Wisconsin", "postal_code": "54655-1001", "country": "United States", "longitude": "-90.76571832", "latitude": "43.38921997", "phone": "66086245577", "website_url": "http://www.driftlessbrewing.com", "state": "Wisconsin", "street": "102 Sunbeam Blvd W"}, {"id": "fd696e0a-a7bc-4f17-ac41-ede9b13b24d0", "name": "Drink Me Brewing", "brewery_type": "micro", "address_1": "210 9th St", "address_2": null, "address_3": null, "city": "Sibley", "state_province": "Iowa", "postal_code": "51249-1812", "country": "United States", "longitude": "-95.7506989", "latitude": "43.39942206", "phone": "2173161890", "website_url": "http://www.drinkmebrewing.com", "state": "Iowa", "street": "210 9th St"}, {"id": "fa16f1e8-3ee9-46e8-8c40-64a05947f6a2", "name": "Drinking Horse Brewing Company", "brewery_type": "micro", "address_1": "11517 SE Highway 212", "address_2": null, "address_3": null, "city": "Clackamas", "state_province": "Oregon", "postal_code": "97015-9053", "country": "United States", "longitude": "-122.378124", "latitude": "45.4288733", "phone": "5035648165", "website_url": "http://www.drinkinghorsebeer.com", "state": "Oregon", "street": "11517 SE Highway 212"}, {"id": "29891984-0438-4e8a-be6c-f7275fda484b", "name": "Drop In Brewing", "brewery_type": "micro", "address_1": "610 Route 7 S", "address_2": null, "address_3": null, "city": "Middlebury", "state_province": "Vermont", "postal_code": "05753-8987", "country": "United States", "longitude": null, "latitude": null, "phone": "8029897414", "website_url": "http://www.dropinbeer.com", "state": "Vermont", "street": "610 Route 7 S"}, {"id": "e3e862c9-ecda-4cba-abbc-bf1c8ce6539a", "name": "Dru Bru - Cle Elum", "brewery_type": "micro", "address_1": "1015 E 2nd St.", "address_2": null, "address_3": null, "city": "Cle Elum", "state_province": "Washington", "postal_code": "98922-1324", "country": "United States", "longitude": "-120.917988", "latitude": "47.194315", "phone": "4254340700", "website_url": "http://www.drubru.com", "state": "Washington", "street": "1015 E 2nd St."}, {"id": "c020e892-ad66-4b36-be5e-d0095ab3a263", "name": "Dru Bru - Snoqualmie Pass", "brewery_type": "micro", "address_1": "10 Pass Life Way # 3", "address_2": null, "address_3": null, "city": "Snoqualmie Pass", "state_province": "Washington", "postal_code": "98068", "country": "United States", "longitude": "-121.412584", "latitude": "47.421312", "phone": "4254340700", "website_url": "http://www.drubru.com", "state": "Washington", "street": "10 Pass Life Way # 3"}, {"id": "2fc58bc4-57fa-4880-9286-095548fb5ec6", "name": "Druid City Brewing", "brewery_type": "micro", "address_1": "607 14th St", "address_2": null, "address_3": null, "city": "Tuscaloosa", "state_province": "Alabama", "postal_code": "35401-3439", "country": "United States", "longitude": "-87.54373615", "latitude": "33.19997474", "phone": "2058868140", "website_url": "http://www.druidcitybrewing.com", "state": "Alabama", "street": "607 14th St"}, {"id": "1b1fa0ef-7e76-474a-88d2-7f22b56bb3ff", "name": "Drumconrath Brewing Company", "brewery_type": "micro", "address_1": "630 1st Ave N", "address_2": null, "address_3": null, "city": "Fargo", "state_province": "North Dakota", "postal_code": "58102-5268", "country": "United States", "longitude": "-96.78936674", "latitude": "46.8773031", "phone": "7016453786", "website_url": "http://www.drumconrathbrewing.com", "state": "North Dakota", "street": "630 1st Ave N"}, {"id": "e1f2d5c0-4b41-47f1-9a7a-5638851a9ac5", "name": "Drumming Grouse Brewery, LLC", "brewery_type": "micro", "address_1": "318 Fosterville Rd", "address_2": null, "address_3": null, "city": "Bridgton", "state_province": "Maine", "postal_code": "04009-4032", "country": "United States", "longitude": "-70.68838325", "latitude": "43.97416125", "phone": "4109609679", "website_url": "http://www.drumminggrousebrewery.com", "state": "Maine", "street": "318 Fosterville Rd"}, {"id": "cfff9480-fc9e-4ac6-addc-f64fbb834fef", "name": "Drunken Rabbit Brewing", "brewery_type": "micro", "address_1": "749A New Ludlow Rd", "address_2": null, "address_3": null, "city": "South Hadley", "state_province": "Massachusetts", "postal_code": "01020", "country": "United States", "longitude": "-72.553245", "latitude": "42.217914", "phone": "4137282739", "website_url": "http://www.rabbit.beer", "state": "Massachusetts", "street": "749A New Ludlow Rd"}, {"id": "0d191216-159d-4314-ba33-c23d979afd74", "name": "Druthers Brewing Co", "brewery_type": "brewpub", "address_1": "381 Broadway", "address_2": null, "address_3": null, "city": "Saratoga Springs", "state_province": "New York", "postal_code": "12866-3111", "country": "United States", "longitude": null, "latitude": null, "phone": "5183065275", "website_url": "http://www.druthersbrewing.com", "state": "New York", "street": "381 Broadway"}, {"id": "b28c0edf-d271-4d60-997a-aa52aab7170f", "name": "Dry City Brew Works", "brewery_type": "micro", "address_1": "120B N Main St", "address_2": null, "address_3": null, "city": "Wheaton", "state_province": "Illinois", "postal_code": "60187-", "country": "United States", "longitude": "-88.1069594", "latitude": "41.86544335", "phone": "6304564787", "website_url": "http://www.drycitybrewworks.com", "state": "Illinois", "street": "120B N Main St"}, {"id": "ec86cc6f-53f8-4715-8595-fe68cf676bc6", "name": "Dry County Brewing", "brewery_type": "brewpub", "address_1": "585 Oak Ave", "address_2": null, "address_3": null, "city": "Spruce Pine", "state_province": "North Carolina", "postal_code": "28777-2727", "country": "United States", "longitude": "-82.063578", "latitude": "35.9158912", "phone": "8287654583", "website_url": "http://www.drycountybrewing.com", "state": "North Carolina", "street": "585 Oak Ave"}, {"id": "8f0e3986-07af-496e-9149-bbcde8bb9b84", "name": "Dry County Brewing Company", "brewery_type": "micro", "address_1": "1500 Lockhart Drive", "address_2": null, "address_3": null, "city": "kennesaw", "state_province": "Georgia", "postal_code": "30144", "country": "United States", "longitude": null, "latitude": null, "phone": "4045799846", "website_url": "http://www.DryCountyBrewCo.com", "state": "Georgia", "street": "1500 Lockhart Drive"}, {"id": "f5bcfd6a-160a-4d65-a5b7-834564023123", "name": "Dry Dock Brewing Co - North Dock", "brewery_type": "regional", "address_1": "2801 Tower Rd", "address_2": null, "address_3": null, "city": "Aurora", "state_province": "Colorado", "postal_code": "80011-3508", "country": "United States", "longitude": "-104.772404", "latitude": "39.758038", "phone": "3034005606", "website_url": "http://www.drydockbrewing.com", "state": "Colorado", "street": "2801 Tower Rd"}, {"id": "a2728fec-51dd-4613-b15d-fc53774003b2", "name": "Dry Dock Brewing Co- South Dock", "brewery_type": "micro", "address_1": "15120 E Hampden Ave", "address_2": null, "address_3": null, "city": "Aurora", "state_province": "Colorado", "postal_code": "80014-3906", "country": "United States", "longitude": "-104.7680096", "latitude": "39.6529424", "phone": "3034005606", "website_url": "http://www.drydockbrewing.com", "state": "Colorado", "street": "15120 E Hampden Ave"}, {"id": "069e89d5-77ec-486b-925f-3837899ebbbc", "name": "Dry Ground Brewing Company", "brewery_type": "micro", "address_1": "3121 Broadway St", "address_2": null, "address_3": null, "city": "Paducah", "state_province": "Kentucky", "postal_code": "42001-4305", "country": "United States", "longitude": "-88.63767771", "latitude": "37.0705097", "phone": "2702109296", "website_url": "http://www.drygroundbrewing.com", "state": "Kentucky", "street": "3121 Broadway St"}, {"id": "3dae53ba-0f35-4f1f-92fd-f29f05aaf5fc", "name": "Dry River Brewing", "brewery_type": "micro", "address_1": "671 S Anderson St", "address_2": null, "address_3": null, "city": "Los Angeles", "state_province": "California", "postal_code": "90023-1110", "country": "United States", "longitude": "-118.2233015", "latitude": "34.03638739", "phone": "2133755235", "website_url": "http://www.dryriverbrewing.com", "state": "California", "street": "671 S Anderson St"}, {"id": "d1ad3b1d-f62b-46d5-a5fa-a22a402b61a3", "name": "Dryhop Brewers", "brewery_type": "micro", "address_1": "3155 N Broadway St", "address_2": null, "address_3": null, "city": "Chicago", "state_province": "Illinois", "postal_code": "60657-4508", "country": "United States", "longitude": null, "latitude": null, "phone": "7738573155", "website_url": "http://www.dryhopchicago.com", "state": "Illinois", "street": "3155 N Broadway St"}, {"id": "e9f88398-a093-46e3-91d9-efa85d0412d7", "name": "Drylands Brewing", "brewery_type": "brewpub", "address_1": "322 N Main Ave", "address_2": null, "address_3": null, "city": "Lovington", "state_province": "New Mexico", "postal_code": "88260-3643", "country": "United States", "longitude": "-103.3484834", "latitude": "32.9504929", "phone": "5757392739", "website_url": "http://Drylandsbrewing.com", "state": "New Mexico", "street": "322 N Main Ave"}, {"id": "9f749cda-57a0-487e-91b5-a3464b1c2ec9", "name": "Dual Citizen Brewing Co.", "brewery_type": "micro", "address_1": "725 Raymond Ave", "address_2": null, "address_3": null, "city": "Saint Paul", "state_province": "Minnesota", "postal_code": "55114-1709", "country": "United States", "longitude": "-93.1978006", "latitude": "44.9631096", "phone": "6513304750", "website_url": "http://www.dualcitizenbrewing.com", "state": "Minnesota", "street": "725 Raymond Ave"}, {"id": "3ebb636f-ae1e-4e19-b273-7eae97ed4856", "name": "Dubh Linn Brew Pub", "brewery_type": "brewpub", "address_1": "109 W Superior St", "address_2": null, "address_3": null, "city": "Duluth", "state_province": "Minnesota", "postal_code": "55802-3026", "country": "United States", "longitude": "-92.09972572", "latitude": "46.78589441", "phone": "2187271559", "website_url": "http://dubhlinnpub.com", "state": "Minnesota", "street": "109 W Superior St"}, {"id": "13024a14-b475-4d4f-8aad-f28b028eae6f", "name": "Dubina Brewing Co.", "brewery_type": "brewpub", "address_1": "17035 N 67th Ave Ste 6", "address_2": null, "address_3": null, "city": "Glendale", "state_province": "Arizona", "postal_code": "85308-3655", "country": "United States", "longitude": null, "latitude": null, "phone": "6234127770", "website_url": "http://www.dubinabrewing.com", "state": "Arizona", "street": "17035 N 67th Ave Ste 6"}, {"id": "0229fb16-b24c-4b75-a16c-b2a6f7047ed7", "name": "Dubious Claims Brewing", "brewery_type": "brewpub", "address_1": "451 S Thompson Ave", "address_2": null, "address_3": null, "city": "Excelsior Springs", "state_province": "Missouri", "postal_code": "64024-2133", "country": "United States", "longitude": "-94.22589926", "latitude": "39.33933583", "phone": "8168962477", "website_url": "http://www.dubiousclaimsbrewingco.com/", "state": "Missouri", "street": "451 S Thompson Ave"}, {"id": "e6a545be-d8a4-4f02-a9f8-f62e4b3c257e", "name": "Dublin City Brewing Co.", "brewery_type": "micro", "address_1": "The Parnell Centre", "address_2": "Parnell St", "address_3": "Rotunda", "city": "Dublin", "state_province": "Dublin", "postal_code": "D01 Y9T3", "country": "Ireland", "longitude": "-6.2693974", "latitude": "53.3506256", "phone": null, "website_url": "http://www.dublincitybrewingco.com/", "state": "Dublin", "street": "The Parnell Centre"}, {"id": "ee33e3eb-8ea8-41b6-a37c-a0ccc87dc8c5", "name": "Dublin Corners Farm Brewery", "brewery_type": "micro", "address_1": "1906 Main St", "address_2": null, "address_3": null, "city": "Linwood", "state_province": "New York", "postal_code": "14486-9707", "country": "United States", "longitude": null, "latitude": null, "phone": "5855384796", "website_url": "http://www.dublincornersfarm.com", "state": "New York", "street": "1906 Main St"}]