[{"id": "3bd29102-fc0a-4ce2-bcb6-940df953a00f", "name": "Telegraph Brewing Co", "brewery_type": "micro", "address_1": "418 N Salsipuedes St", "address_2": null, "address_3": null, "city": "Santa Barbara", "state_province": "California", "postal_code": "93103-3127", "country": "United States", "longitude": "-119.6881651", "latitude": "34.4228601", "phone": "8059635018", "website_url": "http://www.telegraphbrewing.com", "state": "California", "street": "418 N Salsipuedes St"}, {"id": "efaa1d14-a838-4786-869f-2471ad7c3622", "name": "Telluride Brewing Co", "brewery_type": "micro", "address_1": "156 DEF Society Drive", "address_2": null, "address_3": null, "city": "Telluride", "state_province": "Colorado", "postal_code": "81435", "country": "United States", "longitude": null, "latitude": null, "phone": "9707285094", "website_url": "http://www.telluridebrewingco.com", "state": "Colorado", "street": "156 DEF Society Drive"}, {"id": "a03588bf-9b7f-4f47-85b9-fc6b36dcb2a4", "name": "Temblor Brewing Company", "brewery_type": "brewpub", "address_1": "3200 Buck Owens Blvd Ste 200", "address_2": null, "address_3": null, "city": "Bakersfield", "state_province": "California", "postal_code": "93308-6376", "country": "United States", "longitude": "-119.043071", "latitude": "35.3885985", "phone": "6614894855", "website_url": "http://www.temblorbrewing.com", "state": "California", "street": "3200 Buck Owens Blvd Ste 200"}, {"id": "0d941cc3-decc-49d2-affc-14664b5f3efe", "name": "Temescal Brewing", "brewery_type": "micro", "address_1": "4115 Telegraph Ave", "address_2": null, "address_3": null, "city": "Oakland", "state_province": "California", "postal_code": "94609-2405", "country": "United States", "longitude": "-122.2645038", "latitude": "37.8303644", "phone": "5108995628", "website_url": "http://www.temescalbrewing.com", "state": "California", "street": "4115 Telegraph Ave"}, {"id": "aa8a5d03-6fd0-4b3a-95ed-3f4e2f499b30", "name": "Temperance Beer Company, LLC", "brewery_type": "micro", "address_1": "2000 Dempster St", "address_2": null, "address_3": null, "city": "Evanston", "state_province": "Illinois", "postal_code": "60202-1017", "country": "United States", "longitude": "-87.7013174", "latitude": "42.040962", "phone": "8478641000", "website_url": "http://temperance.beer", "state": "Illinois", "street": "2000 Dempster St"}, {"id": "ba1f3a28-30d7-4a1f-bf5f-e1c858d3ef97", "name": "Temperance Row Brewing and Uptown Deli", "brewery_type": "brewpub", "address_1": "41 N State St", "address_2": null, "address_3": null, "city": "Westerville", "state_province": "Ohio", "postal_code": "43081-2123", "country": "United States", "longitude": "-82.92806564", "latitude": "40.11493135", "phone": "6148912337", "website_url": "http://www.uptowndeliandbrew.com", "state": "Ohio", "street": "41 N State St"}, {"id": "7ddbad2b-3e2c-4be0-bbc1-8e56fdae20e0", "name": "Temperate Habits Brewing Company", "brewery_type": "brewpub", "address_1": "500 S 1st St", "address_2": null, "address_3": null, "city": "Mount Vernon", "state_province": "Washington", "postal_code": "98273-3809", "country": "United States", "longitude": "-122.337629", "latitude": "48.419856", "phone": "3603997740", "website_url": "https://temperatehabitsbrewing.com/", "state": "Washington", "street": "500 S 1st St"}, {"id": "65cd0e8e-5d7d-4304-bf30-a587f29416ff", "name": "Templin Family Brewing", "brewery_type": "micro", "address_1": "936 S 300 W", "address_2": null, "address_3": null, "city": "Salt Lake City", "state_province": "Utah", "postal_code": "84101", "country": "United States", "longitude": "-111.9000402", "latitude": "40.7486519", "phone": "3852705972", "website_url": "https://tfbrewing.com", "state": "Utah", "street": "936 S 300 W"}, {"id": "8d5bb097-d59f-49d0-911a-0af4f63f66a4", "name": "Ten 10 Brewing Co", "brewery_type": "brewpub", "address_1": "1010 Virginia Dr", "address_2": null, "address_3": null, "city": "Orlando", "state_province": "Florida", "postal_code": "32803-2532", "country": "United States", "longitude": "-81.36592044", "latitude": "28.56397689", "phone": "4079308993", "website_url": "http://www.ten10brewingcompany.com", "state": "Florida", "street": "1010 Virginia Dr"}, {"id": "b68a7e7e-29fa-427a-a40b-1216a00af829", "name": "Ten Bends Beer", "brewery_type": "micro", "address_1": "590 E Main St", "address_2": null, "address_3": null, "city": "Hyde Park", "state_province": "Vermont", "postal_code": "05655-9267", "country": "United States", "longitude": "-72.60515022", "latitude": "44.58894694", "phone": "8025217139", "website_url": "http://wwwtenbendsbeer.com", "state": "Vermont", "street": "590 E Main St"}, {"id": "6ef59986-4d00-46b4-880c-8e202f6f5a7b", "name": "Ten Fifty Five Brewing", "brewery_type": "micro", "address_1": "3810 E 44th St Ste 315", "address_2": null, "address_3": null, "city": "Tucson", "state_province": "Arizona", "postal_code": "85713-5474", "country": "United States", "longitude": null, "latitude": null, "phone": "5204618073", "website_url": "http://www.1055brewing.com", "state": "Arizona", "street": "3810 E 44th St Ste 315"}, {"id": "f74bf618-77d2-4541-b7c2-de15feebdcac", "name": "Ten Mile Brewing", "brewery_type": "micro", "address_1": "1136 E Willow St", "address_2": null, "address_3": null, "city": "Signal Hill", "state_province": "California", "postal_code": "90755-3433", "country": "United States", "longitude": "-118.1806752", "latitude": "33.8043697", "phone": "5626121255", "website_url": "http://www.tenmilebrewing.com", "state": "California", "street": "1136 E Willow St"}, {"id": "af5797f0-c4ab-4b52-972e-eb2b4cd90fe5", "name": "Ten Mile Creek Brewery", "brewery_type": "micro", "address_1": "48 N Last Chance Gulch", "address_2": null, "address_3": null, "city": "Helena", "state_province": "Montana", "postal_code": "59601-4122", "country": "United States", "longitude": null, "latitude": null, "phone": "4065021382", "website_url": "http://www.tenmilecreekbrewing.com", "state": "Montana", "street": "48 N Last Chance Gulch"}, {"id": "a5abe2bb-a5cb-4994-8dde-05188906b960", "name": "Ten Ninety Brewing Co", "brewery_type": "micro", "address_1": "1025 Waukegan Rd", "address_2": null, "address_3": null, "city": "Glenview", "state_province": "Illinois", "postal_code": "60025", "country": "United States", "longitude": "-87.7996254", "latitude": "42.0589281", "phone": null, "website_url": "http://www.ten-ninety.com", "state": "Illinois", "street": "1025 Waukegan Rd"}, {"id": "fa334932-528c-409e-90a5-95526983fa2f", "name": "Ten Pin Brewing - Production Facility", "brewery_type": "micro", "address_1": "1149 N Stratford Rd", "address_2": null, "address_3": null, "city": "Moses Lake", "state_province": "Washington", "postal_code": "98837-1514", "country": "United States", "longitude": "-119.2781737", "latitude": "47.14487355", "phone": "5097662739", "website_url": "http://www.tenpinbrewing.com", "state": "Washington", "street": "1149 N Stratford Rd"}, {"id": "e91e512e-1190-41d2-94bd-2750ae80bc03", "name": "Ten Pin Brewing Co", "brewery_type": "brewpub", "address_1": "1165 N Stratford Rd", "address_2": null, "address_3": null, "city": "Moses Lake", "state_province": "Washington", "postal_code": "98837-1514", "country": "United States", "longitude": "-119.2781699", "latitude": "47.14506441", "phone": "5097651265", "website_url": "http://www.tenpinbrewing.com", "state": "Washington", "street": "1165 N Stratford Rd"}, {"id": "cc7e5d45-012e-45b6-8360-b1db2ddf8ada", "name": "Ten Sleep Brewing Company", "brewery_type": "micro", "address_1": "2549 Hwy 16", "address_2": null, "address_3": null, "city": "Ten Sleep", "state_province": "Wyoming", "postal_code": "82442", "country": "United States", "longitude": null, "latitude": null, "phone": "3073662074", "website_url": "http://www.tensleepbrewingco.com", "state": "Wyoming", "street": "2549 Hwy 16"}, {"id": "86918223-e1ea-49a1-89a5-86ba31c4c93a", "name": "Tenacious Brewing Company", "brewery_type": "planning", "address_1": null, "address_2": null, "address_3": null, "city": "San Diego", "state_province": "California", "postal_code": "92101", "country": "United States", "longitude": "-117.1627714", "latitude": "32.7174209", "phone": null, "website_url": null, "state": "California", "street": null}, {"id": "00a78d20-3da2-4f63-9270-44b4722f4883", "name": "Tenacity Brewing", "brewery_type": "micro", "address_1": "119 N Grand Traverse St", "address_2": null, "address_3": null, "city": "Flint", "state_province": "Michigan", "postal_code": "48503-5620", "country": "United States", "longitude": "-83.69663179", "latitude": "43.01522788", "phone": "8103396676", "website_url": "http://www.tenacitybrewing.com", "state": "Michigan", "street": "119 N Grand Traverse St"}, {"id": "a8502efc-8b0d-4af4-bfed-39cf4c829fea", "name": "Tenaya Creek Brewery", "brewery_type": "micro", "address_1": "831 W Bonanza Rd", "address_2": null, "address_3": null, "city": "Las Vegas", "state_province": "Nevada", "postal_code": "89106-3526", "country": "United States", "longitude": null, "latitude": null, "phone": "7023627335", "website_url": "http://www.tenayacreek.com", "state": "Nevada", "street": "831 W Bonanza Rd"}, {"id": "a7929906-12e8-4f50-b527-cdccbea3fb42", "name": "TenEyck Brewing", "brewery_type": "planning", "address_1": null, "address_2": null, "address_3": null, "city": "Queenstown", "state_province": "Maryland", "postal_code": "21658-1386", "country": "United States", "longitude": null, "latitude": null, "phone": "8134777249", "website_url": null, "state": "Maryland", "street": null}, {"id": "d3677b62-c50b-41c3-8898-ba01125c45f3", "name": "Tennessee Brew Works", "brewery_type": "micro", "address_1": "809 Ewing Ave", "address_2": null, "address_3": null, "city": "Nashville", "state_province": "Tennessee", "postal_code": "37203-4631", "country": "United States", "longitude": "-86.7762132", "latitude": "36.1503752", "phone": "6154360050", "website_url": "http://www.tnbrew.com", "state": "Tennessee", "street": "809 Ewing Ave"}, {"id": "edce297b-c335-4670-8d96-073c26111d12", "name": "Tennessee Valley Brewing Company", "brewery_type": "micro", "address_1": "2088 Lowes Dr Ste H", "address_2": null, "address_3": null, "city": "Clarksville", "state_province": "Tennessee", "postal_code": "37040-1635", "country": "United States", "longitude": null, "latitude": null, "phone": "9312411040", "website_url": "http://www.tnvalleybrewing.com", "state": "Tennessee", "street": "2088 Lowes Dr Ste H"}, {"id": "126014af-a68f-4146-bc98-267abda9a40f", "name": "Tent City Beer Company", "brewery_type": "micro", "address_1": "6760 El Camino Real", "address_2": null, "address_3": null, "city": "Atascadero", "state_province": "California", "postal_code": "93422-4205", "country": "United States", "longitude": "-120.66767", "latitude": "35.487726", "phone": "8054606454", "website_url": "http://www.tentcitybeer.com", "state": "California", "street": "6760 El Camino Real"}, {"id": "c5ddef5e-2664-4f02-b59b-d37f00967414", "name": "Tequesta Brewing Co", "brewery_type": "micro", "address_1": "287 S US Highway 1", "address_2": null, "address_3": null, "city": "Tequesta", "state_province": "Florida", "postal_code": "33469-2701", "country": "United States", "longitude": null, "latitude": null, "phone": "5617455000", "website_url": "http://www.tequestabrewing.com", "state": "Florida", "street": "287 S US Highway 1"}, {"id": "fffae80b-1654-4d69-95ad-7a349e246db0", "name": "Terminal Brewhouse, The", "brewery_type": "brewpub", "address_1": "1464 Market St", "address_2": null, "address_3": null, "city": "Chattanooga", "state_province": "Tennessee", "postal_code": "37402-4448", "country": "United States", "longitude": "-85.30723077", "latitude": "35.03644493", "phone": "4237528090", "website_url": "http://www.terminalbrewhouse.com", "state": "Tennessee", "street": "1464 Market St"}, {"id": "10d1743f-5e4f-43b8-bd0c-11d0cd5e719c", "name": "Terminal Gravity Brewing Co", "brewery_type": "micro", "address_1": "803 SE School St", "address_2": null, "address_3": null, "city": "Enterprise", "state_province": "Oregon", "postal_code": "97828-1674", "country": "United States", "longitude": "-117.2713718", "latitude": "45.4187654", "phone": "5414260158", "website_url": "http://www.terminalgravitybrewing.com", "state": "Oregon", "street": "803 SE School St"}, {"id": "0d82e30e-9eb0-4f5f-8615-436007d38e3e", "name": "Terramar Brewstillery", "brewery_type": "micro", "address_1": "5712 Gilkey Ave", "address_2": null, "address_3": null, "city": "Bow", "state_province": "Washington", "postal_code": "98232-9353", "country": "United States", "longitude": "-122.443599", "latitude": "48.564097", "phone": "3603996222", "website_url": "http://terramarcraft.com", "state": "Washington", "street": "5712 Gilkey Ave"}, {"id": "21c0cd50-3ad8-4525-8085-1ed7a9e378ad", "name": "Terrapin Beer Co", "brewery_type": "large", "address_1": "265 Newton Bridge Rd", "address_2": null, "address_3": null, "city": "Athens", "state_province": "Georgia", "postal_code": "30607-1145", "country": "United States", "longitude": "-83.39779284", "latitude": "33.9885289", "phone": "7065493377", "website_url": "http://www.terrapinbeer.com", "state": "Georgia", "street": "265 Newton Bridge Rd"}, {"id": "34400740-8da8-4c22-bf6f-9f4fe675a43c", "name": "Terre Haute Brewing Company", "brewery_type": "brewpub", "address_1": "401 S 9th St", "address_2": null, "address_3": null, "city": "Terre Haute", "state_province": "Indiana", "postal_code": "47807-4417", "country": "United States", "longitude": "-87.404517", "latitude": "39.462286", "phone": "8128143071", "website_url": "http://www.terrehautebrewingcompany.com", "state": "Indiana", "street": "401 S 9th St"}, {"id": "7000641c-5ae1-4c4e-9c82-8b18d7a12660", "name": "Terrestrial Brewing Company", "brewery_type": "micro", "address_1": "7524 Father Frascati Dr", "address_2": null, "address_3": null, "city": "Cleveland", "state_province": "Ohio", "postal_code": "44102-2087", "country": "United States", "longitude": "-81.7361552", "latitude": "41.4869219", "phone": "2164659999", "website_url": null, "state": "Ohio", "street": "7524 Father Frascati Dr"}, {"id": "2c7a936f-eed9-48b4-9f00-7309dd34277c", "name": "Territorial Brewing Company", "brewery_type": "brewpub", "address_1": "256 Helmer Rd N", "address_2": null, "address_3": null, "city": "Springfield", "state_province": "Michigan", "postal_code": "49037-7914", "country": "United States", "longitude": "-85.23565712", "latitude": "42.3151618", "phone": "2692821694", "website_url": "http://www.territorialbrewing.com", "state": "Michigan", "street": "256 Helmer Rd N"}, {"id": "9dcd48bb-9b48-498a-ada4-91d77cfef610", "name": "Territorial Brewing Company Production Facility", "brewery_type": "micro", "address_1": "2815 6th Ave", "address_2": null, "address_3": null, "city": "Springfield", "state_province": "Michigan", "postal_code": "49037-7986", "country": "United States", "longitude": "-85.22954317", "latitude": "42.31466956", "phone": "2694410030", "website_url": null, "state": "Michigan", "street": "2815 6th Ave"}, {"id": "84d2bd86-eaec-49d4-b4b8-8076e4905e01", "name": "Texas Ale Project", "brewery_type": "micro", "address_1": "1001 N Riverfront Blvd", "address_2": null, "address_3": null, "city": "Dallas", "state_province": "Texas", "postal_code": "75207-4201", "country": "United States", "longitude": "-96.8148593", "latitude": "32.7818812", "phone": "2149650606", "website_url": "http://www.texasaleproject.com", "state": "Texas", "street": "1001 N Riverfront Blvd"}, {"id": "271219df-fb1a-4947-953b-056c59afda19", "name": "Texas Beer Company", "brewery_type": "micro", "address_1": "1331 W 2nd St", "address_2": null, "address_3": null, "city": "Taylor", "state_province": "Texas", "postal_code": "76574-2434", "country": "United States", "longitude": "-97.42424416", "latitude": "30.56782579", "phone": "5122897460", "website_url": "http://www.texasbeerco.com", "state": "Texas", "street": "1331 W 2nd St"}, {"id": "a2e6a255-50ee-4c54-9746-85c186d7bacf", "name": "Texas Beer Company", "brewery_type": "micro", "address_1": "201 N Main St", "address_2": null, "address_3": null, "city": "Taylor", "state_province": "Texas", "postal_code": "76574", "country": "United States", "longitude": "-97.409585", "latitude": "30.568804", "phone": "5124666939", "website_url": null, "state": "Texas", "street": "201 N Main St"}, {"id": "34ea89cc-a9a9-4435-8bec-a3a26bc4de2a", "name": "Texas Beer Refinery", "brewery_type": "micro", "address_1": "1825 Dickinson Ave Unit B", "address_2": null, "address_3": null, "city": "Dickinson", "state_province": "Texas", "postal_code": "77539-7799", "country": "United States", "longitude": null, "latitude": null, "phone": "8327791221", "website_url": "http://www.texasbeerrefinery.com", "state": "Texas", "street": "1825 Dickinson Ave Unit B"}, {"id": "eb50673e-fea6-4b57-b295-0654561eb908", "name": "Texas Corners Brewing Company", "brewery_type": "brewpub", "address_1": "6970 Texas Dr", "address_2": null, "address_3": null, "city": "Kalamazoo", "state_province": "Michigan", "postal_code": "49009-9795", "country": "United States", "longitude": "-85.6486336", "latitude": "42.2300087", "phone": "2698707724", "website_url": "http://www.texascornersbrewing.com", "state": "Michigan", "street": "6970 Texas Dr"}, {"id": "505134f2-092b-4275-a96e-d26953c00b4e", "name": "Texas Leaguer Brewing Company", "brewery_type": "micro", "address_1": "13503 Pike Rd", "address_2": null, "address_3": null, "city": "Missouri City", "state_province": "Texas", "postal_code": "77489-1033", "country": "United States", "longitude": "-95.5480643", "latitude": "29.627854", "phone": "8328959000", "website_url": "http://www.txleaguer.com", "state": "Texas", "street": "13503 Pike Rd"}, {"id": "f3e387ba-a709-4788-8be7-40544b60d002", "name": "THAT Brewery - Cottonwood", "brewery_type": "micro", "address_1": "300 E Cherry St Unit B", "address_2": null, "address_3": null, "city": "Cottonwood", "state_province": "Arizona", "postal_code": "86326-6178", "country": "United States", "longitude": null, "latitude": null, "phone": "9282023013", "website_url": "http://www.thatbrewery.com", "state": "Arizona", "street": "300 E Cherry St Unit B"}, {"id": "3d20ed64-08b1-4d6e-ab7b-556365e66c3f", "name": "THAT Brewery & Pub - Pine", "brewery_type": "brewpub", "address_1": "3270 N Az Highway 87", "address_2": null, "address_3": null, "city": "Pine", "state_province": "Arizona", "postal_code": "85544-5036", "country": "United States", "longitude": null, "latitude": null, "phone": "9284763349", "website_url": "http://www.thatbrewery.com", "state": "Arizona", "street": "3270 N Az Highway 87"}, {"id": "84dcf5e8-221e-4bc1-bc7a-fb9fdc122797", "name": "The 1648 Brewing Co Ltd", "brewery_type": "micro", "address_1": "Mill Lane", "address_2": "East Hoathly", "address_3": null, "city": "Lewes", "state_province": "East Sussex", "postal_code": "BN8 6QB", "country": "England", "longitude": "-0.02828", "latitude": "50.93968", "phone": "1825840830", "website_url": "http://www.1648brewing.co.uk/", "state": "East Sussex", "street": "Mill Lane"}, {"id": "5d90a63a-6a22-430e-a403-ecfd5f041f16", "name": "The 377 Brewery", "brewery_type": "micro", "address_1": "2027 Yale Blvd SE", "address_2": null, "address_3": null, "city": "Albuquerque", "state_province": "New Mexico", "postal_code": "87106-4139", "country": "United States", "longitude": "-106.6219267", "latitude": "35.0561133", "phone": "5052503388", "website_url": "http://www.the377.com", "state": "New Mexico", "street": "2027 Yale Blvd SE"}, {"id": "964e02eb-eda8-45e4-a21c-cd679757dbfc", "name": "The Address Brewing / 1702 Beer & Pizza", "brewery_type": "micro", "address_1": "1702 E Speedway Blvd", "address_2": null, "address_3": null, "city": "Tucson", "state_province": "Arizona", "postal_code": "85719-4515", "country": "United States", "longitude": "-110.9465853", "latitude": "32.23567665", "phone": "5203251702", "website_url": "http://www.1702az.com", "state": "Arizona", "street": "1702 E Speedway Blvd"}, {"id": "9097584b-ecb6-4f1a-b2b7-1b38123eb478", "name": "The Ale Apothecary", "brewery_type": "micro", "address_1": "30 SW Century Drive Suite 140", "address_2": null, "address_3": null, "city": "Bend", "state_province": "Oregon", "postal_code": "97702", "country": "United States", "longitude": "-121.3314277", "latitude": "44.05140622", "phone": "5414081525", "website_url": "http://www.thealeapothecary.com", "state": "Oregon", "street": "30 SW Century Drive Suite 140"}, {"id": "65a3a0bc-ba55-4e9b-930d-dd98eeea3f3d", "name": "The Alementary", "brewery_type": "micro", "address_1": "58 Voorhis Ln", "address_2": null, "address_3": null, "city": "Hackensack", "state_province": "New Jersey", "postal_code": "07601-4820", "country": "United States", "longitude": "-74.0400401", "latitude": "40.90460655", "phone": "2019681290", "website_url": "http://www.alementary.com", "state": "New Jersey", "street": "58 Voorhis Ln"}, {"id": "ffe46b43-ebe3-4102-a3d2-4110fe1752a7", "name": "The Amelia Tavern", "brewery_type": "brewpub", "address_1": "318 Centre St", "address_2": null, "address_3": null, "city": "Fernandina Beach", "state_province": "Florida", "postal_code": "32034-4241", "country": "United States", "longitude": "-81.46236272", "latitude": "30.67106045", "phone": "9043106088", "website_url": "http://www.TheAmeliaTavern.com", "state": "Florida", "street": "318 Centre St"}, {"id": "e7c79215-daf5-46b7-8013-2e1088496ee8", "name": "The Angry Swede Brewing Company", "brewery_type": "micro", "address_1": "513 Francis St", "address_2": null, "address_3": null, "city": "St Joseph", "state_province": "Missouri", "postal_code": "64501", "country": "United States", "longitude": "-94.867977", "latitude": "39.808641", "phone": "8166174038", "website_url": null, "state": "Missouri", "street": "513 Francis St"}, {"id": "0bd870c5-c24f-4d98-8bfc-795c17ebfeb0", "name": "The Answer Brewpub", "brewery_type": "brewpub", "address_1": "6008 W Broad St", "address_2": null, "address_3": null, "city": "Richmond", "state_province": "Virginia", "postal_code": "23230-2222", "country": "United States", "longitude": "-77.5070979", "latitude": "37.5931962", "phone": "8042821248", "website_url": "http://www.theanswerbrewpub.com", "state": "Virginia", "street": "6008 W Broad St"}, {"id": "89edb92f-550b-4b68-a503-b583d3dcba8f", "name": "The Austin Beer Garden Brewing Co", "brewery_type": "brewpub", "address_1": "1305 W Oltorf St Ste B", "address_2": null, "address_3": null, "city": "Austin", "state_province": "Texas", "postal_code": "78704-5362", "country": "United States", "longitude": null, "latitude": null, "phone": null, "website_url": null, "state": "Texas", "street": "1305 W Oltorf St Ste B"}, {"id": "f0c74a4a-7f80-4b93-b6c8-6b261c30e222", "name": "The Bakers' Brewery", "brewery_type": "brewpub", "address_1": "531 Silverthorne Ln", "address_2": null, "address_3": null, "city": "Silverthorne", "state_province": "Colorado", "postal_code": "80498", "country": "United States", "longitude": "-106.0672002", "latitude": "39.62976193", "phone": "9704680170", "website_url": "http://www.thebakersbrewery.com", "state": "Colorado", "street": "531 Silverthorne Ln"}, {"id": "f4fecb5f-3385-48ae-947c-d4296389bc96", "name": "The Barley House Brewing Company LLC", "brewery_type": "brewpub", "address_1": "8399 Sharon Mercer Rd", "address_2": null, "address_3": null, "city": "Mercer", "state_province": "Pennsylvania", "postal_code": "16137", "country": "United States", "longitude": "-80.265315", "latitude": "41.225933", "phone": "7242697837", "website_url": "http://www.barleyhousebrewing.com", "state": "Pennsylvania", "street": "8399 Sharon Mercer Rd"}, {"id": "27853f3a-ed0f-48d9-bce7-4bc73989d658", "name": "The Beak Brewery Limited", "brewery_type": "taproom", "address_1": "South Street", "address_2": null, "address_3": null, "city": "Lewes", "state_province": "East Sussex", "postal_code": "BN8 6JL", "country": "England", "longitude": "0.024917", "latitude": "50.868313", "phone": "1273473094", "website_url": "https://beakbrewery.com/", "state": "East Sussex", "street": "South Street"}, {"id": "c78c54d8-ef9a-417c-838e-548e5a4d0f4f", "name": "The Bear And Peacock", "brewery_type": "micro", "address_1": "1288 Orange Ave", "address_2": null, "address_3": null, "city": "Winter Park", "state_province": "Florida", "postal_code": "32789-4940", "country": "United States", "longitude": "-81.3566559", "latitude": "28.5929429", "phone": "4078012714", "website_url": "http://www.thebearandpeacock.com", "state": "Florida", "street": "1288 Orange Ave"}, {"id": "501931a5-0055-452f-b2a4-c1d8ec9c9a17", "name": "The Beer Diviner", "brewery_type": "micro", "address_1": "243 Bly Hollow Rd", "address_2": null, "address_3": null, "city": "Petersburg", "state_province": "New York", "postal_code": "12040", "country": "United States", "longitude": null, "latitude": null, "phone": "5182106196", "website_url": "http://www.thebeerdiviner.com", "state": "New York", "street": "243 Bly Hollow Rd"}, {"id": "a2515bf8-f823-45a8-a3b3-eb94815218ee", "name": "The Beer'd Brewing Company", "brewery_type": "micro", "address_1": "22 Bayview Ave Ste 15", "address_2": null, "address_3": null, "city": "Stonington", "state_province": "Connecticut", "postal_code": "06378-1143", "country": "United States", "longitude": null, "latitude": null, "phone": "8602139307", "website_url": "http://www.beerdbrewing.com", "state": "Connecticut", "street": "22 Bayview Ave Ste 15"}, {"id": "a31979ec-6440-4be9-bfdc-1d274c5e8cee", "name": "The Bell Marker", "brewery_type": "brewpub", "address_1": "602 Broadway Ste 101", "address_2": null, "address_3": null, "city": "San Diego", "state_province": "California", "postal_code": "92101-5449", "country": "United States", "longitude": "-117.0763473", "latitude": "32.597261", "phone": null, "website_url": "http://www.thebellmarker.com", "state": "California", "street": "602 Broadway Ste 101"}, {"id": "5cd9906b-f553-4313-b5fb-32b307bbb820", "name": "The Berghoff Brewery Inc.", "brewery_type": "contract", "address_1": "1730 W Superior St Apt 3W", "address_2": null, "address_3": null, "city": "Chicago", "state_province": "Illinois", "postal_code": "60622-5639", "country": "United States", "longitude": null, "latitude": null, "phone": "6083584992", "website_url": "http://www.berghoffbeer.com", "state": "Illinois", "street": "1730 W Superior St Apt 3W"}, {"id": "0ba3f3ba-fd0d-4328-8932-664701461504", "name": "The Berghoff Restaurant", "brewery_type": "planning", "address_1": null, "address_2": null, "address_3": null, "city": "Chicago", "state_province": "Illinois", "postal_code": "60603-5502", "country": "United States", "longitude": null, "latitude": null, "phone": "3126176283", "website_url": "http://www.berghoff.com", "state": "Illinois", "street": null}, {"id": "85bbe1ad-ae05-4487-919e-59a15370ffa9", "name": "The Best Of Hands Barrelhouse", "brewery_type": "planning", "address_1": null, "address_2": null, "address_3": null, "city": "Seattle", "state_province": "Washington", "postal_code": "98126-3228", "country": "United States", "longitude": null, "latitude": null, "phone": "2063352739", "website_url": "http://www.bestofhandsbarrelhouse.com", "state": "Washington", "street": null}, {"id": "494f6cf6-7e51-4087-8abe-fcf6960d8025", "name": "The Black Abbey Brewing Company", "brewery_type": "micro", "address_1": "2952 Sidco Dr Ste 211", "address_2": null, "address_3": null, "city": "Nashville", "state_province": "Tennessee", "postal_code": "37204-3710", "country": "United States", "longitude": "-86.755903", "latitude": "36.10481686", "phone": "6157550070", "website_url": "http://www.blackabbeybrewing.com", "state": "Tennessee", "street": "2952 Sidco Dr Ste 211"}, {"id": "59cfe7a7-cbc9-416b-a54e-fdae2591266b", "name": "The Blue Grasshopper Brew Pub", "brewery_type": "brewpub", "address_1": "4500 Arrowhead Ridge Dr SE", "address_2": null, "address_3": null, "city": "Rio Rancho", "state_province": "New Mexico", "postal_code": "87124-5986", "country": "United States", "longitude": "-106.648789", "latitude": "35.254421", "phone": "5058968579", "website_url": "http://www.bghnm.com", "state": "New Mexico", "street": "4500 Arrowhead Ridge Dr SE"}, {"id": "3141c2ff-c808-4ef7-a8bf-77abe27fda02", "name": "The Blue Heron Brewery", "brewery_type": "planning", "address_1": null, "address_2": null, "address_3": null, "city": "Hinckley", "state_province": "Ohio", "postal_code": "44233", "country": "United States", "longitude": null, "latitude": null, "phone": null, "website_url": "http://www.bookblueheron.com", "state": "Ohio", "street": null}, {"id": "6bbcccba-e7c3-45f4-9ce1-26adf05b50d5", "name": "The Blue Onion Brewpub", "brewery_type": "brewpub", "address_1": "423 S International Blvd", "address_2": null, "address_3": null, "city": "Weslaco", "state_province": "Texas", "postal_code": "78596-9114", "country": "United States", "longitude": null, "latitude": null, "phone": "9564470067", "website_url": "http://www.myblueonion.com", "state": "Texas", "street": "423 S International Blvd"}, {"id": "0362e61c-eec8-4420-8c1a-406131162923", "name": "The Blue Poppy Brewery", "brewery_type": "planning", "address_1": null, "address_2": null, "address_3": null, "city": "Yorba Linda", "state_province": "California", "postal_code": "92886-7300", "country": "United States", "longitude": "-117.8249705", "latitude": "33.8901096", "phone": null, "website_url": null, "state": "California", "street": null}, {"id": "491c8c8d-594c-4b82-b3bc-2caab02068a4", "name": "The Boathouse Beer Co and Boozery", "brewery_type": "brewpub", "address_1": "450 W Lake St", "address_2": null, "address_3": null, "city": "Tawas City", "state_province": "Michigan", "postal_code": "48763-8320", "country": "United States", "longitude": "-83.5169024", "latitude": "44.26826378", "phone": "9899845233", "website_url": "http://www.boathousebeerco.com", "state": "Michigan", "street": "450 W Lake St"}, {"id": "14bbd16f-2874-46d2-8762-6bbde9003183", "name": "The Boiler Room Brewhaus LLC", "brewery_type": "micro", "address_1": "10 S National Ave", "address_2": null, "address_3": null, "city": "Fort Scott", "state_province": "Kansas", "postal_code": "66701-1311", "country": "United States", "longitude": "-94.70741825", "latitude": "37.84103842", "phone": "6202232702", "website_url": "http://www.Boileroombrewhaus.com", "state": "Kansas", "street": "10 S National Ave"}, {"id": "27313516-7956-4f46-88cb-c87317331608", "name": "The Bold Mariner Brewing Company", "brewery_type": "micro", "address_1": "2409 Bowdens Ferry Rd", "address_2": null, "address_3": null, "city": "Norfolk", "state_province": "Virginia", "postal_code": "23508-2450", "country": "United States", "longitude": "-76.30542793", "latitude": "36.87609575", "phone": null, "website_url": "http://www.boldmariner.com", "state": "Virginia", "street": "2409 Bowdens Ferry Rd"}, {"id": "eb167d69-3606-463a-bb33-99ac50f94bbf", "name": "The Booth Brewing Co.", "brewery_type": "micro", "address_1": "123 W 3rd St", "address_2": null, "address_3": null, "city": "Eureka", "state_province": "California", "postal_code": "95501-0222", "country": "United States", "longitude": "-124.1743072", "latitude": "40.80226985", "phone": "7075725728", "website_url": "http://www.theboothbrewing.com", "state": "California", "street": "123 W 3rd St"}, {"id": "609ff65b-c360-4866-be7c-8ae0f56dc818", "name": "The BottleHouse Brewery And Meadery", "brewery_type": "micro", "address_1": "2050 Lee Rd", "address_2": null, "address_3": null, "city": "Cleveland Heights", "state_province": "Ohio", "postal_code": "44118-2557", "country": "United States", "longitude": "-81.5658351", "latitude": "41.503726", "phone": "2162142120", "website_url": "http://www.thebottlehousebrewingcompany.com", "state": "Ohio", "street": "2050 Lee Rd"}, {"id": "0d0e109d-9d2b-4ada-b823-00026df3a5e8", "name": "The Brew Brothers / Scioto Downs Racino", "brewery_type": "brewpub", "address_1": "6000 S. High Street", "address_2": null, "address_3": null, "city": "Columbus", "state_province": "Ohio", "postal_code": "43207", "country": "United States", "longitude": "-82.995426", "latitude": "39.922819", "phone": "614-295-4675", "website_url": "https://www.sciotodowns.com/venue/restaurants/brew-brothers?utm_source=gmb&utm_medium=brew%20brothers", "state": "Ohio", "street": "6000 S. High Street"}, {"id": "021d289b-c290-4792-a688-633c2fcbe626", "name": "The Brew Brothers/Eldorado Hotel and Casino", "brewery_type": "brewpub", "address_1": "345 N Virginia St", "address_2": null, "address_3": null, "city": "Reno", "state_province": "Nevada", "postal_code": "89501-1136", "country": "United States", "longitude": "-119.8164176", "latitude": "39.5367577", "phone": "7757865700", "website_url": "http://www.eldoradoresorts.com", "state": "Nevada", "street": "345 N Virginia St"}, {"id": "b40519e8-a25b-4443-828f-8082a3a31ba3", "name": "The Brew Kettle, Taproom and Smokehouse", "brewery_type": "brewpub", "address_1": "8377 Pearl Rd", "address_2": null, "address_3": null, "city": "Strongsville", "state_province": "Ohio", "postal_code": "44136-1637", "country": "United States", "longitude": "-81.8224061", "latitude": "41.3471323", "phone": "4402398788", "website_url": "http://www.thebrewkettle.com", "state": "Ohio", "street": "8377 Pearl Rd"}, {"id": "a38fc148-8e8e-4e22-84d2-d67be494a013", "name": "The Brew Mentor", "brewery_type": "micro", "address_1": "9528 Diamond Centre Dr", "address_2": null, "address_3": null, "city": "Mentor", "state_province": "Ohio", "postal_code": "44060-1876", "country": "United States", "longitude": "-81.30001012", "latitude": "41.71468462", "phone": "4409512739", "website_url": "http://www.thebrewmentor.com", "state": "Ohio", "street": "9528 Diamond Centre Dr"}, {"id": "1ab10b5b-580b-489d-bd88-30680ab16001", "name": "The Brew On Broadway (The BoB)", "brewery_type": "micro", "address_1": "3445 S Broadway", "address_2": null, "address_3": null, "city": "Englewood", "state_province": "Colorado", "postal_code": "80113-2528", "country": "United States", "longitude": "-104.98772", "latitude": "39.65416792", "phone": "3037815665", "website_url": "http://www.thebrewonbroadway.com", "state": "Colorado", "street": "3445 S Broadway"}, {"id": "f81bd42b-4d02-42e4-b298-4329ff834d6e", "name": "The Brewer's Art / Old Line Brewery LLC", "brewery_type": "brewpub", "address_1": "1106 N Charles St", "address_2": null, "address_3": null, "city": "Baltimore", "state_province": "Maryland", "postal_code": "21201-5557", "country": "United States", "longitude": "-76.6146068", "latitude": "39.303716", "phone": null, "website_url": "http://www.thebrewersart.com", "state": "Maryland", "street": "1106 N Charles St"}, {"id": "80d67009-9e36-46d8-ae11-c35fb9842c0d", "name": "The Brewer's Cabinet", "brewery_type": "micro", "address_1": "475 S Arlington Ave Ste 1C", "address_2": null, "address_3": null, "city": "Reno", "state_province": "Nevada", "postal_code": "89501-2099", "country": "United States", "longitude": null, "latitude": null, "phone": "7753487481", "website_url": "http://www.thebrewerscabinet.com", "state": "Nevada", "street": "475 S Arlington Ave Ste 1C"}, {"id": "3e4ab49b-b18d-4c12-bbe7-81c213b4b44f", "name": "The Brewer's Table", "brewery_type": "micro", "address_1": "4715 E 5th St", "address_2": null, "address_3": null, "city": "Austin", "state_province": "Texas", "postal_code": "78702-5033", "country": "United States", "longitude": "-97.7043433", "latitude": "30.2529441", "phone": "5126199569", "website_url": "http://www.caskandcoal.com", "state": "Texas", "street": "4715 E 5th St"}, {"id": "c3c643f4-c7a0-4fbc-9e53-952dbecb228e", "name": "The Brewers Collective", "brewery_type": "micro", "address_1": "1460 N Clinton Ave Unit N", "address_2": null, "address_3": null, "city": "Bay Shore", "state_province": "New York", "postal_code": "11706-4058", "country": "United States", "longitude": null, "latitude": null, "phone": "6316659000", "website_url": "http://www.thebrewerscollective.com", "state": "New York", "street": "1460 N Clinton Ave Unit N"}, {"id": "2f42fff6-ff5f-43e8-8f2b-f4d1a5d99d00", "name": "The Brewers of Nye Hill Farm", "brewery_type": "micro", "address_1": "250 Middletown Rd", "address_2": null, "address_3": null, "city": "Keene", "state_province": "New Hampshire", "postal_code": "03431-8705", "country": "United States", "longitude": null, "latitude": null, "phone": null, "website_url": null, "state": "New Hampshire", "street": "250 Middletown Rd"}, {"id": "362dfc1d-37c8-414e-8a10-4908793c8b28", "name": "The Brewery At Bacchus", "brewery_type": "brewpub", "address_1": "4 S Chestnut St", "address_2": null, "address_3": null, "city": "New Paltz", "state_province": "New York", "postal_code": "12561-1902", "country": "United States", "longitude": "-74.0867508", "latitude": "41.7472558", "phone": "8452558636", "website_url": "http://www.bacchusnewpaltz.com", "state": "New York", "street": "4 S Chestnut St"}, {"id": "819a5d53-05f9-4356-9ff0-0dbe579b1910", "name": "The Brewery At Hershey", "brewery_type": "micro", "address_1": "598 Schoolhouse Rd", "address_2": null, "address_3": null, "city": "Middletown", "state_province": "Pennsylvania", "postal_code": "17057-4029", "country": "United States", "longitude": null, "latitude": null, "phone": "7179441569", "website_url": "http://www.vineyardathershey.com", "state": "Pennsylvania", "street": "598 Schoolhouse Rd"}, {"id": "82867821-92a6-473b-95b6-027fa9fd1a36", "name": "The Brewery B\u00c3\u00b6ser Geist Brewing Co., LLC", "brewery_type": "micro", "address_1": "1250 Simon Blvd Unit K100", "address_2": null, "address_3": null, "city": "Easton", "state_province": "Pennsylvania", "postal_code": "18042-1474", "country": "United States", "longitude": null, "latitude": null, "phone": "4842938005", "website_url": null, "state": "Pennsylvania", "street": "1250 Simon Blvd Unit K100"}, {"id": "a5b2f288-bb2b-40c1-a64c-2294f3826b01", "name": "The Brewery LBK", "brewery_type": "brewpub", "address_1": "1204 Broadway #104", "address_2": null, "address_3": null, "city": "Lubbock", "state_province": "Texas", "postal_code": "79401", "country": "United States", "longitude": null, "latitude": null, "phone": "8069939378", "website_url": "http://www.thebrewerylbk.com", "state": "Texas", "street": "1204 Broadway #104"}, {"id": "672c1658-8b3c-4810-93ed-456aecf76845", "name": "The Brewery of Broken Dreams", "brewery_type": "micro", "address_1": "8319 Pleasant Valley Rd", "address_2": null, "address_3": null, "city": "Hammondsport", "state_province": "New York", "postal_code": "14840-9549", "country": "United States", "longitude": null, "latitude": null, "phone": "6072244050", "website_url": "http://www.thebreweryofbrokendreams.com", "state": "New York", "street": "8319 Pleasant Valley Rd"}, {"id": "b887c0e4-e2d9-47ad-973a-3953303f959f", "name": "The Brewhouse", "brewery_type": "brewpub", "address_1": "229 W Montecito St", "address_2": null, "address_3": null, "city": "Santa Barbara", "state_province": "California", "postal_code": "93101-3824", "country": "United States", "longitude": "-119.6954247", "latitude": "34.41245574", "phone": "8059632739", "website_url": "http://www.brewhousesb.com", "state": "California", "street": "229 W Montecito St"}, {"id": "da8e968d-6500-4045-b090-e41648db457d", "name": "The Brewing Lair", "brewery_type": "micro", "address_1": "67007 CA Hwy 70", "address_2": null, "address_3": null, "city": "Blairsden", "state_province": "California", "postal_code": "96103-1651", "country": "United States", "longitude": "-120.6140437", "latitude": "39.78456595", "phone": "5303940940", "website_url": "http://www.thebrewinglair.com", "state": "California", "street": "67007 CA Hwy 70"}, {"id": "7bdcbe2a-d562-4fb6-b427-fc0768b5a4c9", "name": "The Brewing Projekt", "brewery_type": "micro", "address_1": "1807 N Oxford Ave", "address_2": null, "address_3": null, "city": "Eau Claire", "state_province": "Wisconsin", "postal_code": "54703-5187", "country": "United States", "longitude": "-91.50950908", "latitude": "44.81894024", "phone": "7154562486", "website_url": "http://www.thebrewingprojekt.com", "state": "Wisconsin", "street": "1807 N Oxford Ave"}, {"id": "dcea5b62-4138-4d5e-8789-0cfbf48bb21d", "name": "The Brewtorium", "brewery_type": "brewpub", "address_1": "6015 Dillard Cir Ste A", "address_2": null, "address_3": null, "city": "Austin", "state_province": "Texas", "postal_code": "78752-4440", "country": "United States", "longitude": null, "latitude": null, "phone": "5125240323", "website_url": "http://www.thebrewtorium.com", "state": "Texas", "street": "6015 Dillard Cir Ste A"}, {"id": "50530753-54b2-41d2-9d48-cab429a76c7c", "name": "The Brick Oven Brewpub", "brewery_type": "brewpub", "address_1": "604 Canton Rd", "address_2": null, "address_3": null, "city": "Akron", "state_province": "Ohio", "postal_code": "44312-2513", "country": "United States", "longitude": "-81.43734194", "latitude": "41.04719534", "phone": "3304757005", "website_url": "http://www.thebrickovenbrewpub.com", "state": "Ohio", "street": "604 Canton Rd"}, {"id": "8b52964c-3c8f-4dbf-a85a-362a3d46f947", "name": "The Bronx Brewery", "brewery_type": "micro", "address_1": "856 E 136th St", "address_2": null, "address_3": null, "city": "Bronx", "state_province": "New York", "postal_code": "10454-3509", "country": "United States", "longitude": "-73.91064054", "latitude": "40.801861", "phone": "7184021000", "website_url": "http://www.thebronxbrewery.com", "state": "New York", "street": "856 E 136th St"}, {"id": "903035db-879f-49a4-b67a-87a96ffb8f14", "name": "The Bunkhouse Brewery", "brewery_type": "micro", "address_1": "1216 W Lincoln St Ste A", "address_2": null, "address_3": null, "city": "Bozeman", "state_province": "Montana", "postal_code": "59715-5417", "country": "United States", "longitude": null, "latitude": null, "phone": "4065772074", "website_url": "http://www.bunkhousebrewery.com", "state": "Montana", "street": "1216 W Lincoln St Ste A"}, {"id": "18ac6fc1-dc25-49ba-b4a3-63d8139270af", "name": "The Cleveland Brewery", "brewery_type": "micro", "address_1": "777 E 185th St", "address_2": null, "address_3": null, "city": "Cleveland", "state_province": "Ohio", "postal_code": "44119-2170", "country": "United States", "longitude": "-81.549766", "latitude": "41.586428", "phone": "2165346992", "website_url": "http://Www.facebook.com/216brew", "state": "Ohio", "street": "777 E 185th St"}, {"id": "6700cd5c-5360-4455-9fec-da2092e85b27", "name": "The Collective Brewing Project", "brewery_type": "micro", "address_1": "112 Saint Louis Ave", "address_2": null, "address_3": null, "city": "Fort Worth", "state_province": "Texas", "postal_code": "76104-1228", "country": "United States", "longitude": "-97.32879227", "latitude": "32.74352324", "phone": null, "website_url": null, "state": "Texas", "street": "112 Saint Louis Ave"}, {"id": "a3307ec6-4c65-49fb-85e2-8fc48bd2b95c", "name": "The Common Beer Company", "brewery_type": "planning", "address_1": null, "address_2": null, "address_3": null, "city": "Mason", "state_province": "Ohio", "postal_code": "45040", "country": "United States", "longitude": null, "latitude": null, "phone": "5136580170", "website_url": "https://commonbeercompany.com/", "state": "Ohio", "street": null}, {"id": "292d1371-649e-4412-b2c5-8b9eeaf71cb3", "name": "The Courtyard Brewery", "brewery_type": "micro", "address_1": "1020 Erato St", "address_2": null, "address_3": null, "city": "New Orleans", "state_province": "Louisiana", "postal_code": "70130-4112", "country": "United States", "longitude": "-90.07054452", "latitude": "29.9387632", "phone": null, "website_url": "http://www.courtyardbrew.com", "state": "Louisiana", "street": "1020 Erato St"}, {"id": "3bc1f7aa-5b64-4398-9e78-d8b4158dcd3b", "name": "The Craft Of Brewing", "brewery_type": "micro", "address_1": "21140 Ashburn Crossing Drive, Suite 170", "address_2": null, "address_3": null, "city": "Ashburn", "state_province": "Virginia", "postal_code": "20147", "country": "United States", "longitude": null, "latitude": null, "phone": "7036873932", "website_url": "http://www.thecraftob.com", "state": "Virginia", "street": "21140 Ashburn Crossing Drive, Suite 170"}, {"id": "456665eb-9672-4143-bdc5-d93b36286b60", "name": "The Crafter Space", "brewery_type": "contract", "address_1": "1550 N Warren Ave Apt 114", "address_2": null, "address_3": null, "city": "Milwaukee", "state_province": "Wisconsin", "postal_code": "53202-2298", "country": "United States", "longitude": null, "latitude": null, "phone": "4144188888", "website_url": "http://www.thecrafterspace.com", "state": "Wisconsin", "street": "1550 N Warren Ave Apt 114"}, {"id": "9be11eab-ae69-429a-abc0-39489d6500a0", "name": "The Crossings Restaurant and Brewpub", "brewery_type": "brewpub", "address_1": "45 Main St", "address_2": null, "address_3": null, "city": "Putnam", "state_province": "Connecticut", "postal_code": "06260-1917", "country": "United States", "longitude": "-71.9081681", "latitude": "41.9144568", "phone": "8609283663", "website_url": "http://www.thecrossingsbrewpub.com", "state": "Connecticut", "street": "45 Main St"}, {"id": "7a1e5180-8345-42e8-a691-259e477be6a4", "name": "The Dancing Fox", "brewery_type": "brewpub", "address_1": "203 S School St", "address_2": null, "address_3": null, "city": "Lodi", "state_province": "California", "postal_code": "95240-3511", "country": "United States", "longitude": "-121.3878496", "latitude": "38.097198", "phone": "2093662634", "website_url": "http://www.dancingfoxwinery.com", "state": "California", "street": "203 S School St"}, {"id": "5963489b-f01b-4c19-8182-9cbf59185b34", "name": "The Depot Craft Brewery Distillery", "brewery_type": "brewpub", "address_1": "325 E 4th St", "address_2": null, "address_3": null, "city": "Reno", "state_province": "Nevada", "postal_code": "89512-3313", "country": "United States", "longitude": "-119.809561", "latitude": "39.53112425", "phone": "7757374330", "website_url": "http://www.thedepotreno.com", "state": "Nevada", "street": "325 E 4th St"}, {"id": "ad43dd25-02a6-4196-b268-afb686787e37", "name": "The Distant Whistle Brewhouse", "brewery_type": "micro", "address_1": "118 S Main St", "address_2": null, "address_3": null, "city": "Vicksburg", "state_province": "Michigan", "postal_code": "49097-1289", "country": "United States", "longitude": "-85.53248776", "latitude": "42.11909502", "phone": "2693707549", "website_url": "http://www.distantwhistle.com", "state": "Michigan", "street": "118 S Main St"}, {"id": "8db55e6b-421c-4881-a5fc-8f016dad9c5f", "name": "The Downlands Brewery", "brewery_type": "micro", "address_1": "Henfield Road", "address_2": null, "address_3": null, "city": "Shoreham-by-Sea", "state_province": "West Sussex", "postal_code": "BN5 9XR", "country": "England", "longitude": "-0.272849", "latitude": "50.899278", "phone": "1273495596", "website_url": "http://www.downlandsbrewery.com/", "state": "West Sussex", "street": "Henfield Road"}, {"id": "74fbfde8-1486-4bb9-b7c9-7f4b27f32b27", "name": "The Dreamchaser's Brewery", "brewery_type": "micro", "address_1": "115 E North Main St", "address_2": null, "address_3": null, "city": "Waxhaw", "state_province": "North Carolina", "postal_code": "28173-6029", "country": "United States", "longitude": "-80.74349914", "latitude": "34.92524057", "phone": "7048437326", "website_url": "http://www.dreamchasersbrewery.com", "state": "North Carolina", "street": "115 E North Main St"}, {"id": "1cfb29de-b3b9-4814-a0c6-09ef223e9702", "name": "The Engineer Brewery", "brewery_type": "micro", "address_1": "Burnt Oak Road", "address_2": null, "address_3": null, "city": "Uckfield", "state_province": "East Sussex", "postal_code": "TN22 4AE", "country": "England", "longitude": "0.135118", "latitude": "51.019254", "phone": "7841669096", "website_url": "http://theengineerbrewery.co.uk/", "state": "East Sussex", "street": "Burnt Oak Road"}, {"id": "7be712d0-50c7-471a-b289-3f0fc999a7c4", "name": "The Explorium Brewpub", "brewery_type": "brewpub", "address_1": "5300 S 76th St Unit 1450A", "address_2": null, "address_3": null, "city": "Greendale", "state_province": "Wisconsin", "postal_code": "53129-1102", "country": "United States", "longitude": null, "latitude": null, "phone": "4145537702", "website_url": "http://exploriumbrew.com", "state": "Wisconsin", "street": "5300 S 76th St Unit 1450A"}, {"id": "bd598dba-c81d-48ce-b166-e0fd9d255ef1", "name": "The Farm Brewery At Broad Run", "brewery_type": "micro", "address_1": "16015 John Marshall Hwy", "address_2": null, "address_3": null, "city": "Broad Run", "state_province": "Virginia", "postal_code": "20137-2250", "country": "United States", "longitude": null, "latitude": null, "phone": "7037533548", "website_url": "http://www.thefarmatbroadrun.com", "state": "Virginia", "street": "16015 John Marshall Hwy"}, {"id": "d2495538-5a9c-465e-b6ff-54a3959c44bd", "name": "The FarmHouse Brewery", "brewery_type": "micro", "address_1": "14 George St", "address_2": null, "address_3": null, "city": "Owego", "state_province": "New York", "postal_code": "13827-1084", "country": "United States", "longitude": "-76.26950941", "latitude": "42.11123746", "phone": "6072272676", "website_url": "http://www.thefarmhousebrewery.com", "state": "New York", "street": "14 George St"}, {"id": "e019cd27-ea77-40a7-a8a8-a95fc86b284d", "name": "The Fat Cat Beer Co", "brewery_type": "contract", "address_1": "7979 Ivanhoe Ave Ste 555", "address_2": null, "address_3": null, "city": "La Jolla", "state_province": "California", "postal_code": "92037-4570", "country": "United States", "longitude": "-117.272443", "latitude": "32.84869008", "phone": null, "website_url": "http://www.fatcatbeers.com", "state": "California", "street": "7979 Ivanhoe Ave Ste 555"}, {"id": "109e48c5-be0e-48f6-a017-4269bf6f51c2", "name": "The Federal Brewing Company", "brewery_type": "micro", "address_1": "102 S Main St", "address_2": null, "address_3": null, "city": "Federalsburg", "state_province": "Maryland", "postal_code": "21632-1215", "country": "United States", "longitude": "-75.77333325", "latitude": "38.69360488", "phone": null, "website_url": "http://www.fedbrew.com", "state": "Maryland", "street": "102 S Main St"}, {"id": "c368a4c0-8cf7-4bfb-9f64-257afa2bc416", "name": "The Feinics Company, Inc.", "brewery_type": "planning", "address_1": null, "address_2": null, "address_3": null, "city": "Pollock Pines", "state_province": "California", "postal_code": "95726-9751", "country": "United States", "longitude": "-120.5776645", "latitude": "38.7497125", "phone": "9163003049", "website_url": null, "state": "California", "street": null}, {"id": "85d23a93-4a1d-4d11-9d34-9789de79e400", "name": "The Fermentorium", "brewery_type": "brewpub", "address_1": "7481 Hwy 60", "address_2": null, "address_3": null, "city": "Cedarburg", "state_province": "Wisconsin", "postal_code": "53012-9702", "country": "United States", "longitude": null, "latitude": null, "phone": null, "website_url": null, "state": "Wisconsin", "street": "7481 Hwy 60"}, {"id": "2d83cc3f-3967-41ae-a3b9-7cd75c40edc3", "name": "The Filling Station Microbrewery", "brewery_type": "micro", "address_1": "642 Railroad Pl", "address_2": null, "address_3": null, "city": "Traverse City", "state_province": "Michigan", "postal_code": "49686-3633", "country": "United States", "longitude": "-85.609476", "latitude": "44.7580963", "phone": "2319468168", "website_url": "http://www.thefillingstationmicrobrewery.com", "state": "Michigan", "street": "642 Railroad Pl"}, {"id": "5ed2480b-7aeb-4218-97f7-17fa1294e0f6", "name": "The FILO Brewing Co Ltd", "brewery_type": "micro", "address_1": "Old London Road", "address_2": null, "address_3": null, "city": "Hastings", "state_province": "East Sussex", "postal_code": "TN34 3HA", "country": "England", "longitude": "0.596217", "latitude": "50.860814", "phone": "1424420212", "website_url": "http://www.filobrewing.co.uk/", "state": "East Sussex", "street": "Old London Road"}, {"id": "b8428a9b-a712-4d05-8c6c-c585b4125371", "name": "The Florida Brewery", "brewery_type": "regional", "address_1": "202 Gandy Rd", "address_2": null, "address_3": null, "city": "Auburndale", "state_province": "Florida", "postal_code": "33823-2726", "country": "United States", "longitude": null, "latitude": null, "phone": "8639651825", "website_url": "http://www.floridabrewery.com", "state": "Florida", "street": "202 Gandy Rd"}, {"id": "e453ccc9-949f-4194-9257-05b54018e698", "name": "The Food Works", "brewery_type": "planning", "address_1": null, "address_2": null, "address_3": null, "city": "Brooklyn", "state_province": "New York", "postal_code": "11206", "country": "United States", "longitude": null, "latitude": null, "phone": "6178512133", "website_url": "http://www.thefoodworks.com", "state": "New York", "street": null}, {"id": "70f0eb6a-e379-461c-bd9b-b05edf10af98", "name": "The Fox Brewpub", "brewery_type": "brewpub", "address_1": "310 S Carson St", "address_2": null, "address_3": null, "city": "Carson City", "state_province": "Nevada", "postal_code": "89701-4754", "country": "United States", "longitude": "-119.7708155", "latitude": "39.1269616", "phone": "7758831369", "website_url": "http://www.foxbrewpub.com", "state": "Nevada", "street": "310 S Carson St"}, {"id": "e2fde1d1-117d-4d92-8e0d-ad638d9d8152", "name": "The Franciscan Well Brewery", "brewery_type": "regional", "address_1": "Riverpark House", "address_2": "Marina Commercial Park", "address_3": "Centre Park Rd", "city": "Cork", "state_province": "Cork", "postal_code": "T12 HW3W", "country": "Ireland", "longitude": "-8.4755419", "latitude": "51.9005854", "phone": "+353 1 629 4101", "website_url": "http://www.franciscanwellbrewery.com/en/index", "state": "Cork", "street": "Riverpark House"}, {"id": "65db24ef-49b5-4099-941f-cd0c4ea1b425", "name": "The Freehouse", "brewery_type": "brewpub", "address_1": "701 Washington Ave N Ste 101", "address_2": null, "address_3": null, "city": "Minneapolis", "state_province": "Minnesota", "postal_code": "55401-2820", "country": "United States", "longitude": null, "latitude": null, "phone": "6123397011", "website_url": "http://www.freehousempls.com", "state": "Minnesota", "street": "701 Washington Ave N Ste 101"}, {"id": "6a79cd82-1833-4c70-ac8f-808dc79b6f7a", "name": "The Glass Jug", "brewery_type": "micro", "address_1": "5410 Nc Highway 55 Ste V", "address_2": null, "address_3": null, "city": "Durham", "state_province": "North Carolina", "postal_code": "27713-7802", "country": "United States", "longitude": null, "latitude": null, "phone": "9198186907", "website_url": "http://www.glass-jug.com", "state": "North Carolina", "street": "5410 Nc Highway 55 Ste V"}, {"id": "bb6b4099-eb69-44f4-bf01-199037dc1d1e", "name": "The Good Beer Company, Inc.", "brewery_type": "micro", "address_1": "309 W 4th St", "address_2": null, "address_3": null, "city": "Santa Ana", "state_province": "California", "postal_code": "92701-4502", "country": "United States", "longitude": "-117.8699581", "latitude": "33.74807823", "phone": "7147142988", "website_url": "http://www.thegoodbeerco.com", "state": "California", "street": "309 W 4th St"}, {"id": "ed927788-4e38-4875-9fcf-49cc2ca5410c", "name": "The Good Shepherds Brewing Co", "brewery_type": "micro", "address_1": "31 Loop Rd Ste 1", "address_2": null, "address_3": null, "city": "Auburn", "state_province": "New York", "postal_code": "13021-3823", "country": "United States", "longitude": null, "latitude": null, "phone": "3154066498", "website_url": "http://www.shepsbeer.com", "state": "New York", "street": "31 Loop Rd Ste 1"}, {"id": "7f026cf2-8653-4960-b505-6feb41506385", "name": "The Good Society", "brewery_type": "planning", "address_1": null, "address_2": null, "address_3": null, "city": "Seattle", "state_province": "Washington", "postal_code": "98136-2652", "country": "United States", "longitude": null, "latitude": null, "phone": null, "website_url": null, "state": "Washington", "street": null}, {"id": "8f03bd5e-8c09-43f3-b69b-f5e45f61e9db", "name": "The Grain Shed", "brewery_type": "brewpub", "address_1": "1026 E Newark Ave", "address_2": null, "address_3": null, "city": "Spokane", "state_province": "Washington", "postal_code": "99202", "country": "United States", "longitude": "-117.3948236", "latitude": "47.64927782", "phone": "5092413853", "website_url": "http://www.thegrainshed.coop", "state": "Washington", "street": "1026 E Newark Ave"}, {"id": "3ff96c05-f45e-4806-9a08-919b262c8385", "name": "The Grateful Gnome Sandwich Shoppe and Brewery", "brewery_type": "brewpub", "address_1": "4369 Stuart St", "address_2": null, "address_3": null, "city": "Denver", "state_province": "Colorado", "postal_code": "80212-2335", "country": "United States", "longitude": "-105.0432655", "latitude": "39.7764426", "phone": "7205986863", "website_url": "http://www.thegratefulgnome.com", "state": "Colorado", "street": "4369 Stuart St"}, {"id": "a079d8be-71e9-41b7-a139-5b08b2ccaeb4", "name": "The Gribble Brewery", "brewery_type": "brewpub", "address_1": "Gribble Lane", "address_2": null, "address_3": null, "city": "Chichester", "state_province": "West Sussex", "postal_code": "PO20 2BP", "country": "England", "longitude": "-0.723958", "latitude": "50.838143", "phone": "1243786893", "website_url": "http://gribbleinn.co.uk/", "state": "West Sussex", "street": "Gribble Lane"}, {"id": "e8090627-f973-4ff3-b23d-947bfa7228b1", "name": "The Guardian Brewing Company", "brewery_type": "micro", "address_1": "514 E Jackson Street", "address_2": null, "address_3": null, "city": "Muncie", "state_province": "Indiana", "postal_code": "47305", "country": "United States", "longitude": "-85.38148786", "latitude": "40.19281286", "phone": "7652738918", "website_url": "http://www.theguardianbrewingco.com", "state": "Indiana", "street": "514 E Jackson Street"}, {"id": "c4320b4a-ef3c-4700-8ce3-26cf9c624099", "name": "The Guild Brewing Co - Pawtucket Beer Hall", "brewery_type": "brewpub", "address_1": "461 Main St", "address_2": null, "address_3": null, "city": "Pawtucket", "state_province": "Rhode Island", "postal_code": "02860-2913", "country": "United States", "longitude": "-71.3890045", "latitude": "41.8767586", "phone": "4017241241", "website_url": "https://www.theguildpawtucket.com", "state": "Rhode Island", "street": "461 Main St"}, {"id": "c948fdb4-2d63-4bf2-9da8-0e0d37038136", "name": "The Guild Brewing Co - Warren", "brewery_type": "brewpub", "address_1": "99 Water St Ste2", "address_2": null, "address_3": null, "city": "Warren", "state_province": "Rhode Island", "postal_code": "02885", "country": "United States", "longitude": "-71.28731013", "latitude": "41.73399952", "phone": "4012524275", "website_url": "https://www.theguildwarren.com", "state": "Rhode Island", "street": "99 Water St Ste2"}, {"id": "79e9e59b-e943-4b3a-ab0b-a72501845feb", "name": "The Half Wall Brewery", "brewery_type": "brewpub", "address_1": "1887 SR 44", "address_2": null, "address_3": null, "city": "New Smyrna Beach", "state_province": "Florida", "postal_code": "32168", "country": "United States", "longitude": null, "latitude": null, "phone": "3864268410", "website_url": "http://www.halfwallbrewery.com", "state": "Florida", "street": "1887 SR 44"}, {"id": "40446a01-7d11-416b-9551-43903a30249e", "name": "The Harmony Inn", "brewery_type": "brewpub", "address_1": "230 Mercer St", "address_2": null, "address_3": null, "city": "Harmony", "state_province": "Pennsylvania", "postal_code": "16037-6812", "country": "United States", "longitude": "-80.12650213", "latitude": "40.8029435", "phone": null, "website_url": null, "state": "Pennsylvania", "street": "230 Mercer St"}, {"id": "46840bf5-a825-4e7e-ad18-e52039e9dac9", "name": "The Heavy Metal Brewing Co.", "brewery_type": "brewpub", "address_1": "809 Macarthur Blvd", "address_2": null, "address_3": null, "city": "Vancouver", "state_province": "Washington", "postal_code": "98661-7013", "country": "United States", "longitude": "-122.6171177", "latitude": "45.6275368", "phone": "3602581691", "website_url": "http://www.theheavymetalbrewingco.com", "state": "Washington", "street": "809 Macarthur Blvd"}, {"id": "c464fe8a-4d1f-4a15-822f-2276616d719c", "name": "The Hidden Mother Brewery", "brewery_type": "micro", "address_1": "412 W Sharp Ave", "address_2": null, "address_3": null, "city": "Spokane", "state_province": "Washington", "postal_code": "99201-2421", "country": "United States", "longitude": "-117.417792", "latitude": "47.669775", "phone": "5099193595", "website_url": "https://thehiddenmotherbrewery.com", "state": "Washington", "street": "412 W Sharp Ave"}, {"id": "fedd7659-93ad-477b-b1fd-114ea7286a0b", "name": "The Highway Brewing Co.", "brewery_type": "brewpub", "address_1": "209 W Houghton Ave", "address_2": null, "address_3": null, "city": "West Branch", "state_province": "Michigan", "postal_code": "48661-1219", "country": "United States", "longitude": "-84.23751651", "latitude": "44.27635208", "phone": "9897090716", "website_url": "http://www.highwaybrewingco.com", "state": "Michigan", "street": "209 W Houghton Ave"}, {"id": "dfa5640f-a31b-4bad-b1d9-3143e94c22ea", "name": "The Hold By Revelry Brewing", "brewery_type": "micro", "address_1": "36 Romney St", "address_2": null, "address_3": null, "city": "Charleston", "state_province": "South Carolina", "postal_code": "29403-3825", "country": "United States", "longitude": "-79.94569372", "latitude": "32.80761336", "phone": null, "website_url": "http://www.revelrybrewingco.com", "state": "South Carolina", "street": "36 Romney St"}, {"id": "3e3b3dea-1b7c-4306-b685-c1ba4b854d44", "name": "The Hop Brewery", "brewery_type": "brewpub", "address_1": "203 W Market St", "address_2": null, "address_3": null, "city": "Christopher", "state_province": "Illinois", "postal_code": "62822", "country": "United States", "longitude": "-89.05481692", "latitude": "37.97270012", "phone": "8667244677", "website_url": "http://www.thehopbrewery.com", "state": "Illinois", "street": "203 W Market St"}, {"id": "0f478977-9d95-4cf4-b296-2713196ec923", "name": "The Hop Haus", "brewery_type": "micro", "address_1": "2568 SW Orchard Ct", "address_2": null, "address_3": null, "city": "Gresham", "state_province": "Oregon", "postal_code": "97080-9532", "country": "United States", "longitude": "-122.4497736", "latitude": "45.4787523", "phone": "5033108113", "website_url": null, "state": "Oregon", "street": "2568 SW Orchard Ct"}, {"id": "dceed539-92fe-42e7-8ca6-09eef06e3a2b", "name": "The Humble Pint", "brewery_type": "planning", "address_1": null, "address_2": null, "address_3": null, "city": "Round Rock", "state_province": "Texas", "postal_code": "78681-5504", "country": "United States", "longitude": null, "latitude": null, "phone": "5129475913", "website_url": "http://www.humblepint.com", "state": "Texas", "street": null}, {"id": "ab5e80a9-bfeb-45b4-8f08-89d975fd90d8", "name": "The Intrepid Sojourner Beer Project", "brewery_type": "micro", "address_1": "925 W 8th Ave", "address_2": null, "address_3": null, "city": "Denver", "state_province": "Colorado", "postal_code": "80204-4333", "country": "United States", "longitude": "-104.9993865", "latitude": "39.7291386", "phone": "8122498792", "website_url": "http://sojournerbeers.com", "state": "Colorado", "street": "925 W 8th Ave"}, {"id": "aa332036-3ce5-47dc-aa9b-73b2b457b3d3", "name": "The Jolly Fox Brewery", "brewery_type": "planning", "address_1": null, "address_2": null, "address_3": null, "city": "Pittsburg", "state_province": "Kansas", "postal_code": "66762", "country": "United States", "longitude": null, "latitude": null, "phone": null, "website_url": "http://Www.thejollyfoxbrrewery.com", "state": "Kansas", "street": null}, {"id": "16025731-a854-4661-8786-8151d8db7f15", "name": "The Jolly Scholar", "brewery_type": "brewpub", "address_1": "11111 Euclid Ave", "address_2": null, "address_3": null, "city": "Cleveland", "state_province": "Ohio", "postal_code": "44106-1715", "country": "United States", "longitude": "-81.60836498", "latitude": "41.5074076", "phone": "2163680090", "website_url": "http://www.thejollyscholar.com", "state": "Ohio", "street": "11111 Euclid Ave"}, {"id": "0fd552f9-4945-4187-94c4-5372e3f645a5", "name": "The Kiln Brewery", "brewery_type": "micro", "address_1": "Selsfield Road", "address_2": null, "address_3": null, "city": "East Grinstead", "state_province": "West Sussex", "postal_code": "RH19 4QS", "country": "England", "longitude": "-0.070719", "latitude": "51.079995", "phone": "7800556729", "website_url": "https://www.thekilnbrewery.co.uk/", "state": "West Sussex", "street": "Selsfield Road"}, {"id": "be30234d-bd7e-4525-80d6-bf4c1f3bcb57", "name": "The Knickerbocker/ New Holland Brewing", "brewery_type": "brewpub", "address_1": "417 Bridge St NW", "address_2": null, "address_3": null, "city": "Grand Rapids", "state_province": "Michigan", "postal_code": "49504-5305", "country": "United States", "longitude": "-85.68044312", "latitude": "42.97068214", "phone": "6163455642", "website_url": null, "state": "Michigan", "street": "417 Bridge St NW"}, {"id": "dd538cde-772c-4874-8f51-586d93474068", "name": "The Knuckle Brewing Company", "brewery_type": "brewpub", "address_1": "918 Harley Davidson Way", "address_2": null, "address_3": null, "city": "Sturgis", "state_province": "South Dakota", "postal_code": "57785-8511", "country": "United States", "longitude": "-103.5124614", "latitude": "44.41556787", "phone": "6055619846", "website_url": "http://www.theknuckle.com", "state": "South Dakota", "street": "918 Harley Davidson Way"}, {"id": "1c99b221-b06b-460d-abd9-530efa711fb2", "name": "The Koontz Lake Brewing Company", "brewery_type": "brewpub", "address_1": "7747 N State Road 23", "address_2": null, "address_3": null, "city": "Walkerton", "state_province": "Indiana", "postal_code": "46574-9360", "country": "United States", "longitude": null, "latitude": null, "phone": "5745862019", "website_url": null, "state": "Indiana", "street": "7747 N State Road 23"}, {"id": "a56d515f-cf35-4f04-a0df-e8b57260580d", "name": "The Laboratory Mill Brewery", "brewery_type": "micro", "address_1": "848 Southfork Rd", "address_2": null, "address_3": null, "city": "Lincolnton", "state_province": "North Carolina", "postal_code": "28092", "country": "United States", "longitude": null, "latitude": null, "phone": null, "website_url": null, "state": "North Carolina", "street": "848 Southfork Rd"}, {"id": "5c34509f-9eb7-4321-ba65-68eefc23c536", "name": "The Laird Arcade Brewery", "brewery_type": "micro", "address_1": "114 S Washington St Ste D", "address_2": null, "address_3": null, "city": "Tiffin", "state_province": "Ohio", "postal_code": "44883-3915", "country": "United States", "longitude": null, "latitude": null, "phone": "4196186489", "website_url": null, "state": "Ohio", "street": "114 S Washington St Ste D"}, {"id": "5ba7b38b-b805-4d49-a671-194a2c7975bf", "name": "The Langham Brewery llp", "brewery_type": "micro", "address_1": "Langham Lane", "address_2": null, "address_3": null, "city": "Petworth", "state_province": "West Sussex", "postal_code": "GU28 9BU", "country": "England", "longitude": "-0.679379", "latitude": "50.994711", "phone": "1798860861", "website_url": "https://langhambrewery.co.uk/", "state": "West Sussex", "street": "Langham Lane"}, {"id": "eea8a695-5e5e-4eb4-8c36-38ef70799787", "name": "The Larimer Beer Company", "brewery_type": "contract", "address_1": "3620 Newport St", "address_2": null, "address_3": null, "city": "Denver", "state_province": "Colorado", "postal_code": "80207-1508", "country": "United States", "longitude": "-104.9093487", "latitude": "39.76773768", "phone": "7205076369", "website_url": "http://www.thelarimer.com", "state": "Colorado", "street": "3620 Newport St"}, {"id": "b4bad111-e8f4-45ac-bb74-c3dbac3cdceb", "name": "The Levee Brewing Company, Inc", "brewery_type": "planning", "address_1": null, "address_2": null, "address_3": null, "city": "Valdese", "state_province": "North Carolina", "postal_code": "28690", "country": "United States", "longitude": null, "latitude": null, "phone": "8383901041", "website_url": "http://www.theleveepub.com", "state": "North Carolina", "street": null}]