[{"id": "71ac4b9f-1452-42e4-957d-c0075671f9ac", "name": "Hodad's Brewing Company", "brewery_type": "planning", "address_1": null, "address_2": null, "address_3": null, "city": "San Diego", "state_province": "California", "postal_code": "92123", "country": "United States", "longitude": "-117.1627714", "latitude": "32.7174209", "phone": "8582782770", "website_url": null, "state": "California", "street": null}, {"id": "f902bfca-fb32-4581-8b09-f3fb80ea731c", "name": "Hofbrauhaus Buffalo", "brewery_type": "planning", "address_1": null, "address_2": null, "address_3": null, "city": "Buffalo", "state_province": "New York", "postal_code": "14221-4616", "country": "United States", "longitude": null, "latitude": null, "phone": "7165631781", "website_url": "http://www.facebook.com/Hofbrauhaus-Buffalo-476335022466386/", "state": "New York", "street": null}, {"id": "5fde3431-947e-41a9-8884-5763020f18a4", "name": "Hofbrauhaus Chicago", "brewery_type": "brewpub", "address_1": "5500 Park Pl", "address_2": null, "address_3": null, "city": "Rosemont", "state_province": "Illinois", "postal_code": "60018-3730", "country": "United States", "longitude": null, "latitude": null, "phone": "8476712739", "website_url": "http://www.hofbrauhauschicago.com", "state": "Illinois", "street": "5500 Park Pl"}, {"id": "1fcf7c77-15b9-499e-a181-e5d1cdf2bce4", "name": "Hofbrauhaus Cleveland / Cincinatti Restaurant Group", "brewery_type": "brewpub", "address_1": "1550 Chester Ave", "address_2": null, "address_3": null, "city": "Cleveland", "state_province": "Ohio", "postal_code": "44114-3615", "country": "United States", "longitude": "-81.68115344", "latitude": "41.50310892", "phone": "2166212337", "website_url": "http://www.hofbrauhauscleveland.com", "state": "Ohio", "street": "1550 Chester Ave"}, {"id": "76dd1606-3e5b-4095-92e6-10ffd3c5fc9c", "name": "Hofbrauhaus Columbus", "brewery_type": "brewpub", "address_1": "800 Goodale Blvd", "address_2": null, "address_3": null, "city": "Columbus", "state_province": "Ohio", "postal_code": "43212-3825", "country": "United States", "longitude": "-83.025737", "latitude": "39.974313", "phone": "6142942437", "website_url": "http://www.hofbrauhauscolumbus.com", "state": "Ohio", "street": "800 Goodale Blvd"}, {"id": "1c220e79-0fc8-4afc-a733-4e3844321d87", "name": "Hofbrauhaus Newport", "brewery_type": "brewpub", "address_1": "200 E 3rd St", "address_2": null, "address_3": null, "city": "Newport", "state_province": "Kentucky", "postal_code": "41071-1612", "country": "United States", "longitude": "-84.494527", "latitude": "39.094846", "phone": "8594917200", "website_url": "http://www.hofbrauhausnewport.com", "state": "Kentucky", "street": "200 E 3rd St"}, {"id": "94f254df-d789-477b-8717-ad89789b9504", "name": "Hofbrauhaus Pittsburgh", "brewery_type": "brewpub", "address_1": "2705 S Water St", "address_2": null, "address_3": null, "city": "Pittsburgh", "state_province": "Pennsylvania", "postal_code": "15203", "country": "United States", "longitude": "-79.9639442", "latitude": "40.4279919", "phone": "4122242328", "website_url": "http://www.hofbrauhauspittsburgh.com", "state": "Pennsylvania", "street": "2705 S Water St"}, {"id": "d7ffb1b1-b7db-4a99-a523-9c1a97deb958", "name": "Hofbrauhaus St. Louis-Belleville", "brewery_type": "brewpub", "address_1": "123 Saint Eugene Dr", "address_2": null, "address_3": null, "city": "Belleville", "state_province": "Illinois", "postal_code": "62223-1154", "country": "United States", "longitude": null, "latitude": null, "phone": "6188002337", "website_url": "http://www.hofbrauhausstlouis.com", "state": "Illinois", "street": "123 Saint Eugene Dr"}, {"id": "f80c2fb9-1203-4f93-b54b-cc05ad0166b3", "name": "Hog Haus Brewing Co", "brewery_type": "brewpub", "address_1": "430 W Dickson St", "address_2": null, "address_3": null, "city": "Fayetteville", "state_province": "Arkansas", "postal_code": "72701-5107", "country": "United States", "longitude": "-94.16524371", "latitude": "36.0666309", "phone": "4792833516", "website_url": "http://www.hoghaus.com", "state": "Arkansas", "street": "430 W Dickson St"}, {"id": "0d66df52-905e-492d-8565-1fa33fe40195", "name": "Hog Island Beer Company", "brewery_type": "micro", "address_1": "PO Box 1901", "address_2": null, "address_3": null, "city": "Orleans", "state_province": "Massachusetts", "postal_code": "02653-1901", "country": "United States", "longitude": null, "latitude": null, "phone": "5082552337", "website_url": "http://www.hogislandbeerco.com", "state": "Massachusetts", "street": "PO Box 1901"}, {"id": "bcc9e2d0-a5cb-48da-b3e9-40229decd273", "name": "Hog River Brewing Co", "brewery_type": "micro", "address_1": "1429 Park St", "address_2": null, "address_3": null, "city": "Hartford", "state_province": "Connecticut", "postal_code": "06106-2236", "country": "United States", "longitude": "-72.70182745", "latitude": "41.75799856", "phone": "8602062119", "website_url": "http://www.hogriverbrewing.com", "state": "Connecticut", "street": "1429 Park St"}, {"id": "bba56fa4-5787-426b-9eab-621c4a57d805", "name": "Hogback Mountain Brewery", "brewery_type": "micro", "address_1": "51 North St", "address_2": null, "address_3": null, "city": "Bristol", "state_province": "Vermont", "postal_code": "05443-1026", "country": "United States", "longitude": "-73.079007", "latitude": "44.136511", "phone": "8023498195", "website_url": "http://hogbackbrew.com", "state": "Vermont", "street": "51 North St"}, {"id": "a4ef3382-1ed4-426a-a822-5a7e9001597f", "name": "Hogshead Brewery", "brewery_type": "micro", "address_1": "4460 W 29th Ave", "address_2": null, "address_3": null, "city": "Denver", "state_province": "Colorado", "postal_code": "80212-3015", "country": "United States", "longitude": "-105.04506", "latitude": "39.758232", "phone": "3038869655", "website_url": "http://www.hogsheadbrewery.com", "state": "Colorado", "street": "4460 W 29th Ave"}, {"id": "57a523b2-d226-44fc-9469-6a7901a2deee", "name": "Hoh River Brewery", "brewery_type": "micro", "address_1": "2442 Mottman Rd SW", "address_2": null, "address_3": null, "city": "Tumwater", "state_province": "Washington", "postal_code": "98512-6219", "country": "United States", "longitude": "-122.9356218", "latitude": "47.02543196", "phone": "3607054000", "website_url": "http://www.hohriverbrewery.com", "state": "Washington", "street": "2442 Mottman Rd SW"}, {"id": "13113114-ed5d-42b1-bc80-6e52259913e9", "name": "Hoi Polloi Brewpub and Beat Lounge", "brewery_type": "micro", "address_1": "1763 Alcatraz Ave", "address_2": null, "address_3": null, "city": "Berkeley", "state_province": "California", "postal_code": "94703", "country": "United States", "longitude": "-122.272181", "latitude": "37.8487711", "phone": "5108587334", "website_url": null, "state": "California", "street": "1763 Alcatraz Ave"}, {"id": "4e9edeef-4d5b-4c71-8461-ab35c25094c6", "name": "Hold Fast Brewing", "brewery_type": "micro", "address_1": "235 N Kimbrough Ave", "address_2": null, "address_3": null, "city": "Springfield", "state_province": "Missouri", "postal_code": "65806", "country": "United States", "longitude": "-93.285942", "latitude": "37.217206", "phone": "4177612318", "website_url": "http://www.hfbrewing.com", "state": "Missouri", "street": "235 N Kimbrough Ave"}, {"id": "3f966d4c-cd26-463b-81b0-f30923649fa1", "name": "Hold Out Brewing", "brewery_type": "micro", "address_1": "1208 W 4th St", "address_2": null, "address_3": null, "city": "Austin", "state_province": "Texas", "postal_code": "78703-5203", "country": "United States", "longitude": "-97.7611333", "latitude": "30.2713864", "phone": "2103165572", "website_url": "http://www.holdoutbrewing.com", "state": "Texas", "street": "1208 W 4th St"}, {"id": "6934e956-ca42-40f0-b750-7153f2cfbcad", "name": "Holidaily Brewing Co", "brewery_type": "micro", "address_1": "801 Brickyard Cir Ste B", "address_2": null, "address_3": null, "city": "Golden", "state_province": "Colorado", "postal_code": "80403-8026", "country": "United States", "longitude": null, "latitude": null, "phone": "3032782337", "website_url": "http://www.holidailybrewing.com", "state": "Colorado", "street": "801 Brickyard Cir Ste B"}, {"id": "8844a2f6-bf55-4d74-b7a6-efad8f6d7e0c", "name": "Holidaily Production Facility", "brewery_type": "planning", "address_1": null, "address_2": null, "address_3": null, "city": "Golden", "state_province": "Colorado", "postal_code": "80403", "country": "United States", "longitude": null, "latitude": null, "phone": null, "website_url": null, "state": "Colorado", "street": null}, {"id": "573e03df-998f-432d-b125-140ad05fc08c", "name": "Holler Brewing Company", "brewery_type": "micro", "address_1": "2206 Edwards St Ste A", "address_2": null, "address_3": null, "city": "Houston", "state_province": "Texas", "postal_code": "77007-4412", "country": "United States", "longitude": null, "latitude": null, "phone": "8327810555", "website_url": "http://www.hollerbeer.com", "state": "Texas", "street": "2206 Edwards St Ste A"}, {"id": "4fac3b77-3b22-4494-92f7-159c44230dec", "name": "Hollister Brewing Co", "brewery_type": "brewpub", "address_1": "6980 Market Place Dr", "address_2": null, "address_3": null, "city": "Goleta", "state_province": "California", "postal_code": "93117-2997", "country": "United States", "longitude": "-119.873842", "latitude": "34.428764", "phone": "8059682810", "website_url": "http://www.holisterbrewco.com", "state": "California", "street": "6980 Market Place Dr"}, {"id": "1672483e-ca23-4461-b630-3a5bafbb193d", "name": "Hollow Earth Brewing Co", "brewery_type": "brewpub", "address_1": "19 N 3rd St", "address_2": null, "address_3": null, "city": "Oxford", "state_province": "Pennsylvania", "postal_code": "19363-1423", "country": "United States", "longitude": "-75.97857656", "latitude": "39.78586182", "phone": "6107323959", "website_url": "http://www.HollowEarthBrewing.com", "state": "Pennsylvania", "street": "19 N 3rd St"}, {"id": "433e1570-3f51-45bb-89c7-20483a0c39f2", "name": "Hollywood Brewing Co", "brewery_type": "micro", "address_1": "3410 N 29th Ave", "address_2": null, "address_3": null, "city": "Hollywood", "state_province": "Florida", "postal_code": "33020-1002", "country": "United States", "longitude": "-80.1658845", "latitude": "26.0405657", "phone": "3054144757", "website_url": "http://www.hollywood.beer", "state": "Florida", "street": "3410 N 29th Ave"}, {"id": "7d85c9fb-d831-46a4-8a3b-42757806fa84", "name": "Hollywood Brewing Co", "brewery_type": "brewpub", "address_1": "290 N Broadwalk", "address_2": null, "address_3": null, "city": "Hollywood", "state_province": "Florida", "postal_code": "33019-1787", "country": "United States", "longitude": null, "latitude": null, "phone": "9546749674", "website_url": "http://www.hollywood.beer", "state": "Florida", "street": "290 N Broadwalk"}, {"id": "f0ccfe60-f36c-4a10-b976-e08d0da22763", "name": "Holsopple Brewing", "brewery_type": "micro", "address_1": "8023 Catherine Ln", "address_2": null, "address_3": null, "city": "Louisville", "state_province": "Kentucky", "postal_code": "40222-4793", "country": "United States", "longitude": "-85.6064539", "latitude": "38.2598078", "phone": "5027081902", "website_url": "http://www.holsopplebrewing.com", "state": "Kentucky", "street": "8023 Catherine Ln"}, {"id": "7a134345-20ca-4aaa-a769-0a562ea17b73", "name": "Holston River Brewing Company", "brewery_type": "micro", "address_1": "2623 Volunteer Pkwy", "address_2": null, "address_3": null, "city": "Bristol", "state_province": "Tennessee", "postal_code": "37620-", "country": "United States", "longitude": "-82.1910353", "latitude": "36.574583", "phone": "4233611572", "website_url": "http://www.hrbrewing.com", "state": "Tennessee", "street": "2623 Volunteer Pkwy"}, {"id": "dbfbda0b-941b-43d2-a71e-6a335097006e", "name": "Holy City Brewing", "brewery_type": "micro", "address_1": "1021 Aragon Ave", "address_2": null, "address_3": null, "city": "North Charleston", "state_province": "South Carolina", "postal_code": "29405-4903", "country": "United States", "longitude": "-79.97884", "latitude": "32.87298", "phone": "8434952948", "website_url": "http://www.holycitybrewing.com", "state": "South Carolina", "street": "1021 Aragon Ave"}, {"id": "0944f429-a668-487b-b20d-76be91da063a", "name": "Holy Mackerel Small Batch Beers", "brewery_type": "micro", "address_1": "3260 NW 23rd Ave Ste 400E", "address_2": null, "address_3": null, "city": "Pompano Beach", "state_province": "Florida", "postal_code": "33069-5937", "country": "United States", "longitude": null, "latitude": null, "phone": "9545320196", "website_url": "http://www.holymackerelbeers.com", "state": "Florida", "street": "3260 NW 23rd Ave Ste 400E"}, {"id": "5ea34660-4d18-4e33-9d78-aecdd3a4ba10", "name": "Holy Mountain Brewing Co", "brewery_type": "micro", "address_1": "1421 Elliott Ave W", "address_2": null, "address_3": null, "city": "Seattle", "state_province": "Washington", "postal_code": "98119-3104", "country": "United States", "longitude": "-122.3745615", "latitude": "47.6308277", "phone": "2064988435", "website_url": "http://holymountainbrewing.com", "state": "Washington", "street": "1421 Elliott Ave W"}, {"id": "df95ed92-c30c-4c27-8608-b3b59e7e59b0", "name": "Homage Brewing", "brewery_type": "micro", "address_1": "1219 N Main St", "address_2": null, "address_3": null, "city": "Los Angeles", "state_province": "California", "postal_code": "90012", "country": "United States", "longitude": "-118.2324815", "latitude": "34.0646086", "phone": null, "website_url": "http://www.homagebrewing.com/", "state": "California", "street": "1219 N Main St"}, {"id": "b8603807-7398-4567-b010-206dfa47a9d8", "name": "Homage Brewing", "brewery_type": "micro", "address_1": "281 S Thomas St Ste 101", "address_2": null, "address_3": null, "city": "Pomona", "state_province": "California", "postal_code": "91766-1750", "country": "United States", "longitude": "-117.7513183", "latitude": "34.05732408", "phone": "6263770930", "website_url": "http://www.homagebrewing.com/", "state": "California", "street": "281 S Thomas St Ste 101"}, {"id": "d249f969-0851-4831-9ae9-b7bbb8849da7", "name": "Home Brewing Co Of Pennsylvania", "brewery_type": "planning", "address_1": null, "address_2": null, "address_3": null, "city": "Conneaut Lake", "state_province": "Pennsylvania", "postal_code": "16316", "country": "United States", "longitude": null, "latitude": null, "phone": "4128603015", "website_url": null, "state": "Pennsylvania", "street": null}, {"id": "fff96f3c-0248-4381-bc2a-9cdae3190fc3", "name": "Home Brewing Co.", "brewery_type": "micro", "address_1": "2911 El Cajon Blvd # 2", "address_2": null, "address_3": null, "city": "San Diego", "state_province": "California", "postal_code": "92104-1204", "country": "United States", "longitude": "-117.131109", "latitude": "32.755029", "phone": "6194506165", "website_url": "http://www.thehomebrewerssd.com", "state": "California", "street": "2911 El Cajon Blvd # 2"}, {"id": "ad3d52fd-8b41-48f9-82a2-168aeb548402", "name": "Home of the Brave Brewing Company", "brewery_type": "closed", "address_1": "909 Waimanu St", "address_2": null, "address_3": null, "city": "Honolulu", "state_province": "Hawaii", "postal_code": "96814-3309", "country": "United States", "longitude": "-157.8535966", "latitude": "21.29875689", "phone": "8083968112", "website_url": "http://www.hotbbc.com", "state": "Hawaii", "street": "909 Waimanu St"}, {"id": "e7b2f34e-1ef8-408c-9113-491139884952", "name": "Home Republic", "brewery_type": "micro", "address_1": "328 Laskin Rd", "address_2": null, "address_3": null, "city": "Virginia Beach", "state_province": "Virginia", "postal_code": "23451-3020", "country": "United States", "longitude": "-75.97981433", "latitude": "36.85912408", "phone": "7572269593", "website_url": "http://www.homerepublicvabeach.com", "state": "Virginia", "street": "328 Laskin Rd"}, {"id": "a86a5712-7d32-4ade-a350-2245056ad635", "name": "Homefield Brewing", "brewery_type": "brewpub", "address_1": "3 Arnold Rd", "address_2": null, "address_3": null, "city": "Fiskdale", "state_province": "Massachusetts", "postal_code": "01518-", "country": "United States", "longitude": null, "latitude": null, "phone": "7742426365", "website_url": "http://www.homefieldbrewing.com", "state": "Massachusetts", "street": "3 Arnold Rd"}, {"id": "3bc09d93-e165-4c5a-81ee-9228b5e3d54d", "name": "HomeGrown Brewing Company", "brewery_type": "brewpub", "address_1": "28 N Washington St", "address_2": null, "address_3": null, "city": "Oxford", "state_province": "Michigan", "postal_code": "48371-4665", "country": "United States", "longitude": "-83.26650386", "latitude": "42.82656071", "phone": "2488918290", "website_url": "http://www.homegrownbrewco.com", "state": "Michigan", "street": "28 N Washington St"}, {"id": "f8a0cdb0-843e-431c-8f52-e5e23664ae6a", "name": "Homeplace Beer Co", "brewery_type": "micro", "address_1": "6 South Main Street Area C", "address_2": null, "address_3": null, "city": "Burnsville", "state_province": "North Carolina", "postal_code": "28714", "country": "United States", "longitude": null, "latitude": null, "phone": "8285365147", "website_url": "http://www.homeplacebeer.com", "state": "North Carolina", "street": "6 South Main Street Area C"}, {"id": "da0d62fc-e0ab-4a8b-a99a-539e09ebc6ff", "name": "Homer Brewing Co", "brewery_type": "micro", "address_1": "1411 Lake Shore Dr", "address_2": null, "address_3": null, "city": "Homer", "state_province": "Alaska", "postal_code": "99603-7945", "country": "United States", "longitude": "-151.506636", "latitude": "59.640509", "phone": "9072353626", "website_url": "http://homerbrew.com", "state": "Alaska", "street": "1411 Lake Shore Dr"}, {"id": "bf32b0e2-4258-4f4a-9b72-744d0582034c", "name": "HOMES Brewery", "brewery_type": "brewpub", "address_1": "2321 Jackson Ave", "address_2": null, "address_3": null, "city": "Ann Arbor", "state_province": "Michigan", "postal_code": "48103-3814", "country": "United States", "longitude": "-83.77845211", "latitude": "42.28032635", "phone": "7349546637", "website_url": "http://www.homesbrewery.com", "state": "Michigan", "street": "2321 Jackson Ave"}, {"id": "a9ad782a-5e15-4ddb-ad90-a40b599974ff", "name": "Homestead Beer Co.", "brewery_type": "micro", "address_1": "811 Irving Wick Dr W", "address_2": null, "address_3": null, "city": "Heath", "state_province": "Ohio", "postal_code": "43056-1199", "country": "United States", "longitude": "-82.47380719", "latitude": "40.02494781", "phone": "7405228018", "website_url": "http://www.homesteadbeerco.com", "state": "Ohio", "street": "811 Irving Wick Dr W"}, {"id": "f64883a1-c4ee-475b-8ab1-629af24daf85", "name": "Hometown Cellars Winery & Brewery", "brewery_type": "micro", "address_1": "108 E Center St Ste D", "address_2": null, "address_3": null, "city": "Ithaca", "state_province": "Michigan", "postal_code": "48847-1453", "country": "United States", "longitude": null, "latitude": null, "phone": "9898756010", "website_url": "http://www.hometowncellars.com", "state": "Michigan", "street": "108 E Center St Ste D"}, {"id": "15a32929-72b1-425b-8136-eb443c70d244", "name": "Hondo's Brew and Cork Pub", "brewery_type": "micro", "address_1": "2703 Marine Dr", "address_2": null, "address_3": null, "city": "Astoria", "state_province": "Oregon", "postal_code": "97103-2900", "country": "United States", "longitude": "-123.8140426", "latitude": "46.18885817", "phone": "5033252234", "website_url": "http://www.hondosbrew.net", "state": "Oregon", "street": "2703 Marine Dr"}, {"id": "06b628c9-8bfb-40c3-abb5-bec1c15dc01f", "name": "Honest Weight Artisan Beer", "brewery_type": "micro", "address_1": "131 W Main St Ste 104", "address_2": null, "address_3": null, "city": "Orange", "state_province": "Massachusetts", "postal_code": "01364-1159", "country": "United States", "longitude": null, "latitude": null, "phone": "4135376659", "website_url": "http://www.honestweightbeer.com", "state": "Massachusetts", "street": "131 W Main St Ste 104"}, {"id": "1050fc32-3d25-4e81-9e62-56c393000396", "name": "Honey Hollow Brewery", "brewery_type": "micro", "address_1": "376 E. Honey Rd.", "address_2": null, "address_3": null, "city": "Earlton", "state_province": "New York", "postal_code": "12058", "country": "United States", "longitude": null, "latitude": null, "phone": "5189665560", "website_url": "http://www.honeyhollowbrewery.com", "state": "New York", "street": "376 E. Honey Rd."}, {"id": "3f1aea69-e48b-4325-a181-43f69c6987e6", "name": "Honeymoon Brewery", "brewery_type": "planning", "address_1": null, "address_2": null, "address_3": null, "city": "Santa Fe", "state_province": "New Mexico", "postal_code": "87501", "country": "United States", "longitude": null, "latitude": null, "phone": "5059208379", "website_url": "http://www.honeymoonbrewery.com", "state": "New Mexico", "street": null}, {"id": "2d7398d5-4d9c-42ee-aee3-680048462d32", "name": "Honky Tonk Brewing Co", "brewery_type": "micro", "address_1": "240 Cumberland Bnd", "address_2": null, "address_3": null, "city": "Nashville", "state_province": "Tennessee", "postal_code": "37228-1804", "country": "United States", "longitude": null, "latitude": null, "phone": "6157429770", "website_url": "http://www.honkytonkbeer.com", "state": "Tennessee", "street": "240 Cumberland Bnd"}, {"id": "31963341-be39-4151-bac5-f69af74f3469", "name": "Honolulu BeerWorks", "brewery_type": "brewpub", "address_1": "328 Cooke St", "address_2": null, "address_3": null, "city": "Honolulu", "state_province": "Hawaii", "postal_code": "96813-5531", "country": "United States", "longitude": "-157.860634", "latitude": "21.29690603", "phone": "8085892337", "website_url": "http://www.honolulubeerworks.com", "state": "Hawaii", "street": "328 Cooke St"}, {"id": "14fe825b-3b9f-43dc-b953-b593774e0221", "name": "Hood Canal Brewery", "brewery_type": "brewpub", "address_1": "26499 Bond Rd NE", "address_2": null, "address_3": null, "city": "Kingston", "state_province": "Washington", "postal_code": "98346-8477", "country": "United States", "longitude": "-122.5733597", "latitude": "47.80443335", "phone": "3602978316", "website_url": "http://www.hoodcanalbrewery.com", "state": "Washington", "street": "26499 Bond Rd NE"}, {"id": "bd37752a-b7fe-40a2-a9f5-8ed9abcdc97d", "name": "HooDoo Brewing Co", "brewery_type": "micro", "address_1": "1951 Fox Ave", "address_2": null, "address_3": null, "city": "Fairbanks", "state_province": "Alaska", "postal_code": "99701-2701", "country": "United States", "longitude": "-147.7598199", "latitude": "64.84855501", "phone": "9074592337", "website_url": "http://www.hoodoobrew.com", "state": "Alaska", "street": "1951 Fox Ave"}, {"id": "deb5a55b-9937-4af4-9888-74d338881600", "name": "Hoof Hearted Brewing", "brewery_type": "micro", "address_1": "300 County Road 26", "address_2": null, "address_3": null, "city": "Marengo", "state_province": "Ohio", "postal_code": "43334-9678", "country": "United States", "longitude": null, "latitude": null, "phone": "5672333115", "website_url": "http://www.hoofheartedbrewing.com", "state": "Ohio", "street": "300 County Road 26"}, {"id": "5f190fa6-7153-4ecb-bbd8-d2271064a478", "name": "Hoof Hearted Brewing - Brewery and Kitchen", "brewery_type": "brewpub", "address_1": "850 N 4th St", "address_2": null, "address_3": null, "city": "Columbus", "state_province": "Ohio", "postal_code": "43215-1845", "country": "United States", "longitude": "-83.0002482", "latitude": "39.9803665", "phone": "6144014033", "website_url": "https://hoofheartedkitchen.com/", "state": "Ohio", "street": "850 N 4th St"}, {"id": "95a61dd8-6e66-4fec-994f-f239441ea385", "name": "Hoops Brewing", "brewery_type": "micro", "address_1": "325 S Lake Ave # 110", "address_2": null, "address_3": null, "city": "Duluth", "state_province": "Minnesota", "postal_code": "55802-2305", "country": "United States", "longitude": "-92.0960811", "latitude": "46.78348776", "phone": "2186061666", "website_url": "http://www.hoopsbrewing.com", "state": "Minnesota", "street": "325 S Lake Ave # 110"}, {"id": "c4ce5349-c572-4c37-99a6-e670199d46bf", "name": "HOOTS Beer Co.", "brewery_type": "micro", "address_1": "840 Mill Works St", "address_2": null, "address_3": null, "city": "Winston Salem", "state_province": "North Carolina", "postal_code": "27101-1243", "country": "United States", "longitude": null, "latitude": null, "phone": "3366086026", "website_url": "http://www.hootspublic.com", "state": "North Carolina", "street": "840 Mill Works St"}, {"id": "57f24b40-a0cc-4a68-b82f-97b0767f6aa7", "name": "Hop & Barrel Brewing Company LLC", "brewery_type": "micro", "address_1": "310 2nd St", "address_2": null, "address_3": null, "city": "Hudson", "state_province": "Wisconsin", "postal_code": "54016-1508", "country": "United States", "longitude": "-92.75667116", "latitude": "44.97329671", "phone": "6517959439", "website_url": "http://www.hopandbarrelbrewing.com", "state": "Wisconsin", "street": "310 2nd St"}, {"id": "49af830b-8e3c-456a-8557-504c1ccea48b", "name": "Hop And Sting Brewing Company", "brewery_type": "micro", "address_1": "2405 Squire Pl Ste 200", "address_2": null, "address_3": null, "city": "Farmers Branch", "state_province": "Texas", "postal_code": "75234-4714", "country": "United States", "longitude": "-96.89883128", "latitude": "32.93044336", "phone": "6828889614", "website_url": "http://www.hopandsting.com", "state": "Texas", "street": "2405 Squire Pl Ste 200"}, {"id": "b7d9a7e5-45c2-481f-a606-d0e3d579fb50", "name": "Hop Barn Brewing", "brewery_type": "micro", "address_1": "94 Maple Ave", "address_2": null, "address_3": null, "city": "Greenville", "state_province": "New York", "postal_code": "12083-3311", "country": "United States", "longitude": "-74.05510817", "latitude": "42.42134333", "phone": "5189564762", "website_url": "http://hopbarnbrewing.com", "state": "New York", "street": "94 Maple Ave"}, {"id": "23fe0267-5f98-4f0e-b86e-cfb9740ce9b3", "name": "Hop Butcher For the World", "brewery_type": "micro", "address_1": "1000 N Frontage Rd Ste C", "address_2": null, "address_3": null, "city": "Darien", "state_province": "Illinois", "postal_code": "60561-6448", "country": "United States", "longitude": null, "latitude": null, "phone": null, "website_url": "http://www.hopbutcher.com", "state": "Illinois", "street": "1000 N Frontage Rd Ste C"}, {"id": "8e9415ac-0125-48ab-a575-0323b0e8c0f1", "name": "HOP Central Brewery and Taproom", "brewery_type": "micro", "address_1": "5055 W Ray Rd Ste 2", "address_2": null, "address_3": null, "city": "Chandler", "state_province": "Arizona", "postal_code": "85226-6111", "country": "United States", "longitude": null, "latitude": null, "phone": "6026971494", "website_url": "http://www.hopcentraltaproom.com", "state": "Arizona", "street": "5055 W Ray Rd Ste 2"}, {"id": "8b907fd1-b55f-44e8-a9c0-04563f809a81", "name": "Hop Creek Pub", "brewery_type": "brewpub", "address_1": "3253 Browns Valley Rd", "address_2": null, "address_3": null, "city": "Napa", "state_province": "California", "postal_code": "94558-5424", "country": "United States", "longitude": "-122.328868", "latitude": "38.3041333", "phone": "7072577708", "website_url": "http://www.hopcreekpub.com", "state": "California", "street": "3253 Browns Valley Rd"}, {"id": "b1d29f8f-ee48-4a51-9460-01bdd6485e48", "name": "Hop Cycle Brewing Company", "brewery_type": "brewpub", "address_1": "13965 NW Main St", "address_2": null, "address_3": null, "city": "Banks", "state_province": "Oregon", "postal_code": "97106-9213", "country": "United States", "longitude": "-123.1145847", "latitude": "45.62137327", "phone": "5032770997", "website_url": "http://www.hopcyclebrewing.com", "state": "Oregon", "street": "13965 NW Main St"}, {"id": "36b10736-7d32-4ff4-bb48-93297fb2603d", "name": "Hop Dogma Brewing Company", "brewery_type": "micro", "address_1": "270 Capistrano Rd #22", "address_2": null, "address_3": null, "city": "Half Moon Bay", "state_province": "California", "postal_code": "94019", "country": "United States", "longitude": "-122.4831514", "latitude": "37.50465917", "phone": "6505608729", "website_url": "http://www.hopdogma.com", "state": "California", "street": "270 Capistrano Rd #22"}, {"id": "585ef4d8-012b-40ce-b5a9-b1573984d629", "name": "Hop Farm Brewing Co", "brewery_type": "micro", "address_1": "5601 Butler St", "address_2": null, "address_3": null, "city": "Pittsburgh", "state_province": "Pennsylvania", "postal_code": "15201-2326", "country": "United States", "longitude": "-79.9224894", "latitude": "40.4884044", "phone": null, "website_url": null, "state": "Pennsylvania", "street": "5601 Butler St"}, {"id": "0971ac37-3c31-494d-816b-14c1b503d649", "name": "Hop Garden Brewing", "brewery_type": "contract", "address_1": "N8668 County Road D", "address_2": null, "address_3": null, "city": "Belleville", "state_province": "Wisconsin", "postal_code": "53508-9626", "country": "United States", "longitude": null, "latitude": null, "phone": "6085169649", "website_url": "http://www.thehopgarden.net", "state": "Wisconsin", "street": "N8668 County Road D"}, {"id": "c18babf8-a7fa-48d1-97eb-d78671e0284e", "name": "Hop Haus Brewing Co", "brewery_type": "brewpub", "address_1": "231 S Main St", "address_2": null, "address_3": null, "city": "Verona", "state_province": "Wisconsin", "postal_code": "53593-1470", "country": "United States", "longitude": "-89.53353021", "latitude": "42.98803486", "phone": "6084973165", "website_url": "http://www.hophausbrewing.com", "state": "Wisconsin", "street": "231 S Main St"}, {"id": "ff207d8f-3e3f-4e00-b29e-316b89314d2c", "name": "Hop Head Farms Brewing, LLC", "brewery_type": "planning", "address_1": null, "address_2": null, "address_3": null, "city": "Baroda", "state_province": "Michigan", "postal_code": "49101-9351", "country": "United States", "longitude": null, "latitude": null, "phone": null, "website_url": null, "state": "Michigan", "street": null}, {"id": "f19a1d1c-5c2b-4da1-91c4-7a5a3a816e9f", "name": "Hop Hill Brewing Company", "brewery_type": "micro", "address_1": "1988 Blair Ave", "address_2": null, "address_3": null, "city": "Bethlehem", "state_province": "Pennsylvania", "postal_code": "18015-5307", "country": "United States", "longitude": null, "latitude": null, "phone": "4848930767", "website_url": "http://www.hophillbeer.com", "state": "Pennsylvania", "street": "1988 Blair Ave"}, {"id": "afc8e516-fcfa-4911-918b-176ff208914e", "name": "Hop Lot Brewing Co.", "brewery_type": "brewpub", "address_1": "658 S West Bay Shore Dr", "address_2": null, "address_3": null, "city": "Suttons Bay", "state_province": "Michigan", "postal_code": "49682-9587", "country": "United States", "longitude": null, "latitude": null, "phone": "2318664445", "website_url": "http://www.hoplotbrewing.com", "state": "Michigan", "street": "658 S West Bay Shore Dr"}, {"id": "52ff8b56-bde5-4647-b678-0337dd27f070", "name": "Hop N' Keg Brewery / The Quarry Steakhouse and Brewpub", "brewery_type": "brewpub", "address_1": "29 S Vernal Ave", "address_2": null, "address_3": null, "city": "Vernal", "state_province": "Utah", "postal_code": "84078-2627", "country": "United States", "longitude": "-109.5281478", "latitude": "40.4552593", "phone": "4357892337", "website_url": null, "state": "Utah", "street": "29 S Vernal Ave"}, {"id": "db9c3f9b-48fb-43c2-9a29-26624d6c8ec4", "name": "Hop Nation Brewing Company", "brewery_type": "micro", "address_1": "31 N 1st Ave", "address_2": null, "address_3": null, "city": "Yakima", "state_province": "Washington", "postal_code": "98902-2663", "country": "United States", "longitude": "-120.5097321", "latitude": "46.6018934", "phone": "5099856449", "website_url": "http://www.hopnation.us", "state": "Washington", "street": "31 N 1st Ave"}, {"id": "ab9479f2-8245-4847-880a-f7d72512d60a", "name": "Hop Nuts Brewing", "brewery_type": "micro", "address_1": "1120 S Main St Ste 150", "address_2": null, "address_3": null, "city": "Las Vegas", "state_province": "Nevada", "postal_code": "89104-1080", "country": "United States", "longitude": null, "latitude": null, "phone": "7028165371", "website_url": "http://www.hopnutsbrewing.com", "state": "Nevada", "street": "1120 S Main St Ste 150"}, {"id": "6c7c38ab-4ed5-4939-8506-36b430a24df5", "name": "Hop Quest Brewing Company", "brewery_type": "planning", "address_1": null, "address_2": null, "address_3": null, "city": "Wheatfield", "state_province": "Indiana", "postal_code": "46392", "country": "United States", "longitude": null, "latitude": null, "phone": "2198636393", "website_url": null, "state": "Indiana", "street": null}, {"id": "e24e5a6e-9ca9-4d47-84b8-9c8592f432b1", "name": "Hop River Brewing Company", "brewery_type": "micro", "address_1": "1515 N Harrison St", "address_2": null, "address_3": null, "city": "Fort Wayne", "state_province": "Indiana", "postal_code": "46808-2729", "country": "United States", "longitude": "-85.1434574", "latitude": "41.0882767", "phone": null, "website_url": "http://www.hopriverbrewing.com", "state": "Indiana", "street": "1515 N Harrison St"}, {"id": "6a848ef1-0920-4bf6-b521-a9fcf277c8ca", "name": "Hop Secret Brewing Co", "brewery_type": "micro", "address_1": "162 W Pomona Ave", "address_2": null, "address_3": null, "city": "Monrovia", "state_province": "California", "postal_code": "91016-4558", "country": "United States", "longitude": "-118.001973", "latitude": "34.134155", "phone": null, "website_url": "http://www.hopsecretbrewing.com", "state": "California", "street": "162 W Pomona Ave"}, {"id": "393fa5cb-5e38-4984-b411-f76bc6865356", "name": "Hop Soul Brewery", "brewery_type": "planning", "address_1": null, "address_2": null, "address_3": null, "city": "Brunswick", "state_province": "Georgia", "postal_code": "31520", "country": "United States", "longitude": null, "latitude": null, "phone": null, "website_url": "http://www.hopsoulbrewery.com", "state": "Georgia", "street": null}, {"id": "75dc420d-0a24-4537-b29b-07b09f168bce", "name": "Hop Tree Brewing Company Ltd", "brewery_type": "brewpub", "address_1": "1297 Hudson Gate Dr", "address_2": null, "address_3": null, "city": "Hudson", "state_province": "Ohio", "postal_code": "44236-3764", "country": "United States", "longitude": "-81.44518205", "latitude": "41.20893905", "phone": "3303420060", "website_url": "http://www.hoptreebrewing.com", "state": "Ohio", "street": "1297 Hudson Gate Dr"}, {"id": "cba10f55-3b05-43ef-86d6-6dba4cb4b7af", "name": "Hop Valley Brewing Co", "brewery_type": "large", "address_1": "990 W 1st Ave", "address_2": null, "address_3": null, "city": "Eugene", "state_province": "Oregon", "postal_code": "97402-4904", "country": "United States", "longitude": "-123.1074506", "latitude": "44.05820645", "phone": null, "website_url": null, "state": "Oregon", "street": "990 W 1st Ave"}, {"id": "5dcaadf3-ae3f-408a-9d52-fdfaf428c747", "name": "Hop Valley Brewing Co", "brewery_type": "large", "address_1": "980 Kruse Way", "address_2": null, "address_3": null, "city": "Springfield", "state_province": "Oregon", "postal_code": "97477-1073", "country": "United States", "longitude": "-123.0399796", "latitude": "44.08270624", "phone": "5417443330", "website_url": "http://www.hopvalleybrewing.com", "state": "Oregon", "street": "980 Kruse Way"}, {"id": "5d061fd0-cdd3-4dc6-8631-9bbb35aed139", "name": "Hop'n Moose Brewing Company", "brewery_type": "brewpub", "address_1": "41 Center St", "address_2": null, "address_3": null, "city": "Rutland", "state_province": "Vermont", "postal_code": "05701-4016", "country": "United States", "longitude": "-72.97743", "latitude": "43.606783", "phone": "8027757063", "website_url": "http://www.hopnmoose.com", "state": "Vermont", "street": "41 Center St"}, {"id": "d9bc1bbe-06ea-42a8-bf8c-9b0f44e0a4a3", "name": "Hoparazzi Brewing Co", "brewery_type": "closed", "address_1": "2910 E La Palma Ave Ste D", "address_2": null, "address_3": null, "city": "Anaheim", "state_province": "California", "postal_code": "92806-2618", "country": "United States", "longitude": "-117.8636661", "latitude": "33.84931338", "phone": null, "website_url": null, "state": "California", "street": "2910 E La Palma Ave Ste D"}, {"id": "6b30dd4f-8617-411a-87c7-d6feb2239201", "name": "Hopcat", "brewery_type": "brewpub", "address_1": "25 Ionia Ave SW Ste 100", "address_2": null, "address_3": null, "city": "Grand Rapids", "state_province": "Michigan", "postal_code": "49503-4179", "country": "United States", "longitude": null, "latitude": null, "phone": "6164514677", "website_url": "http://www.hopcat.com", "state": "Michigan", "street": "25 Ionia Ave SW Ste 100"}, {"id": "80000ed5-15a3-4fe0-819b-c0304647ea54", "name": "Hopcat - Louisville", "brewery_type": "brewpub", "address_1": "1064 Bardstown Rd.", "address_2": null, "address_3": null, "city": "Louisville", "state_province": "Kentucky", "postal_code": "40204", "country": "United States", "longitude": "-85.7217319", "latitude": "38.2385242", "phone": "5028908676", "website_url": null, "state": "Kentucky", "street": "1064 Bardstown Rd."}, {"id": "d79cd8ec-6144-4b10-b096-6ad985063cde", "name": "Hope Craft Brewery", "brewery_type": "micro", "address_1": "Unit 1 Howth Junction Business Park", "address_2": "Kilbarrack Road", "address_3": "Kilbarrack", "city": "Dublin", "state_province": "Dublin", "postal_code": "D05 H2K2", "country": "Ireland", "longitude": "-6.1569422", "latitude": "53.3902607", "phone": "353874562669", "website_url": "https://hopebeer.ie/", "state": "Dublin", "street": "Unit 1 Howth Junction Business Park"}, {"id": "0e74966f-2dd7-422f-92b1-e04e71ea842d", "name": "Hopewell Brewing Co", "brewery_type": "micro", "address_1": "2760 N Milwaukee Ave", "address_2": null, "address_3": null, "city": "Chicago", "state_province": "Illinois", "postal_code": "60647-1337", "country": "United States", "longitude": "-87.7878762", "latitude": "41.9973481", "phone": "7736986178", "website_url": "http://www.hopewellbrewing.com", "state": "Illinois", "street": "2760 N Milwaukee Ave"}, {"id": "3a149c58-99fe-45f5-a1ac-9e0aeb9723fa", "name": "HopFly Brewing Company", "brewery_type": "micro", "address_1": "1147 Falls Rd Suite 121", "address_2": null, "address_3": null, "city": "Rocky Mount", "state_province": "North Carolina", "postal_code": "27804", "country": "United States", "longitude": null, "latitude": null, "phone": null, "website_url": null, "state": "North Carolina", "street": "1147 Falls Rd Suite 121"}, {"id": "82f24897-257c-4df6-a629-cea41dce160b", "name": "Hopfusion Ale Works", "brewery_type": "micro", "address_1": "200 E Broadway Ave", "address_2": null, "address_3": null, "city": "Fort Worth", "state_province": "Texas", "postal_code": "76104-1302", "country": "United States", "longitude": "-97.324895", "latitude": "32.741719", "phone": "6828411721", "website_url": "http://www.hopfusionaleworks.com", "state": "Texas", "street": "200 E Broadway Ave"}, {"id": "b7a5691c-56ec-4011-8bec-2f121a7be1ae", "name": "Hopkins Brewing Company", "brewery_type": "brewpub", "address_1": "1048 E 2100 S", "address_2": null, "address_3": null, "city": "Salt Lake City", "state_province": "Utah", "postal_code": "84106", "country": "United States", "longitude": "-111.8609503", "latitude": "40.7250545", "phone": "3855283275", "website_url": "https://www.hopkinsbrewingcompany.com", "state": "Utah", "street": "1048 E 2100 S"}, {"id": "14337c32-53a0-4266-b7c1-461c51261dab", "name": "Hopkins Ordinary Ale Works", "brewery_type": "micro", "address_1": "47 Main St", "address_2": null, "address_3": null, "city": "Sperryville", "state_province": "Virginia", "postal_code": "22740-", "country": "United States", "longitude": "-78.227195", "latitude": "38.65781167", "phone": "5409873383", "website_url": "http://www.hopkinsordinary.com", "state": "Virginia", "street": "47 Main St"}, {"id": "0391fc81-48a4-445a-bf49-ad447172bc0a", "name": "Hopkinsville Brewing Company", "brewery_type": "micro", "address_1": "102 E 5th St", "address_2": null, "address_3": null, "city": "Hopkinsville", "state_province": "Kentucky", "postal_code": "42240-3306", "country": "United States", "longitude": "-87.48735745", "latitude": "36.86749436", "phone": "2703483927", "website_url": "http://www.hopkinsvillebrewingcompany.com", "state": "Kentucky", "street": "102 E 5th St"}, {"id": "98818832-60ab-466d-b0b9-578677d6fc5e", "name": "HopLife Brewing Company", "brewery_type": "micro", "address_1": "679 NW Enterprise Dr", "address_2": null, "address_3": null, "city": "Port Saint Lucie", "state_province": "Florida", "postal_code": "34986-2253", "country": "United States", "longitude": "-80.40865001", "latitude": "27.3298823", "phone": "7725280037", "website_url": null, "state": "Florida", "street": "679 NW Enterprise Dr"}, {"id": "d357d621-bbbc-4007-a5a3-b9bf6fb5f176", "name": "Hopped And Brewed", "brewery_type": "planning", "address_1": null, "address_2": null, "address_3": null, "city": "Austin", "state_province": "Texas", "postal_code": "78681-7333", "country": "United States", "longitude": null, "latitude": null, "phone": "5129225879", "website_url": "http://Hoppedandbrewed@gmail.com", "state": "Texas", "street": null}, {"id": "f8ac7038-8f93-4496-af76-5bb647c3bfb7", "name": "Hopped Up Brewing Company", "brewery_type": "closed", "address_1": "10421 E Sprague Ave", "address_2": null, "address_3": null, "city": "Spokane", "state_province": "Washington", "postal_code": "99206-3629", "country": "United States", "longitude": "-117.2178526", "latitude": "47.6571208", "phone": "5094132488", "website_url": "http://www.hoppedupbrew.com", "state": "Washington", "street": "10421 E Sprague Ave"}, {"id": "09487d47-0218-4742-8172-a9f44a9c6f01", "name": "Hoppers Grill and Brewing Co", "brewery_type": "brewpub", "address_1": "890 E Fort Union Blvd", "address_2": null, "address_3": null, "city": "Midvale", "state_province": "Utah", "postal_code": "84047-1745", "country": "United States", "longitude": "-111.8663362", "latitude": "40.62210005", "phone": "8015660424", "website_url": "http://www.hoppersbrewpub.com", "state": "Utah", "street": "890 E Fort Union Blvd"}, {"id": "053d96fd-337c-4d7d-9a18-2ed997b4f6b5", "name": "Hoppin' Frog Brewing Co", "brewery_type": "micro", "address_1": "1680 E Waterloo Rd Ste F", "address_2": null, "address_3": null, "city": "Akron", "state_province": "Ohio", "postal_code": "44306-4523", "country": "United States", "longitude": null, "latitude": null, "phone": null, "website_url": "http://www.hoppinfrog.com", "state": "Ohio", "street": "1680 E Waterloo Rd Ste F"}, {"id": "b11b2594-f5ba-4586-9b45-fe81be3af157", "name": "Hopping Gnome Brewing Company", "brewery_type": "micro", "address_1": "1710 E Douglas Ave", "address_2": null, "address_3": null, "city": "Wichita", "state_province": "Kansas", "postal_code": "67214-4212", "country": "United States", "longitude": "-97.3335112", "latitude": "37.6860464", "phone": null, "website_url": "http://www.hoppinggnome.com", "state": "Kansas", "street": "1710 E Douglas Ave"}, {"id": "19f2790e-12d0-4ff1-aa5b-e029111e1541", "name": "Hoppy Brewing Co", "brewery_type": "brewpub", "address_1": "2425 24th St", "address_2": null, "address_3": null, "city": "Sacramento", "state_province": "California", "postal_code": "95819-4619", "country": "United States", "longitude": "-121.4812078", "latitude": "38.55962229", "phone": "9164514677", "website_url": "http://www.hoppy.com", "state": "California", "street": "2425 24th St"}, {"id": "9724e0dd-bda2-4375-8baa-c2a83e33eca0", "name": "Hoppy Trout Brewing Company", "brewery_type": "brewpub", "address_1": "911 Main St", "address_2": null, "address_3": null, "city": "Andrews", "state_province": "North Carolina", "postal_code": "28901-7087", "country": "United States", "longitude": "-83.8165709", "latitude": "35.2016188", "phone": "8288352111", "website_url": "http://www.hoppytroutbrewing.com", "state": "North Carolina", "street": "911 Main St"}, {"id": "de52f2b1-2821-4958-937c-37296e25fcf2", "name": "Hops & Grain Brewing", "brewery_type": "micro", "address_1": "507 Calles St Ste 101", "address_2": null, "address_3": null, "city": "Austin", "state_province": "Texas", "postal_code": "78702-3954", "country": "United States", "longitude": null, "latitude": null, "phone": "5129142467", "website_url": "http://www.hopsandgrain.com", "state": "Texas", "street": "507 Calles St Ste 101"}, {"id": "ca201290-5cfa-4b87-8231-e7cc86672895", "name": "Hops and Growlers", "brewery_type": "micro", "address_1": "2339 Government St", "address_2": null, "address_3": null, "city": "Ocean Springs", "state_province": "Mississippi", "postal_code": "39564", "country": "United States", "longitude": "-88.8090062", "latitude": "30.41364785", "phone": "2283345585", "website_url": "http://www.hopsandgrowlers.com", "state": "Mississippi", "street": "2339 Government St"}, {"id": "5e1386c5-7e61-4b0c-b169-1cab682478c6", "name": "Hops and Leisure", "brewery_type": "contract", "address_1": "1225 Robruck Dr # A", "address_2": null, "address_3": null, "city": "Oconomowoc", "state_province": "Wisconsin", "postal_code": "53066-4446", "country": "United States", "longitude": "-88.4785191", "latitude": "43.09224436", "phone": "2625678536", "website_url": "http://www.hopsandleisure.com", "state": "Wisconsin", "street": "1225 Robruck Dr # A"}, {"id": "2f0b4ff8-1d26-4449-b278-e34df9e7aecb", "name": "Hops and Pops", "brewery_type": "planning", "address_1": null, "address_2": null, "address_3": null, "city": "Middleburg", "state_province": "Virginia", "postal_code": "20117", "country": "United States", "longitude": null, "latitude": null, "phone": "5406876539", "website_url": null, "state": "Virginia", "street": null}, {"id": "b7b10f9b-f5e3-444b-94b3-05d9357ac15d", "name": "Hops Brewery", "brewery_type": "brewpub", "address_1": "3507 Central Ave NE", "address_2": null, "address_3": null, "city": "Albuquerque", "state_province": "New Mexico", "postal_code": "87106", "country": "United States", "longitude": "-106.6053016", "latitude": "35.0800564", "phone": "5053691378", "website_url": null, "state": "New Mexico", "street": "3507 Central Ave NE"}, {"id": "7769544b-1b3f-4d16-b0a6-3f77e45824a4", "name": "Hops Grillhouse and Brewery", "brewery_type": "contract", "address_1": "3625 Jefferson Davis Hwy", "address_2": null, "address_3": null, "city": "Alexandria", "state_province": "Virginia", "postal_code": "22305-3133", "country": "United States", "longitude": "-77.0523751", "latitude": "38.8399578", "phone": "7038379107", "website_url": "http://www.hopsrestaurants.com", "state": "Virginia", "street": "3625 Jefferson Davis Hwy"}, {"id": "efd73076-9808-46b8-8a58-c490fca726df", "name": "Hops, Bitters, And Mash", "brewery_type": "planning", "address_1": null, "address_2": null, "address_3": null, "city": "Allen Park", "state_province": "Michigan", "postal_code": "48101-2539", "country": "United States", "longitude": null, "latitude": null, "phone": null, "website_url": null, "state": "Michigan", "street": null}, {"id": "6dfe19cd-23eb-43f3-a062-5e68bab19f50", "name": "HopSaint Brewing Company", "brewery_type": "brewpub", "address_1": "5160 W 190th St", "address_2": null, "address_3": null, "city": "Torrance", "state_province": "California", "postal_code": "90503-1005", "country": "United States", "longitude": "-118.367733", "latitude": "33.8577324", "phone": "3102144611", "website_url": "http://www.hopsaint.com", "state": "California", "street": "5160 W 190th St"}, {"id": "1e49519f-16fc-4641-8b9c-1c883cf03d12", "name": "HopScratch Farm & Brewery", "brewery_type": "planning", "address_1": null, "address_2": null, "address_3": null, "city": "Harwood", "state_province": "Maryland", "postal_code": "20776", "country": "United States", "longitude": null, "latitude": null, "phone": null, "website_url": null, "state": "Maryland", "street": null}, {"id": "1d6422dd-e5b1-4b6a-99b0-d0e349e1b7d3", "name": "Hopshire Farm and Brewery", "brewery_type": "micro", "address_1": "1771 Dryden Rd", "address_2": null, "address_3": null, "city": "Freeville", "state_province": "New York", "postal_code": "13068-", "country": "United States", "longitude": null, "latitude": null, "phone": "6072791243", "website_url": "http://www.hopshire.com", "state": "New York", "street": "1771 Dryden Rd"}, {"id": "3ed3c518-7c88-4322-b8c9-cb37474be6f3", "name": "Hopskeller Brewing Company", "brewery_type": "brewpub", "address_1": "116 E 3rd St", "address_2": null, "address_3": null, "city": "Waterloo", "state_province": "Illinois", "postal_code": "62298-1608", "country": "United States", "longitude": "-90.14850267", "latitude": "38.33521743", "phone": "6189392337", "website_url": "http://www.hopskeller.com", "state": "Illinois", "street": "116 E 3rd St"}, {"id": "19daae01-234c-471b-8541-5ec2ebda543f", "name": "Hopsters", "brewery_type": "brewpub", "address_1": "292 Centre St", "address_2": null, "address_3": null, "city": "Newton", "state_province": "Massachusetts", "postal_code": "02458-1618", "country": "United States", "longitude": "-71.1852104", "latitude": "42.3560516", "phone": "6179160752", "website_url": "http://www.hopstersbrew.com", "state": "Massachusetts", "street": "292 Centre St"}, {"id": "57d4ae82-efea-44e8-8871-743ddb115857", "name": "Hopstix", "brewery_type": "brewpub", "address_1": "3404 Pierce Dr NE", "address_2": null, "address_3": null, "city": "Chamblee", "state_province": "Georgia", "postal_code": "30341-2444", "country": "United States", "longitude": null, "latitude": null, "phone": "6788882306", "website_url": "http://www.hopstix.com", "state": "Georgia", "street": "3404 Pierce Dr NE"}, {"id": "5b49ceea-89f9-4f40-967a-d1379daf8f80", "name": "Hopvine Brewing Company", "brewery_type": "brewpub", "address_1": "4030 Fox Valley Center Dr", "address_2": null, "address_3": null, "city": "Aurora", "state_province": "Illinois", "postal_code": "60504-4109", "country": "United States", "longitude": "-88.21364002", "latitude": "41.76082292", "phone": "6302296030", "website_url": "http://www.hopvinebrewingcompany.com", "state": "Illinois", "street": "4030 Fox Valley Center Dr"}, {"id": "bc8fdd30-e644-4b4a-a05b-41857bc8e0ad", "name": "Hopworks Urban Brewery", "brewery_type": "micro", "address_1": "2944 SE Powell Blvd", "address_2": null, "address_3": null, "city": "Portland", "state_province": "Oregon", "postal_code": "97202-2054", "country": "United States", "longitude": "-122.634827", "latitude": "45.4968753", "phone": "5032324677", "website_url": "http://www.hopworksbeer.com", "state": "Oregon", "street": "2944 SE Powell Blvd"}, {"id": "a8dc325e-aa85-4eea-bde2-a7a9e89b7bcc", "name": "Hopworks Urban Brewery - Vancouver", "brewery_type": "micro", "address_1": "17707 SE Mill Plain Blvd", "address_2": null, "address_3": null, "city": "Vancouver", "state_province": "Washington", "postal_code": "98683-7578", "country": "United States", "longitude": "-122.5483264", "latitude": "45.6202601", "phone": "5032324677", "website_url": "https://www.hopworksbeer.com", "state": "Washington", "street": "17707 SE Mill Plain Blvd"}, {"id": "bdaa5724-aa0a-470f-9a3b-ad21d434f43d", "name": "Hoquiam Brewing Company", "brewery_type": "micro", "address_1": "526 8th St", "address_2": null, "address_3": null, "city": "Hoquiam", "state_province": "Washington", "postal_code": "98550-3521", "country": "United States", "longitude": "-123.8865612", "latitude": "46.97536712", "phone": "3606378252", "website_url": "http://www.hoquiambrews.com", "state": "Washington", "street": "526 8th St"}, {"id": "90584a88-c47c-40e5-bbac-60dccbb39cc5", "name": "Horny Toad Brewing Co, LLC", "brewery_type": "micro", "address_1": "313 Edward St", "address_2": null, "address_3": null, "city": "Rowena", "state_province": "Texas", "postal_code": "76875-3609", "country": "United States", "longitude": "-100.0465467", "latitude": "31.64750518", "phone": "3252121177", "website_url": "http://www.hornytoadbrewery.com", "state": "Texas", "street": "313 Edward St"}, {"id": "b302bba4-5c90-4ab5-a9ae-f935ccd19059", "name": "Horse & Dragon Brewing Company", "brewery_type": "micro", "address_1": "124 Racquette Dr", "address_2": null, "address_3": null, "city": "Fort Collins", "state_province": "Colorado", "postal_code": "80524-2757", "country": "United States", "longitude": null, "latitude": null, "phone": "9706318038", "website_url": "http://www.horseanddragonbrewing.com", "state": "Colorado", "street": "124 Racquette Dr"}, {"id": "4afaf336-af79-49e2-b2d1-69f5cb920f28", "name": "Horse Heaven Hills Brewery", "brewery_type": "micro", "address_1": "1118 Meade Ave", "address_2": null, "address_3": null, "city": "Prosser", "state_province": "Washington", "postal_code": "99350", "country": "United States", "longitude": "-119.7706331", "latitude": "46.20447447", "phone": "5097816400", "website_url": "http://www.horseheavenhillsbrewery.com", "state": "Washington", "street": "1118 Meade Ave"}, {"id": "abc32f81-11fb-43ca-8f37-04b62a3e0d5c", "name": "Horse Thief Hollow Brewery", "brewery_type": "brewpub", "address_1": "10426 S Western Ave", "address_2": null, "address_3": null, "city": "Chicago", "state_province": "Illinois", "postal_code": "60643-2508", "country": "United States", "longitude": "-87.68195116", "latitude": "41.70388555", "phone": "7737792739", "website_url": "http://www.horsethiefbrewing.com", "state": "Illinois", "street": "10426 S Western Ave"}, {"id": "e62e0505-9735-4210-97bf-1ac0ca3b15e6", "name": "Horsefly Brewing Co", "brewery_type": "brewpub", "address_1": "846 E Main St", "address_2": null, "address_3": null, "city": "Montrose", "state_province": "Colorado", "postal_code": "81401-3938", "country": "United States", "longitude": "-107.871306", "latitude": "38.48272365", "phone": "9702496889", "website_url": "http://www.horseflybrewing.com", "state": "Colorado", "street": "846 E Main St"}, {"id": "23a84148-cfda-4d2e-be3f-d2148c1a0f37", "name": "Horus Aged Ales", "brewery_type": "closed", "address_1": "4040 Calle Platino Ste 120", "address_2": null, "address_3": null, "city": "Oceanside", "state_province": "California", "postal_code": "92056-5859", "country": "United States", "longitude": "-117.295494", "latitude": "33.20716989", "phone": "3103475685", "website_url": "http://www.horusbeer.com", "state": "California", "street": "4040 Calle Platino Ste 120"}, {"id": "2ffeece0-e295-46d9-8f2f-9f898e41d80a", "name": "Hoster Brewing Co", "brewery_type": "contract", "address_1": "760 Harmon Ave", "address_2": null, "address_3": null, "city": "Columbus", "state_province": "Ohio", "postal_code": "43223", "country": "United States", "longitude": "-83.01615373", "latitude": "39.94440869", "phone": "6142213606", "website_url": "http://www.hosterbeer.com", "state": "Ohio", "street": "760 Harmon Ave"}, {"id": "9ce8a190-c62a-40bd-826d-858a51c4f700", "name": "Hourglass Brewing", "brewery_type": "micro", "address_1": "480 S Ronald Reagan Blvd Ste 1020", "address_2": null, "address_3": null, "city": "Longwood", "state_province": "Florida", "postal_code": "32750-5498", "country": "United States", "longitude": "-81.3450528", "latitude": "28.70366681", "phone": "4072620056", "website_url": "http://www.HourglassBrewing.com", "state": "Florida", "street": "480 S Ronald Reagan Blvd Ste 1020"}, {"id": "fb1c69b9-977d-4797-919c-e0358fb6bde4", "name": "Housatonic River Brewing", "brewery_type": "planning", "address_1": null, "address_2": null, "address_3": null, "city": "New Milford", "state_province": "Connecticut", "postal_code": "06776-3404", "country": "United States", "longitude": null, "latitude": null, "phone": "8609460266", "website_url": "http://www.housatonicriverbrewing.com", "state": "Connecticut", "street": null}, {"id": "bfa37b0d-5331-41c2-979b-ac68cfb07eeb", "name": "House 6 Brewing", "brewery_type": "planning", "address_1": null, "address_2": null, "address_3": null, "city": "Ashburn", "state_province": "Virginia", "postal_code": "20147", "country": "United States", "longitude": null, "latitude": null, "phone": "5855205710", "website_url": "http://www.house6brewing.com", "state": "Virginia", "street": null}, {"id": "250e1138-e7eb-4879-bd47-edc7b2d943e1", "name": "House Beer", "brewery_type": "proprietor", "address_1": "219 Rose Ave", "address_2": null, "address_3": null, "city": "Venice", "state_province": "California", "postal_code": "90291-2567", "country": "United States", "longitude": "-118.4775319", "latitude": "33.99631992", "phone": "3103103331", "website_url": "http://www.housebeer.us", "state": "California", "street": "219 Rose Ave"}, {"id": "2482f3b6-eb54-4b4b-af1a-7f5bf6cc188d", "name": "House Cat Brewing Company", "brewery_type": "planning", "address_1": null, "address_2": null, "address_3": null, "city": "Frederick", "state_province": "Maryland", "postal_code": "21704", "country": "United States", "longitude": null, "latitude": null, "phone": "3016050733", "website_url": null, "state": "Maryland", "street": null}, {"id": "84534d53-9739-4eea-bbe6-ff80ca5d0d9f", "name": "House of Brews", "brewery_type": "micro", "address_1": "4539 Helgesen Dr", "address_2": null, "address_3": null, "city": "Madison", "state_province": "Wisconsin", "postal_code": "53718-6747", "country": "United States", "longitude": "-89.3053312", "latitude": "43.0662949", "phone": "6083477243", "website_url": null, "state": "Wisconsin", "street": "4539 Helgesen Dr"}, {"id": "a9dfce2a-48e2-4315-8281-07d11d8b5878", "name": "House Of Pendragon Brewing Co", "brewery_type": "micro", "address_1": "1849 Industrial Way Ste 103", "address_2": null, "address_3": null, "city": "Sanger", "state_province": "California", "postal_code": "93657-8727", "country": "United States", "longitude": "-119.5496094", "latitude": "36.68923442", "phone": "5593467786", "website_url": "http://www.hopbeer.com", "state": "California", "street": "1849 Industrial Way Ste 103"}, {"id": "6efacac4-73ee-4c49-8ef1-bf8cd03fb072", "name": "Howell's MainStreet Winery, Brewery & Pizzeria", "brewery_type": "brewpub", "address_1": "201 W Grand River Ave", "address_2": null, "address_3": null, "city": "Howell", "state_province": "Michigan", "postal_code": "48843-2238", "country": "United States", "longitude": "-83.93080102", "latitude": "42.60768396", "phone": "5175459463", "website_url": "http://www.howellsmainstreetwinery.com", "state": "Michigan", "street": "201 W Grand River Ave"}, {"id": "24a24d6f-2fcc-46a3-85c6-96f2ef234307", "name": "HRG Management, LLC", "brewery_type": "planning", "address_1": null, "address_2": null, "address_3": null, "city": "Hartford", "state_province": "Connecticut", "postal_code": "06109", "country": "United States", "longitude": null, "latitude": null, "phone": null, "website_url": null, "state": "Connecticut", "street": null}, {"id": "0d053ee5-78ec-4087-b82b-a2fa796144b4", "name": "Hubbleton Brewing", "brewery_type": "micro", "address_1": "W10445 Hubbleton Rd", "address_2": null, "address_3": null, "city": "Waterloo", "state_province": "Wisconsin", "postal_code": "53594", "country": "United States", "longitude": null, "latitude": null, "phone": "9202537141", "website_url": null, "state": "Wisconsin", "street": "W10445 Hubbleton Rd"}, {"id": "86844328-44bd-4af1-92e8-dc417c3c63f7", "name": "Hubrew Beer", "brewery_type": "micro", "address_1": "3463 State Hwy FF", "address_2": null, "address_3": null, "city": "Jackson", "state_province": "Missouri", "postal_code": "63755", "country": "United States", "longitude": "-89.639478", "latitude": "37.448863", "phone": "5732044164", "website_url": null, "state": "Missouri", "street": "3463 State Hwy FF"}, {"id": "88a92055-2ca5-40d7-8f6c-d6f7b28b6fa7", "name": "Huckleberry Brewing Company", "brewery_type": "micro", "address_1": "4724 Sterkx Rd", "address_2": null, "address_3": null, "city": "Alexandria", "state_province": "Louisiana", "postal_code": "71301", "country": "United States", "longitude": "-92.45332257", "latitude": "31.26477666", "phone": "3187046833", "website_url": "http://www.huckleberrybrewingco.com", "state": "Louisiana", "street": "4724 Sterkx Rd"}, {"id": "8562e8b8-0126-41f1-b00f-4fb3c4b90ef9", "name": "Hudson Ale Works", "brewery_type": "brewpub", "address_1": "17 Milton Ave", "address_2": null, "address_3": null, "city": "Highland", "state_province": "New York", "postal_code": "12528-1409", "country": "United States", "longitude": "-73.96390393", "latitude": "41.717539", "phone": "8453842531", "website_url": "http://www.hudsonaleworks.com", "state": "New York", "street": "17 Milton Ave"}, {"id": "4600fee8-4518-45cb-b4a7-89979b742829", "name": "Hudson Valley Brewery", "brewery_type": "micro", "address_1": "7 E Main St", "address_2": null, "address_3": null, "city": "Beacon", "state_province": "New York", "postal_code": "12508-3301", "country": "United States", "longitude": "-73.9630491", "latitude": "41.5016501", "phone": "8452189156", "website_url": "http://www.hudsonvalleybrewery.com", "state": "New York", "street": "7 E Main St"}, {"id": "ac178aef-9c40-4f64-b54f-1ebeb09dfb26", "name": "Huebert Brewing Co.", "brewery_type": "closed", "address_1": "421 SW 26th St", "address_2": null, "address_3": null, "city": "Oklahoma City", "state_province": "Oklahoma", "postal_code": "73109-6712", "country": "United States", "longitude": "-97.52025365", "latitude": "35.4384292", "phone": "4056346528", "website_url": null, "state": "Oklahoma", "street": "421 SW 26th St"}, {"id": "3d084c65-4169-47ed-99e4-eda7aab979e8", "name": "Huff Brewing Company, LLC", "brewery_type": "micro", "address_1": "9805 Koehn Rd", "address_2": null, "address_3": null, "city": "Bellville", "state_province": "Texas", "postal_code": "77418-7327", "country": "United States", "longitude": null, "latitude": null, "phone": null, "website_url": "http://www.huffbrewing.com", "state": "Texas", "street": "9805 Koehn Rd"}, {"id": "5da052ee-3285-4b86-be50-4cedfb00ffb5", "name": "Hugger Mugger Brewing Company", "brewery_type": "micro", "address_1": "229 Wicker St", "address_2": null, "address_3": null, "city": "Sanford", "state_province": "North Carolina", "postal_code": "27330", "country": "United States", "longitude": "-79.17896314", "latitude": "35.47890286", "phone": null, "website_url": "http://www.huggermuggerbrewing.com", "state": "North Carolina", "street": "229 Wicker St"}, {"id": "4aa4d89c-fb2a-403f-94a8-9c82d5515b71", "name": "Human Village Brewing Co.", "brewery_type": "micro", "address_1": "148 S Broadway", "address_2": null, "address_3": null, "city": "Pitman", "state_province": "New Jersey", "postal_code": "08071-2232", "country": "United States", "longitude": "-75.1291588", "latitude": "39.7304838", "phone": "8565560639", "website_url": "http://www.humanvillagebrewingco.com", "state": "New Jersey", "street": "148 S Broadway"}, {"id": "6e89294b-68f9-4af9-a5e8-f729a7adbc6e", "name": "Humble Abode Brewery", "brewery_type": "micro", "address_1": "1620 E Houston Ave Ste 800", "address_2": null, "address_3": null, "city": "Spokane", "state_province": "Washington", "postal_code": "99217", "country": "United States", "longitude": "-117.3850304", "latitude": "47.71699977", "phone": "5093815055", "website_url": "https://humbleabodebrewing.square.site", "state": "Washington", "street": "1620 E Houston Ave Ste 800"}, {"id": "f55eff77-f0cd-47bf-8797-5b2616143de0", "name": "Humble Farmer Brewing Co.", "brewery_type": "brewpub", "address_1": "116 S Imperial Ave Ste C", "address_2": null, "address_3": null, "city": "Imperial", "state_province": "California", "postal_code": "92251-1666", "country": "United States", "longitude": "-115.376274", "latitude": "32.80994985", "phone": "7605450037", "website_url": null, "state": "California", "street": "116 S Imperial Ave Ste C"}, {"id": "a10547aa-605d-44ae-be4e-7c55e7268b03", "name": "Humble Farmer Brewing Co., Inc.", "brewery_type": "micro", "address_1": "438 Walnut Ave", "address_2": null, "address_3": null, "city": "Holtville", "state_province": "California", "postal_code": "92250-1343", "country": "United States", "longitude": "-115.376335", "latitude": "32.8093331", "phone": "7603567066", "website_url": "http://www.humblefarmerbrewing.com", "state": "California", "street": "438 Walnut Ave"}, {"id": "21c8faee-c122-4f6f-9bcb-3f5374bead5a", "name": "Humble Sea Brewing Co", "brewery_type": "brewpub", "address_1": "820 Swift St", "address_2": null, "address_3": null, "city": "Santa Cruz", "state_province": "California", "postal_code": "95060-5866", "country": "United States", "longitude": "-122.0490197", "latitude": "36.9595996", "phone": "8314316189", "website_url": "http://www.humblesea.com", "state": "California", "street": "820 Swift St"}, {"id": "3755c966-863d-4e8c-bd5c-04200b609899", "name": "Humboldt Regeneration", "brewery_type": "micro", "address_1": "2320 Central Ave Ste F", "address_2": null, "address_3": null, "city": "McKinleyville", "state_province": "California", "postal_code": "95519-3682", "country": "United States", "longitude": "-124.1018943", "latitude": "40.94775864", "phone": "7077388225", "website_url": "http://www.humboldtregeneration.com", "state": "California", "street": "2320 Central Ave Ste F"}, {"id": "784d9af0-defa-4322-8121-cd8fe6ae7e19", "name": "Humboldt Springs Brewing Co", "brewery_type": "planning", "address_1": null, "address_2": null, "address_3": null, "city": "Eureka", "state_province": "California", "postal_code": "95501", "country": "United States", "longitude": "-124.1636729", "latitude": "40.8020712", "phone": "7074993050", "website_url": null, "state": "California", "street": null}, {"id": "0bfe25c6-fedf-4c8d-bb37-b6c37be4b667", "name": "Humperdinks - Arlington", "brewery_type": "brewpub", "address_1": "700 Six Flags Dr", "address_2": null, "address_3": null, "city": "Arlington", "state_province": "Texas", "postal_code": "76011-6327", "country": "United States", "longitude": "-97.0769526", "latitude": "32.7497637", "phone": "8176408553", "website_url": "http://www.humperdinks.com", "state": "Texas", "street": "700 Six Flags Dr"}, {"id": "f9e4a98f-a333-4f66-826a-6af127c1fdb7", "name": "Humperdinks - Dallas (Greenville)", "brewery_type": "brewpub", "address_1": "6050 Greenville Ave", "address_2": null, "address_3": null, "city": "Dallas", "state_province": "Texas", "postal_code": "75206-1909", "country": "United States", "longitude": "-96.76798455", "latitude": "32.8586789", "phone": "2143681203", "website_url": "http://www.humperdinks.com", "state": "Texas", "street": "6050 Greenville Ave"}, {"id": "247250ee-18e2-4d05-b522-cd78444e34c9", "name": "Humperdinks Restaurant", "brewery_type": "brewpub", "address_1": "2208 W Northwest Hwy", "address_2": null, "address_3": null, "city": "Dallas", "state_province": "Texas", "postal_code": "75220-4305", "country": "United States", "longitude": "-96.89898835", "latitude": "32.8637821", "phone": "2143584159", "website_url": "http://www.humperdinks.com", "state": "Texas", "street": "2208 W Northwest Hwy"}, {"id": "5b39343d-ac51-48b3-b7fe-db6cd1989291", "name": "Humpy's Great Alaskan Alehouse", "brewery_type": "contract", "address_1": "610 W 6th Ave", "address_2": null, "address_3": null, "city": "Anchorage", "state_province": "Alaska", "postal_code": "99501-2225", "country": "United States", "longitude": "-149.8938928", "latitude": "61.216502", "phone": "9072762337", "website_url": "http://www.humpysalaska.com", "state": "Alaska", "street": "610 W 6th Ave"}, {"id": "a9913878-49ec-44c4-83cd-13fdaf56c17b", "name": "Hunga Dunga Brewing", "brewery_type": "brewpub", "address_1": "333 N Jackson St", "address_2": null, "address_3": null, "city": "Moscow", "state_province": "Idaho", "postal_code": "83843-2065", "country": "United States", "longitude": "-117.0027808", "latitude": "46.7344955", "phone": "2085964855", "website_url": "http://www.hungadungabrewing.com", "state": "Idaho", "street": "333 N Jackson St"}]