[{"id": "94bce2e1-73b6-4042-bba3-0f6a7df5530d", "name": "Irwin Brewing Company", "brewery_type": "micro", "address_1": "326 Belleview", "address_2": null, "address_3": null, "city": "Crested Butte", "state_province": "Colorado", "postal_code": "81224-8706", "country": "United States", "longitude": "-106.9853012", "latitude": "38.86695573", "phone": "9702757578", "website_url": "http://www.irwinbrewingco.com", "state": "Colorado", "street": "326 Belleview"}, {"id": "d2961893-908c-48e2-b691-9f066c1306f6", "name": "Islamorada Beer Company", "brewery_type": "micro", "address_1": "82229 Overseas Hwy", "address_2": null, "address_3": null, "city": "Islamorada", "state_province": "Florida", "postal_code": "33036-3659", "country": "United States", "longitude": "-80.5805987", "latitude": "24.9552722", "phone": "3055089093", "website_url": "http://www.islamoradabeerco.com", "state": "Florida", "street": "82229 Overseas Hwy"}, {"id": "0664c3c7-aedb-4748-b4f3-e2964022cf92", "name": "Island Brewing Co", "brewery_type": "micro", "address_1": "5049 6th St", "address_2": null, "address_3": null, "city": "Carpinteria", "state_province": "California", "postal_code": "93013-2001", "country": "United States", "longitude": "-119.521007", "latitude": "34.39590392", "phone": "8057458272", "website_url": "http://www.islandbrewingcompany.com", "state": "California", "street": "5049 6th St"}, {"id": "662f9bed-fae7-47a7-96df-bb0a434be701", "name": "Island City Brewing Company", "brewery_type": "micro", "address_1": "65 E Front St", "address_2": null, "address_3": null, "city": "Winona", "state_province": "Minnesota", "postal_code": "55987-3494", "country": "United States", "longitude": "-91.6347433", "latitude": "44.053748", "phone": "5074742739", "website_url": "http://www.islandcitybrew.com", "state": "Minnesota", "street": "65 E Front St"}, {"id": "aebe9690-3051-4a17-8aa7-145c3155aa98", "name": "Island Coastal Lager", "brewery_type": "micro", "address_1": "3900 Frontage Rd S", "address_2": null, "address_3": null, "city": "Lakeland", "state_province": "Florida", "postal_code": "33815", "country": "United States", "longitude": null, "latitude": null, "phone": "8636987600", "website_url": "http://www.islandcoastallager.com", "state": "Florida", "street": "3900 Frontage Rd S"}, {"id": "fa2fde2e-51da-470a-a151-ce76e6d529b3", "name": "Island Dog Brewing", "brewery_type": "micro", "address_1": "125 John Roberts Rd", "address_2": null, "address_3": null, "city": "South Portland", "state_province": "Maine", "postal_code": "04106-3295", "country": "United States", "longitude": "-70.33101442", "latitude": "43.63059386", "phone": "2073300283", "website_url": "http://www.islanddogbrewing.com", "state": "Maine", "street": "125 John Roberts Rd"}, {"id": "637e56dd-04c8-4285-8076-4951f9a701fd", "name": "Island Hoppin' Brewery", "brewery_type": "micro", "address_1": "33 Hope Ln", "address_2": null, "address_3": null, "city": "Eastsound", "state_province": "Washington", "postal_code": "98245-8915", "country": "United States", "longitude": "-122.9152526", "latitude": "48.70268053", "phone": "3603769253", "website_url": "http://www.islandhoppinbrewery.com", "state": "Washington", "street": "33 Hope Ln"}, {"id": "a5aec8f0-08ed-49ea-a440-7b30f2aadb79", "name": "Island To Island Brewery", "brewery_type": "brewpub", "address_1": "642 Rogers Ave", "address_2": null, "address_3": null, "city": "Brooklyn", "state_province": "New York", "postal_code": "11226-1502", "country": "United States", "longitude": "-73.95325995", "latitude": "40.6558144", "phone": "3479741985", "website_url": "http://www.islandtoislandbrewery.com", "state": "New York", "street": "642 Rogers Ave"}, {"id": "29f0a24d-a6b6-4b3b-999f-37ae825c6e5e", "name": "Islay Ales", "brewery_type": "micro", "address_1": "Islay House Square", "address_2": "Bridgend", "address_3": null, "city": "Isle of Islay", "state_province": "Argyll", "postal_code": "PA44 7NZ", "country": "Scotland", "longitude": "-6.2511858", "latitude": "55.7845598", "phone": "1496810014", "website_url": "https://www.islayales.com/", "state": "Argyll", "street": "Islay House Square"}, {"id": "71d2dd5e-51f1-4e20-a625-09d404e487ce", "name": "Isley Brewing Company", "brewery_type": "micro", "address_1": "1715 Summit Ave", "address_2": null, "address_3": null, "city": "Richmond", "state_province": "Virginia", "postal_code": "23230-4515", "country": "United States", "longitude": "-77.46838631", "latitude": "37.56890085", "phone": "8047162132", "website_url": "http://www.isleybrewingcompany.com", "state": "Virginia", "street": "1715 Summit Ave"}, {"id": "7e491720-4757-4f4e-9353-71fbb1f4acda", "name": "Islla Street Brewing Company", "brewery_type": "micro", "address_1": "11911 Crosswinds Way", "address_2": null, "address_3": null, "city": "San Antonio", "state_province": "Texas", "postal_code": "78233", "country": "United States", "longitude": "-98.3775366", "latitude": "29.547909", "phone": "210-771-6532", "website_url": "http://www.isllastreetbrewing.com/", "state": "Texas", "street": "11911 Crosswinds Way"}, {"id": "6e667bb3-b1d5-42ad-96ef-bdee307a9ad5", "name": "Itasca Brewing Company Inc", "brewery_type": "micro", "address_1": "400 E Orchard St Ste B", "address_2": null, "address_3": null, "city": "Itasca", "state_province": "Illinois", "postal_code": "60143-1773", "country": "United States", "longitude": null, "latitude": null, "phone": "7738994998", "website_url": "http://www.itascabrewingcompany.com", "state": "Illinois", "street": "400 E Orchard St Ste B"}, {"id": "315fd733-fd6e-4619-af95-98ef88bfba74", "name": "Ithaca Beer Co", "brewery_type": "regional", "address_1": "122 Ithaca Beer Dr", "address_2": null, "address_3": null, "city": "Ithaca", "state_province": "New York", "postal_code": "14850-8813", "country": "United States", "longitude": null, "latitude": null, "phone": "6072730766", "website_url": "http://www.ithacabeer.com", "state": "New York", "street": "122 Ithaca Beer Dr"}, {"id": "d94d1ba9-02f8-4da2-be5e-2fdc0bb2f582", "name": "Ivanhoe Aleworks", "brewery_type": "micro", "address_1": "220 W Main St", "address_2": null, "address_3": null, "city": "Denison", "state_province": "Texas", "postal_code": "75020-3025", "country": "United States", "longitude": "-96.53729048", "latitude": "33.75528217", "phone": "9034640030", "website_url": null, "state": "Texas", "street": "220 W Main St"}, {"id": "34add3a8-8902-41eb-9105-7e4d107284a4", "name": "Ivanhoe Park Brewing Company", "brewery_type": "micro", "address_1": "1300 Alden Rd", "address_2": null, "address_3": null, "city": "Orlando", "state_province": "Florida", "postal_code": "32803-1822", "country": "United States", "longitude": "-81.3718448", "latitude": "28.5631918", "phone": "7144254756", "website_url": "http://www.IvanhoeParkBrewing.com", "state": "Florida", "street": "1300 Alden Rd"}, {"id": "35a9e0b9-bd35-45a5-9c18-d393d24e1998", "name": "Ivory Tower Brewery", "brewery_type": "planning", "address_1": null, "address_2": null, "address_3": null, "city": "Boone", "state_province": "North Carolina", "postal_code": "28608-0001", "country": "United States", "longitude": null, "latitude": null, "phone": "8282627847", "website_url": "http://ivorytowerscience.com", "state": "North Carolina", "street": null}, {"id": "e7b2df20-dd98-483d-9263-7284044b95c2", "name": "J Moe's Brewing Company", "brewery_type": "brewpub", "address_1": "7314 Washington St", "address_2": null, "address_3": null, "city": "Denver", "state_province": "Colorado", "postal_code": "80229-6302", "country": "United States", "longitude": "-104.9791943", "latitude": "39.7800007", "phone": "3032874824", "website_url": "http://www.creedebeer.com", "state": "Colorado", "street": "7314 Washington St"}, {"id": "1f821dd4-8c5f-4aca-af33-3989ac3f0702", "name": "J Wakefield Brewing", "brewery_type": "micro", "address_1": "120 NW 24th St", "address_2": null, "address_3": null, "city": "Miami", "state_province": "Florida", "postal_code": "33127-4414", "country": "United States", "longitude": "-80.19752867", "latitude": "25.7995437", "phone": "7862547779", "website_url": "http://www.jwakefieldbrewing.com", "state": "Florida", "street": "120 NW 24th St"}, {"id": "e2ba6adc-a7f0-4bb7-aebe-60bce1e19cb2", "name": "J. Fargo's Family Dining & Micro Brewery / Coyote J Brewing Co", "brewery_type": "brewpub", "address_1": "1209 E Main St", "address_2": null, "address_3": null, "city": "Cortez", "state_province": "Colorado", "postal_code": "81321-2910", "country": "United States", "longitude": "-108.570199", "latitude": "37.348775", "phone": "9705640242", "website_url": "http://www.jfargos.com", "state": "Colorado", "street": "1209 E Main St"}, {"id": "9c6d4ecb-1788-4bb2-ba9f-ae3efd78c7d0", "name": "J.J. Bitting Brewing Co.", "brewery_type": "brewpub", "address_1": "33 Main St", "address_2": null, "address_3": null, "city": "Woodbridge", "state_province": "New Jersey", "postal_code": "07095-3335", "country": "United States", "longitude": "-74.27717895", "latitude": "40.55461595", "phone": "7326342929", "website_url": "http://www.njbrewpubs.com", "state": "New Jersey", "street": "33 Main St"}, {"id": "d4027a1d-bf45-4db4-aaa2-241636f359b5", "name": "J.W. Sweetman", "brewery_type": "brewpub", "address_1": "1-2 Burgh Quay", "address_2": "Dublin 2", "address_3": null, "city": "Dublin", "state_province": "Dublin", "postal_code": "D02 F243", "country": "Ireland", "longitude": "-6.2603268", "latitude": "53.3469777", "phone": "35316705777", "website_url": null, "state": "Dublin", "street": "1-2 Burgh Quay"}, {"id": "bc36be6b-e3ad-4821-9b7f-f1844919ad22", "name": "J'ville Brewery", "brewery_type": "micro", "address_1": "201 Vt Route 112", "address_2": null, "address_3": null, "city": "Jacksonville", "state_province": "Vermont", "postal_code": "05342-9634", "country": "United States", "longitude": null, "latitude": null, "phone": "8023682233", "website_url": "http://www.jvillebrewery.com", "state": "Vermont", "street": "201 Vt Route 112"}, {"id": "fb85d6e1-484f-4076-96f5-bd63259c953d", "name": "Jack Mason's Tavern and Brewery", "brewery_type": "brewpub", "address_1": "400 E Ridgeway St", "address_2": null, "address_3": null, "city": "Clifton Forge", "state_province": "Virginia", "postal_code": "24422-1327", "country": "United States", "longitude": "-79.82746218", "latitude": "37.81505479", "phone": "5408625624", "website_url": "http://www.jackmasonstavern.com", "state": "Virginia", "street": "400 E Ridgeway St"}, {"id": "cf0a06ee-0b23-4922-843c-f0443d7e1707", "name": "Jack Pine Brewery", "brewery_type": "micro", "address_1": "15593 Edgewood Dr", "address_2": null, "address_3": null, "city": "Baxter", "state_province": "Minnesota", "postal_code": "56401-6952", "country": "United States", "longitude": null, "latitude": null, "phone": "2182708072", "website_url": "http://www.jackpinebrewery.com", "state": "Minnesota", "street": "15593 Edgewood Dr"}, {"id": "82177a4e-4178-445e-83d7-47db4466db87", "name": "Jack Russell Farm Ales", "brewery_type": "brewpub", "address_1": "2380 Larsen Dr", "address_2": null, "address_3": null, "city": "Camino", "state_province": "California", "postal_code": "95709-9749", "country": "United States", "longitude": "-120.6801664", "latitude": "38.75368647", "phone": "5306479420", "website_url": "http://www.jackrussellbrewing.com", "state": "California", "street": "2380 Larsen Dr"}, {"id": "db792297-5556-4f59-8132-e5b877c9da2e", "name": "Jack Russell's Steakhouse and Brewery / Maine Coast Brewing Co.", "brewery_type": "brewpub", "address_1": "102 Eden St", "address_2": null, "address_3": null, "city": "Bar Harbor", "state_province": "Maine", "postal_code": "04609-1106", "country": "United States", "longitude": "-68.2231868", "latitude": "44.3946497", "phone": "2072885214", "website_url": "http://www.jackrussellssteakhouse.com", "state": "Maine", "street": "102 Eden St"}, {"id": "6299623b-bae2-4152-88a5-47e5b63bb4f8", "name": "Jack's Abby Brewing", "brewery_type": "regional", "address_1": "100 Clinton St", "address_2": null, "address_3": null, "city": "Framingham", "state_province": "Massachusetts", "postal_code": "01702-6748", "country": "United States", "longitude": "-71.4109021", "latitude": "42.2800852", "phone": "5088720900", "website_url": "http://www.jacksabbybrewing.com", "state": "Massachusetts", "street": "100 Clinton St"}, {"id": "171e24f1-5f57-4da6-acab-61f0f28dd1b7", "name": "Jack's Brewing Co", "brewery_type": "brewpub", "address_1": "39176 Argonaut Way", "address_2": null, "address_3": null, "city": "Fremont", "state_province": "California", "postal_code": "94538-1304", "country": "United States", "longitude": "-121.9884025", "latitude": "37.5442084", "phone": "5107962036", "website_url": null, "state": "California", "street": "39176 Argonaut Way"}, {"id": "b5b8c4a7-50b1-4d3d-9f9f-784bf8c1d33c", "name": "Jack's Run Brewing Co", "brewery_type": "micro", "address_1": "108 North 21st Street", "address_2": null, "address_3": null, "city": "Purcellville", "state_province": "Virginia", "postal_code": "20132", "country": "United States", "longitude": "-77.71491185", "latitude": "39.13704895", "phone": "5404413382", "website_url": "http://www.jacksrunbrewing.com", "state": "Virginia", "street": "108 North 21st Street"}, {"id": "fa35cb80-3d34-4fcf-b411-f9ad355b1531", "name": "Jackalope Brewing Company, LLC", "brewery_type": "micro", "address_1": "701 8th Ave S", "address_2": null, "address_3": null, "city": "Nashville", "state_province": "Tennessee", "postal_code": "37203-4104", "country": "United States", "longitude": "-86.7794989", "latitude": "36.1503817", "phone": "6158870807", "website_url": "http://www.jackalopebrew.com", "state": "Tennessee", "street": "701 8th Ave S"}, {"id": "d1061663-6fed-48be-8300-4556f080bae5", "name": "Jacked Up Brewery", "brewery_type": "micro", "address_1": "800 W Grand Ave Ste B Ste 201", "address_2": null, "address_3": null, "city": "Escondido", "state_province": "California", "postal_code": "92025-2562", "country": "United States", "longitude": "-117.0917748", "latitude": "33.11733983", "phone": "7603000633", "website_url": "http://jackedupbrewery.com", "state": "California", "street": "800 W Grand Ave Ste B Ste 201"}, {"id": "64c9113d-9f06-4fc4-9db7-e8973bb30bc0", "name": "Jackie O's Brewery", "brewery_type": "micro", "address_1": "25 Campbell St", "address_2": null, "address_3": null, "city": "Athens", "state_province": "Ohio", "postal_code": "45701-2616", "country": "United States", "longitude": "-82.09053555", "latitude": "39.3315139", "phone": "6147473434", "website_url": null, "state": "Ohio", "street": "25 Campbell St"}, {"id": "1faa634b-2bef-45e2-a641-67e5c865aa6f", "name": "Jackie O's Pub & Brewery", "brewery_type": "brewpub", "address_1": "22-24 W Union St", "address_2": null, "address_3": null, "city": "Athens", "state_province": "Ohio", "postal_code": "45701-2818", "country": "United States", "longitude": "-82.10216171", "latitude": "39.32764186", "phone": "7405929686", "website_url": "http://www.jackieos.com", "state": "Ohio", "street": "22-24 W Union St"}, {"id": "97e9df73-8a99-46f6-b316-afab7b84ce6a", "name": "Jackrabbit Brewing Co", "brewery_type": "micro", "address_1": "1323 Terminal St", "address_2": null, "address_3": null, "city": "West Sacramento", "state_province": "California", "postal_code": "95691-3514", "country": "United States", "longitude": "-121.54112", "latitude": "38.5719882", "phone": "2096120259", "website_url": "http://www.jackrabbitbrewingcompany.com", "state": "California", "street": "1323 Terminal St"}, {"id": "2286d60e-a83b-4f9f-b568-1f6fb4cc8810", "name": "Jackson Street Brew Co.", "brewery_type": "brewpub", "address_1": "106 N Jackson St", "address_2": null, "address_3": null, "city": "Perryville", "state_province": "Missouri", "postal_code": "63775-1336", "country": "United States", "longitude": "-89.86375484", "latitude": "37.72597286", "phone": "5736053297", "website_url": "http://jstreetbrewco.com", "state": "Missouri", "street": "106 N Jackson St"}, {"id": "37b68562-5c86-4441-823d-dbfacafd75fa", "name": "Jackson Street Brewing", "brewery_type": "micro", "address_1": "607 5th St", "address_2": null, "address_3": null, "city": "Sioux City", "state_province": "Iowa", "postal_code": "51101-1301", "country": "United States", "longitude": "-96.40323429", "latitude": "42.49533849", "phone": "7125748403", "website_url": null, "state": "Iowa", "street": "607 5th St"}, {"id": "5ef5d4fd-bc0f-4000-9149-fcf75b9f2168", "name": "Jacob Leinenkugel Brewing Co", "brewery_type": "large", "address_1": "1 Jefferson Ave", "address_2": null, "address_3": null, "city": "Chippewa Falls", "state_province": "Wisconsin", "postal_code": "54729-1318", "country": "United States", "longitude": "-91.396442", "latitude": "44.944606", "phone": "7157235558", "website_url": "http://www.leinie.com", "state": "Wisconsin", "street": "1 Jefferson Ave"}, {"id": "a6a00d6b-d6f2-42c1-8810-6709a1a064be", "name": "Jaden James Brewery @ The Cascade Winery", "brewery_type": "brewpub", "address_1": "4665 Broadmoor Ave SE Ste 135", "address_2": null, "address_3": null, "city": "Grand Rapids", "state_province": "Michigan", "postal_code": "49512-5387", "country": "United States", "longitude": "-85.583194", "latitude": "42.909899", "phone": "6166564665", "website_url": "http://jadenjamesbrewery.com", "state": "Michigan", "street": "4665 Broadmoor Ave SE Ste 135"}, {"id": "314dfee4-0f05-4eba-aef6-573122095f3f", "name": "JAFB Brewery", "brewery_type": "micro", "address_1": "120 Beall Ave", "address_2": null, "address_3": null, "city": "Wooster", "state_province": "Ohio", "postal_code": "44691-3673", "country": "United States", "longitude": "-81.93429705", "latitude": "40.7995432", "phone": "3306011827", "website_url": "http://www.jafbbeer.com", "state": "Ohio", "street": "120 Beall Ave"}, {"id": "018b3e0a-ea27-4f11-acab-16b39607939e", "name": "Jagged Mountain Brewery", "brewery_type": "micro", "address_1": "1139 20th St", "address_2": null, "address_3": null, "city": "Denver", "state_province": "Colorado", "postal_code": "80202-1811", "country": "United States", "longitude": "-104.9913673", "latitude": "39.7522457", "phone": "7206892337", "website_url": "http://www.jaggedmountainbrewery.com", "state": "Colorado", "street": "1139 20th St"}, {"id": "05ebd2ed-d854-4d35-918c-694451eed6d9", "name": "Jailbreak Brewing Company", "brewery_type": "micro", "address_1": "9445 Washington Blvd N Ste F", "address_2": null, "address_3": null, "city": "Laurel", "state_province": "Maryland", "postal_code": "20723-1380", "country": "United States", "longitude": null, "latitude": null, "phone": "4433459699", "website_url": "http://www.jailbreakbrewing.com", "state": "Maryland", "street": "9445 Washington Blvd N Ste F"}, {"id": "2620bb33-78fe-4911-b4a5-3df64b547380", "name": "Jailhouse Brewing Co", "brewery_type": "micro", "address_1": "8 Cherry St", "address_2": null, "address_3": null, "city": "Hampton", "state_province": "Georgia", "postal_code": "30228-5575", "country": "United States", "longitude": "-84.282374", "latitude": "33.387534", "phone": "4047297681", "website_url": "http://www.jailhousebrewing.com", "state": "Georgia", "street": "8 Cherry St"}, {"id": "7ea8e10d-fca5-4705-a303-5a62b2ac60eb", "name": "Karben4 Brewing", "brewery_type": "micro", "address_1": "3698 Kinsman Blvd", "address_2": null, "address_3": null, "city": "Madison", "state_province": "Wisconsin", "postal_code": "53704-2509", "country": "United States", "longitude": "-89.32573248", "latitude": "43.126221", "phone": "6082414811", "website_url": "http://www.karben4.com", "state": "Wisconsin", "street": "3698 Kinsman Blvd"}, {"id": "c52f614d-30de-455a-a0af-f0d29d5f70db", "name": "Jaipur Restaurant and Brewpub", "brewery_type": "brewpub", "address_1": "10922 Elm St", "address_2": null, "address_3": null, "city": "Omaha", "state_province": "Nebraska", "postal_code": "68144-4822", "country": "United States", "longitude": "-96.08239397", "latitude": "41.23283768", "phone": "4023927331", "website_url": "http://www.jaipurbrewhouse.com", "state": "Nebraska", "street": "10922 Elm St"}, {"id": "e33f24c1-438a-434d-ac79-d829faf1dc8b", "name": "JAKs Brewing Company", "brewery_type": "micro", "address_1": "11860 Stapleton Dr", "address_2": null, "address_3": null, "city": "Peyton", "state_province": "Colorado", "postal_code": "80831", "country": "United States", "longitude": null, "latitude": null, "phone": "7193751116", "website_url": "http://www.jaksbrewing.com", "state": "Colorado", "street": "11860 Stapleton Dr"}, {"id": "b1351021-a901-4b9c-be60-a691bf42b730", "name": "Jam Room Brewing Co", "brewery_type": "micro", "address_1": "875 Main St", "address_2": null, "address_3": null, "city": "Newfoundland", "state_province": "Pennsylvania", "postal_code": "18445-5210", "country": "United States", "longitude": "-75.32415972", "latitude": "41.3014372", "phone": "5702526122", "website_url": "http://www.jamroombrewing.net", "state": "Pennsylvania", "street": "875 Main St"}, {"id": "ba029671-6ffc-4c6d-bac8-e6daed74efb5", "name": "James Peak Brewery", "brewery_type": "brewpub", "address_1": "70 E First St", "address_2": null, "address_3": null, "city": "Nederland", "state_province": "Colorado", "postal_code": "80466", "country": "United States", "longitude": null, "latitude": null, "phone": "3032589453", "website_url": "http://www.jamespeakbrew.com", "state": "Colorado", "street": "70 E First St"}, {"id": "3b92be7f-cdff-41a9-b4bc-c96658727d57", "name": "James River Brewery", "brewery_type": "micro", "address_1": "561 Valley St", "address_2": null, "address_3": null, "city": "Scottsville", "state_province": "Virginia", "postal_code": "24590-4983", "country": "United States", "longitude": "-78.49611667", "latitude": "37.80066298", "phone": "4342867837", "website_url": "http://www.jrbrewery.com/home.html", "state": "Virginia", "street": "561 Valley St"}, {"id": "9c26b2c6-1017-4c43-876b-17f7a0d1afa5", "name": "Jamesport Brewing Co", "brewery_type": "brewpub", "address_1": "410 S James St", "address_2": null, "address_3": null, "city": "Ludington", "state_province": "Michigan", "postal_code": "49431-2159", "country": "United States", "longitude": "-86.44787302", "latitude": "43.95168567", "phone": "2318452522", "website_url": "http://www.jamesportbrewingcompany.com", "state": "Michigan", "street": "410 S James St"}, {"id": "187b8020-fa4f-435f-80f5-166764b9e1ca", "name": "Jamesport Farm Brewery", "brewery_type": "micro", "address_1": "5873 Sound Ave", "address_2": null, "address_3": null, "city": "Riverhead", "state_province": "New York", "postal_code": "11901-5611", "country": "United States", "longitude": "-72.648395", "latitude": "40.96775", "phone": "6317228111", "website_url": "http://www.jamesportbrewhouse.com", "state": "New York", "street": "5873 Sound Ave"}, {"id": "246a9990-7ca0-46ff-b735-a564fabaf8eb", "name": "Jamestown Brewing Company", "brewery_type": "planning", "address_1": null, "address_2": null, "address_3": null, "city": "Jamestown", "state_province": "New York", "postal_code": "14701-5110", "country": "United States", "longitude": null, "latitude": null, "phone": "7168644257", "website_url": null, "state": "New York", "street": null}, {"id": "f5951169-a180-4970-aa22-28c534adf3a5", "name": "Jamex Brewing Co", "brewery_type": "micro", "address_1": "21721 Harper Ave", "address_2": null, "address_3": null, "city": "Saint Clair Shores", "state_province": "Michigan", "postal_code": "48080-2213", "country": "United States", "longitude": "-82.8986171", "latitude": "42.5171113", "phone": "5869442030", "website_url": "http://www.jamexbrewing.com", "state": "Michigan", "street": "21721 Harper Ave"}, {"id": "e6c1a3ed-0f8d-442b-a068-2afb8cb1d20f", "name": "Jamul Brewing Co. - Production Only", "brewery_type": "micro", "address_1": "3113 Calle Allejandro", "address_2": null, "address_3": null, "city": "Jamul", "state_province": "California", "postal_code": "91935-3108", "country": "United States", "longitude": "-116.87742", "latitude": "32.709923", "phone": "6195179829", "website_url": "http://www.jamulbrewingco.com", "state": "California", "street": "3113 Calle Allejandro"}, {"id": "f1a026c2-71d3-4675-a4d6-d94f9f4dfaae", "name": "Jarfly Brewing Co", "brewery_type": "micro", "address_1": "103 W Mount Vernon St", "address_2": null, "address_3": null, "city": "Somerset", "state_province": "Kentucky", "postal_code": "42501-1627", "country": "United States", "longitude": "-84.60558001", "latitude": "37.09179504", "phone": "6064254962", "website_url": "http://www.jarflybrewing.com", "state": "Kentucky", "street": "103 W Mount Vernon St"}, {"id": "bc25a7f0-db79-4f7c-b405-dbf468b39443", "name": "Jasper Ridge Brewing Co", "brewery_type": "brewpub", "address_1": "1075 Country Ln Ste 100", "address_2": null, "address_3": null, "city": "Ishpeming", "state_province": "Michigan", "postal_code": "49849-3402", "country": "United States", "longitude": "-87.6791485", "latitude": "46.50148242", "phone": "9064856017", "website_url": "http://www.countryvillageresort.com/httpdocs/html/brewery.html", "state": "Michigan", "street": "1075 Country Ln Ste 100"}, {"id": "0a1bb754-0318-4482-b8cf-5c4a568bd02f", "name": "Jaw Brew", "brewery_type": "micro", "address_1": "26 Crossveggate", "address_2": null, "address_3": null, "city": "Milngavie", "state_province": "East Dunbartonshire", "postal_code": "G62 6RA", "country": "Scotland", "longitude": "-4.3131808", "latitude": "55.9408943", "phone": "7880690995", "website_url": "https://www.jawbrew.co.uk/", "state": "East Dunbartonshire", "street": "26 Crossveggate"}, {"id": "1e7750e9-d014-407c-80ca-a3f70183a7b4", "name": "Jaworzy\u0144ski Browar Rzemie\u015blniczy Jauer", "brewery_type": "brewpub", "address_1": "Nowa Wie\u015b Legnicka 55B", "address_2": null, "address_3": null, "city": "Legnickie Pole", "state_province": "dolno\u015bl\u0105skie", "postal_code": "59-241", "country": "Poland", "longitude": "16.1744342", "latitude": "51.1555463", "phone": null, "website_url": null, "state": "dolno\u015bl\u0105skie", "street": "Nowa Wie\u015b Legnicka 55B"}, {"id": "e9907162-94c6-4d12-983b-fa8ab96c7e5a", "name": "JC Brewhouse", "brewery_type": "closed", "address_1": null, "address_2": null, "address_3": null, "city": "Issaquah", "state_province": "Washington", "postal_code": "98029-8902", "country": "United States", "longitude": null, "latitude": null, "phone": "4252816502", "website_url": null, "state": "Washington", "street": null}, {"id": "9d54b823-d300-4ccc-9cf9-8fcdb8dca252", "name": "JD's Sports Pub and Brewery", "brewery_type": "brewpub", "address_1": "690 Redwood Hwy", "address_2": null, "address_3": null, "city": "Grants Pass", "state_province": "Oregon", "postal_code": "97527-5582", "country": "United States", "longitude": "-123.3420515", "latitude": "42.42319062", "phone": "5414710383", "website_url": "http://www.jdssportsbarandbrewery.com", "state": "Oregon", "street": "690 Redwood Hwy"}, {"id": "723e9a14-cd3a-4193-908f-9c5b9eea143f", "name": "JDub's Brewing Co.", "brewery_type": "micro", "address_1": "1215 Mango Ave", "address_2": null, "address_3": null, "city": "Sarasota", "state_province": "Florida", "postal_code": "34237-2816", "country": "United States", "longitude": "-82.52525823", "latitude": "27.34877798", "phone": "9419552739", "website_url": "http://www.jdubsbrewing.com", "state": "Florida", "street": "1215 Mango Ave"}, {"id": "7a510870-1ac8-4f7c-9b9a-e112d990e8b2", "name": "Jekyll Brewing", "brewery_type": "micro", "address_1": "2855 Marconi Dr Ste 350", "address_2": null, "address_3": null, "city": "Alpharetta", "state_province": "Georgia", "postal_code": "30005-2051", "country": "United States", "longitude": "-84.2536638", "latitude": "34.0816562", "phone": "7705968788", "website_url": "http://www.jekyllbrewing.com", "state": "Georgia", "street": "2855 Marconi Dr Ste 350"}, {"id": "0bcac404-6a13-4b38-9036-df170eaaaf64", "name": "Jellyfish Brewing Company", "brewery_type": "micro", "address_1": "917 S Nebraska St", "address_2": null, "address_3": null, "city": "Seattle", "state_province": "Washington", "postal_code": "98108-2747", "country": "United States", "longitude": "-122.3203471", "latitude": "47.54956765", "phone": "2063974999", "website_url": "http://www.jellyfishbrewing.com", "state": "Washington", "street": "917 S Nebraska St"}, {"id": "961fd2c9-a4e9-4b3b-b7c5-3becc0c1ab5b", "name": "Jeremiah Johnson Brewing Company", "brewery_type": "brewpub", "address_1": "215 3rd St NW", "address_2": null, "address_3": null, "city": "Great Falls", "state_province": "Montana", "postal_code": "59404-4103", "country": "United States", "longitude": "-111.3023947", "latitude": "47.50778029", "phone": "4067273947", "website_url": "http://www.jeremiahjohnsonbrewing.com", "state": "Montana", "street": "215 3rd St NW"}, {"id": "84c68244-09d4-4c9a-8cfb-744cfe7fdd65", "name": "Jersey Girl Brewing Company", "brewery_type": "micro", "address_1": "426 Sand Shore Rd Unit 1", "address_2": null, "address_3": null, "city": "Hackettstown", "state_province": "New Jersey", "postal_code": "07840-5535", "country": "United States", "longitude": null, "latitude": null, "phone": "9085914186", "website_url": "http://www.jerseygirlbrewing.com", "state": "New Jersey", "street": "426 Sand Shore Rd Unit 1"}, {"id": "30d25781-6bd5-4401-bf30-fbde7de4c15b", "name": "Jessup Farm Barrel House", "brewery_type": "micro", "address_1": "1921 Jessup Dr", "address_2": null, "address_3": null, "city": "Fort Collins", "state_province": "Colorado", "postal_code": "80525-2551", "country": "United States", "longitude": "-105.0380013", "latitude": "40.5620458", "phone": "9705688345", "website_url": "http://jessupfarm.com/barrel-house/", "state": "Colorado", "street": "1921 Jessup Dr"}, {"id": "e2139f79-90cb-4ca3-9f42-029569204f91", "name": "Jester King Brewery", "brewery_type": "micro", "address_1": "13187 Fitzhugh Rd", "address_2": null, "address_3": null, "city": "Austin", "state_province": "Texas", "postal_code": "78736-6510", "country": "United States", "longitude": "-98.0824692", "latitude": "30.2547264", "phone": "5125375100", "website_url": "http://www.jesterkingbrewery.com", "state": "Texas", "street": "13187 Fitzhugh Rd"}, {"id": "f60db593-2715-41e9-aa05-b8089f996e74", "name": "JGR Enterprises Inc", "brewery_type": "planning", "address_1": null, "address_2": null, "address_3": null, "city": "Omaha", "state_province": "Nebraska", "postal_code": "68135-6215", "country": "United States", "longitude": null, "latitude": null, "phone": "4028610174", "website_url": null, "state": "Nebraska", "street": null}, {"id": "ee209064-11c6-4650-9e87-5bf9355eed33", "name": "Jig Head Brewing Company", "brewery_type": "micro", "address_1": "310 Newman Dr", "address_2": null, "address_3": null, "city": "Cookeville", "state_province": "Tennessee", "postal_code": "38501-4127", "country": "United States", "longitude": "-85.5237389", "latitude": "36.14556179", "phone": "9315104406", "website_url": "http://www.jigheadbrewing.com", "state": "Tennessee", "street": "310 Newman Dr"}, {"id": "e8c066e0-5d8a-485c-bedc-3ddd80d0129f", "name": "Jigsaw Brewing, LLC", "brewery_type": "planning", "address_1": null, "address_2": null, "address_3": null, "city": "High Point", "state_province": "North Carolina", "postal_code": "27260-5056", "country": "United States", "longitude": null, "latitude": null, "phone": null, "website_url": "http://www.jigsawbrewing.com", "state": "North Carolina", "street": null}, {"id": "1fa23fcf-4e52-4d0d-a7a7-9719fd1a2058", "name": "Jigsy's Brewpub & Restaurant", "brewery_type": "brewpub", "address_1": "225 N Enola Rd", "address_2": null, "address_3": null, "city": "Enola", "state_province": "Pennsylvania", "postal_code": "17025-2414", "country": "United States", "longitude": null, "latitude": null, "phone": "7177327708", "website_url": "http://www.jigsyspizza.com", "state": "Pennsylvania", "street": "225 N Enola Rd"}, {"id": "eb3620f7-5167-45bb-b2ba-47b0d2733e94", "name": "Jim Dandy Brewing", "brewery_type": "micro", "address_1": "305 E Lander St", "address_2": null, "address_3": null, "city": "Pocatello", "state_province": "Idaho", "postal_code": "83201", "country": "United States", "longitude": "-112.4482702", "latitude": "42.8663043", "phone": "2082400470", "website_url": "http://www.jimdandybrewing.com", "state": "Idaho", "street": "305 E Lander St"}, {"id": "27eacffe-b9f8-4312-818a-c2117a704ba0", "name": "JJs Brewing Company", "brewery_type": "brewpub", "address_1": "3615 n steele blvd", "address_2": null, "address_3": null, "city": "fayetteville", "state_province": "Arkansas", "postal_code": "72703", "country": "United States", "longitude": "-94.15714342", "latitude": "36.11719055", "phone": "4792632562", "website_url": "http://www.thejbgb.com/", "state": "Arkansas", "street": "3615 n steele blvd"}, {"id": "a0f8c970-e9d7-4844-83d1-8ce99ee4b9d3", "name": "JoBoy's Brew Pub", "brewery_type": "brewpub", "address_1": "27 E Main St", "address_2": null, "address_3": null, "city": "Lititz", "state_province": "Pennsylvania", "postal_code": "17543-1926", "country": "United States", "longitude": "-76.3061545", "latitude": "40.1571224", "phone": "7175688330", "website_url": "http://www.joboysbrewpub.com", "state": "Pennsylvania", "street": "27 E Main St"}, {"id": "389d305d-6099-4373-8e09-3c936c05944b", "name": "Johanssons Dining House", "brewery_type": "brewpub", "address_1": "4 W Main St", "address_2": null, "address_3": null, "city": "Westminster", "state_province": "Maryland", "postal_code": "21157-4816", "country": "United States", "longitude": "-76.9959315", "latitude": "39.5753896", "phone": "4108760101", "website_url": "http://www.johanssonsdininghouse.com", "state": "Maryland", "street": "4 W Main St"}, {"id": "45f45287-e619-4497-87cb-79fab92d6ef7", "name": "John Harvards Brew House - Framingham", "brewery_type": "brewpub", "address_1": "1 Worcester Rd", "address_2": null, "address_3": null, "city": "Framingham", "state_province": "Massachusetts", "postal_code": "01701-5359", "country": "United States", "longitude": "-71.39619245", "latitude": "42.30411485", "phone": "5088752337", "website_url": "http://www.johnharvards.com", "state": "Massachusetts", "street": "1 Worcester Rd"}, {"id": "5210079f-267a-4a16-b6f7-e459d8b88426", "name": "John S. Rhodell Brewery", "brewery_type": "micro", "address_1": "100 Walnut St Ste 111", "address_2": null, "address_3": null, "city": "Peoria", "state_province": "Illinois", "postal_code": "61602-1544", "country": "United States", "longitude": null, "latitude": null, "phone": "3099661047", "website_url": "http://www.rhodellbrewery.com", "state": "Illinois", "street": "100 Walnut St Ste 111"}, {"id": "3a4dc5bd-ac82-444f-8869-cc2d8c38a41c", "name": "John Scott Brewing Co.", "brewery_type": "planning", "address_1": null, "address_2": null, "address_3": null, "city": "Trabuco Canyon", "state_province": "California", "postal_code": "92679-5145", "country": "United States", "longitude": "-117.58938", "latitude": "33.6626232", "phone": "7144702055", "website_url": null, "state": "California", "street": null}, {"id": "6a5490c6-bcdc-489e-ae51-f917ce73f468", "name": "Johnnie Byrd Brewing Company", "brewery_type": "micro", "address_1": "121 N Pearl St", "address_2": null, "address_3": null, "city": "Wayne", "state_province": "Nebraska", "postal_code": "68787", "country": "United States", "longitude": "-97.0191502", "latitude": "42.2294276", "phone": "4028331522", "website_url": "http://www.johnniebyrd.beer", "state": "Nebraska", "street": "121 N Pearl St"}, {"id": "646eff4c-0945-4b2d-acda-dafee1142c70", "name": "Johnnie MacCracken's Celtic Firehouse Pub, Inc.", "brewery_type": "brewpub", "address_1": "15 Atlanta Street", "address_2": null, "address_3": null, "city": "Marietta", "state_province": "Georgia", "postal_code": "30060-1985", "country": "United States", "longitude": "-84.5417592", "latitude": "33.9371282", "phone": "7705907868", "website_url": "http://www.johnniemaccrackens.com", "state": "Georgia", "street": "15 Atlanta Street"}, {"id": "17e63f2a-c464-46e1-a841-04d0b8b6342d", "name": "Johnny's Calistoga / Mud City Brews", "brewery_type": "brewpub", "address_1": "1457 Lincoln Ave", "address_2": null, "address_3": null, "city": "Calistoga", "state_province": "California", "postal_code": "94515", "country": "United States", "longitude": "-122.579054", "latitude": "38.578753", "phone": "7079425938", "website_url": "http://www.johnnyscalistoga.com", "state": "California", "street": "1457 Lincoln Ave"}, {"id": "436ddc22-bd9b-4633-86a9-c5cec2d432ea", "name": "Johnson City Brewing Co", "brewery_type": "micro", "address_1": "410 E State of Franklin Rd", "address_2": null, "address_3": null, "city": "Johnson City", "state_province": "Tennessee", "postal_code": "37601-4871", "country": "United States", "longitude": "-82.34636962", "latitude": "36.31715951", "phone": "4239304186", "website_url": "http://www.johnsoncitybrewing.com", "state": "Tennessee", "street": "410 E State of Franklin Rd"}, {"id": "6edc70c0-9b5a-4ab6-8b2f-0d2b1e46e2bb", "name": "Jolly Pumpkin Artisan Ales", "brewery_type": "micro", "address_1": "2319 Bishop Cir E", "address_2": null, "address_3": null, "city": "Dexter", "state_province": "Michigan", "postal_code": "48130-1567", "country": "United States", "longitude": "-83.87683682", "latitude": "42.32487277", "phone": "7344264962", "website_url": "http://www.jollypumpkin.com", "state": "Michigan", "street": "2319 Bishop Cir E"}, {"id": "fc6aa7bd-8e48-4ff6-814d-ee16cfa86fc5", "name": "Jolly Pumpkin Cafe and Brewery", "brewery_type": "brewpub", "address_1": "311 S Main St", "address_2": null, "address_3": null, "city": "Ann Arbor", "state_province": "Michigan", "postal_code": "48104-2107", "country": "United States", "longitude": "-83.7484551", "latitude": "42.2791598", "phone": "7349132730", "website_url": "http://www.jollypumpkin.com", "state": "Michigan", "street": "311 S Main St"}, {"id": "d35177e2-9b5b-4677-b05f-860a1a3b48e4", "name": "Jolly Pumpkin Pizzeria and Brewery", "brewery_type": "brewpub", "address_1": "428 Bridge St NW", "address_2": null, "address_3": null, "city": "Grand Rapids", "state_province": "Michigan", "postal_code": "49504", "country": "United States", "longitude": "-85.6800865", "latitude": "42.970511", "phone": "6164194676", "website_url": null, "state": "Michigan", "street": "428 Bridge St NW"}, {"id": "40500db9-a3c6-44b5-b7d3-b4fee71c5f48", "name": "Jolly Pumpkin Restaurant, Brewery & Distillery", "brewery_type": "micro", "address_1": "13512 Peninsula Dr Old Mission Peninsula", "address_2": null, "address_3": null, "city": "Traverse City", "state_province": "Michigan", "postal_code": "49686-9717", "country": "United States", "longitude": null, "latitude": null, "phone": "2312234333", "website_url": "http://www.jollypumpkin.com", "state": "Michigan", "street": "13512 Peninsula Dr Old Mission Peninsula"}, {"id": "50265193-672b-4d13-9d9a-0344fe4d074c", "name": "Jolly Roger Brew", "brewery_type": "micro", "address_1": "236 Raceway Dr Ste 12", "address_2": null, "address_3": null, "city": "Mooresville", "state_province": "North Carolina", "postal_code": "28117-6518", "country": "United States", "longitude": null, "latitude": null, "phone": "9194128132", "website_url": "http://www.jollyrogerbrew.com", "state": "North Carolina", "street": "236 Raceway Dr Ste 12"}, {"id": "c7e84585-1dd0-4edb-86e9-283a6afd12ff", "name": "Jones Brewing Co", "brewery_type": "contract", "address_1": "254 Second Street", "address_2": null, "address_3": null, "city": "Smithton", "state_province": "Pennsylvania", "postal_code": "15479-0746", "country": "United States", "longitude": null, "latitude": null, "phone": null, "website_url": "http://www.stoneysbeer.com", "state": "Pennsylvania", "street": "254 Second Street"}, {"id": "520af123-af19-47b9-bb8b-c3b48514ebec", "name": "Jones Creek Brewing", "brewery_type": "micro", "address_1": "173 Beam Rd", "address_2": null, "address_3": null, "city": "Chehalis", "state_province": "Washington", "postal_code": "98532-9303", "country": "United States", "longitude": "-123.2774", "latitude": "46.588152", "phone": "3602453429", "website_url": "http://www.jonescreekbrewing.com", "state": "Washington", "street": "173 Beam Rd"}, {"id": "da1cdce4-f03a-42cd-bea5-9174991e9127", "name": "Jordan Lake Brewing Co", "brewery_type": "micro", "address_1": "320 E Durham Rd", "address_2": null, "address_3": null, "city": "Cary", "state_province": "North Carolina", "postal_code": "27513-4043", "country": "United States", "longitude": "-78.77537897", "latitude": "35.79022306", "phone": "9196945096", "website_url": "http://jordanlakebrewing.com", "state": "North Carolina", "street": "320 E Durham Rd"}, {"id": "2b241add-edd2-4e62-98bf-038700e8e775", "name": "Joseph James Brewing Co, Inc", "brewery_type": "micro", "address_1": "155 N Gibson Rd", "address_2": null, "address_3": null, "city": "Henderson", "state_province": "Nevada", "postal_code": "89014-6713", "country": "United States", "longitude": "-115.0294086", "latitude": "36.04146875", "phone": "7024542739", "website_url": "http://www.jjbrewco.com", "state": "Nevada", "street": "155 N Gibson Rd"}, {"id": "e2cbce93-bcc6-4508-85fd-071101a6942d", "name": "Joseph Wolf Brewing Company", "brewery_type": "contract", "address_1": "85 7th Pl E Ste 200", "address_2": null, "address_3": null, "city": "Saint Paul", "state_province": "Minnesota", "postal_code": "55101-2143", "country": "United States", "longitude": null, "latitude": null, "phone": "6127519422", "website_url": "http://www.josephwolfbrewing.com", "state": "Minnesota", "street": "85 7th Pl E Ste 200"}, {"id": "1b96abd4-d03f-4727-bc2b-686272e2b3ec", "name": "Jovial Foods, Inc.", "brewery_type": "planning", "address_1": null, "address_2": null, "address_3": null, "city": "North Stonington", "state_province": "Connecticut", "postal_code": "06359-1713", "country": "United States", "longitude": null, "latitude": null, "phone": "8605350494", "website_url": "http://www.jovialfoods.com", "state": "Connecticut", "street": null}, {"id": "7fadcb6d-a145-4f04-8e86-afceff597e81", "name": "Joymongers Brewing Co.", "brewery_type": "micro", "address_1": "576 N Eugene St", "address_2": null, "address_3": null, "city": "Greensboro", "state_province": "North Carolina", "postal_code": "27401", "country": "United States", "longitude": "-79.79380945", "latitude": "36.07871896", "phone": "3367635255", "website_url": "http://www.joymongers.com", "state": "North Carolina", "street": "576 N Eugene St"}, {"id": "5c8f16b0-45fb-42ce-bb6b-ffcc4582eb42", "name": "Joyride Brewing Co", "brewery_type": "micro", "address_1": "2501 Sheridan Blvd", "address_2": null, "address_3": null, "city": "Edgewater", "state_province": "Colorado", "postal_code": "80214-1330", "country": "United States", "longitude": "-105.053492", "latitude": "39.7531231", "phone": "7204327560", "website_url": "http://joyridebrewing.com", "state": "Colorado", "street": "2501 Sheridan Blvd"}, {"id": "d47b743b-1208-4702-bbf8-60bcf9b78954", "name": "JP DasBrew", "brewery_type": "micro", "address_1": "44356 S Grimmer Blvd", "address_2": null, "address_3": null, "city": "Fremont", "state_province": "California", "postal_code": "94538-6385", "country": "United States", "longitude": "-121.9577836", "latitude": "37.5043737", "phone": "5102705345", "website_url": "http://www.dasbrewinc.com", "state": "California", "street": "44356 S Grimmer Blvd"}, {"id": "5602d851-d8a1-4004-9e8e-050b663b510a", "name": "JRH Brewing", "brewery_type": "micro", "address_1": "458 W Walnut St", "address_2": null, "address_3": null, "city": "Johnson City", "state_province": "Tennessee", "postal_code": "37604-6766", "country": "United States", "longitude": "-82.35483648", "latitude": "36.31169595", "phone": "4237223410", "website_url": "http://www.jrhbrewing.com", "state": "Tennessee", "street": "458 W Walnut St"}, {"id": "f642769d-19fa-46be-992f-f48471567b27", "name": "JT Schmids Restaurant & Brewery", "brewery_type": "brewpub", "address_1": "2610 E Katella Ave", "address_2": null, "address_3": null, "city": "Anaheim", "state_province": "California", "postal_code": "92806-5903", "country": "United States", "longitude": "-117.8770639", "latitude": "33.8056683", "phone": "7146349200", "website_url": "http://www.jtschmids.com", "state": "California", "street": "2610 E Katella Ave"}, {"id": "5f1b75ad-6420-420e-bbf1-451955fd1308", "name": "JT Walker's/Champaign County Brewing Co", "brewery_type": "brewpub", "address_1": "402 E Main St", "address_2": null, "address_3": null, "city": "Mahomet", "state_province": "Illinois", "postal_code": "61853-7444", "country": "United States", "longitude": "-88.40289612", "latitude": "40.19498357", "phone": "2175861100", "website_url": "http://www.jtwalkers.com", "state": "Illinois", "street": "402 E Main St"}, {"id": "43b62c73-4d76-433d-8c2b-bc19214eddb4", "name": "Jubeck New World Brewing", "brewery_type": "micro", "address_1": "115 W 11th St", "address_2": null, "address_3": null, "city": "Dubuque", "state_province": "Iowa", "postal_code": "52001-4802", "country": "United States", "longitude": "-90.66770404", "latitude": "42.50362393", "phone": "7753755692", "website_url": "http://www.jubeckbrewing.com", "state": "Iowa", "street": "115 W 11th St"}, {"id": "c184d97f-0fb1-49d4-89c7-753b7d54393c", "name": "Jubilee Craft Beer Co", "brewery_type": "contract", "address_1": "3430 Hampton Ave", "address_2": null, "address_3": null, "city": "Nashville", "state_province": "Tennessee", "postal_code": "37215-1408", "country": "United States", "longitude": "-86.82509853", "latitude": "36.11746395", "phone": "6156869397", "website_url": "http://www.jubileebeer.com", "state": "Tennessee", "street": "3430 Hampton Ave"}, {"id": "30844cba-d501-4996-b7f5-26a347a7d89f", "name": "Jughandle Brewing Co LLC", "brewery_type": "micro", "address_1": "4057 Asbury Ave Ste 6", "address_2": null, "address_3": null, "city": "Tinton Falls", "state_province": "New Jersey", "postal_code": "07753-7700", "country": "United States", "longitude": null, "latitude": null, "phone": "7328982220", "website_url": "http://www.jughandlebrewing.com", "state": "New Jersey", "street": "4057 Asbury Ave Ste 6"}, {"id": "e431c0fc-caf0-49e6-bac5-5f96ec31cd05", "name": "Jukes Ale Works", "brewery_type": "brewpub", "address_1": "20560 Elkhorn Dr", "address_2": null, "address_3": null, "city": "Omaha", "state_province": "Nebraska", "postal_code": "68022", "country": "United States", "longitude": "-96.237282", "latitude": "41.283478", "phone": "4023054905", "website_url": "https://www.jukesaleworks.com", "state": "Nebraska", "street": "20560 Elkhorn Dr"}, {"id": "e410f1e7-62c4-449f-81be-b16b606d71fd", "name": "Julian Brewing Co", "brewery_type": "micro", "address_1": "2315 Main St", "address_2": null, "address_3": null, "city": "Julian", "state_province": "California", "postal_code": "92065", "country": "United States", "longitude": "-116.603975", "latitude": "33.079171", "phone": "7607653757", "website_url": "http://www.baileybbq.com", "state": "California", "street": "2315 Main St"}, {"id": "d6d0150a-2474-4f3d-97e0-43be00aaae9d", "name": "Julius Lehrkind Brewing", "brewery_type": "micro", "address_1": "1717 N Rouse Ave", "address_2": null, "address_3": null, "city": "Bozeman", "state_province": "Montana", "postal_code": "59715-2426", "country": "United States", "longitude": "-111.031558", "latitude": "45.69633335", "phone": "4065510199", "website_url": "http://www.juliusbrewing.com", "state": "Montana", "street": "1717 N Rouse Ave"}, {"id": "834e1ed2-363a-49b0-bbcf-4e2941114d52", "name": "Junction Brewery & Grill", "brewery_type": "brewpub", "address_1": "110 W American Canyon Rd", "address_2": null, "address_3": null, "city": "American Canyon", "state_province": "California", "postal_code": "94503-4196", "country": "United States", "longitude": "-122.261689", "latitude": "38.1658134", "phone": "7076492285", "website_url": "http://www.junctionbreweryandgrill.com", "state": "California", "street": "110 W American Canyon Rd"}, {"id": "f26dabb7-ac86-468f-be39-968c1620c5ca", "name": "June Lake Brewing", "brewery_type": "micro", "address_1": "131 S Crawford Ave", "address_2": null, "address_3": null, "city": "June Lake", "state_province": "California", "postal_code": "93529", "country": "United States", "longitude": "-119.0772032", "latitude": "37.77835282", "phone": null, "website_url": "http://www.junelakebrewing.com", "state": "California", "street": "131 S Crawford Ave"}, {"id": "acf51425-904f-441a-b8a0-ea3d939a6f7d", "name": "Junk Ditch Brewing Company", "brewery_type": "micro", "address_1": "1825 W Main St", "address_2": null, "address_3": null, "city": "Fort Wayne", "state_province": "Indiana", "postal_code": "46808-3715", "country": "United States", "longitude": "-85.1669014", "latitude": "41.0779727", "phone": "2604600460", "website_url": "http://junkditchbrewingco.com", "state": "Indiana", "street": "1825 W Main St"}, {"id": "3399a400-b526-43d1-9900-1b0d04fdaa72", "name": "Junkyard Brewing Company", "brewery_type": "micro", "address_1": "1416 1st Ave N", "address_2": null, "address_3": null, "city": "Moorhead", "state_province": "Minnesota", "postal_code": "56560-2208", "country": "United States", "longitude": "-96.75706974", "latitude": "46.87621357", "phone": "7012618403", "website_url": "http://www.junkyardbeer.com", "state": "Minnesota", "street": "1416 1st Ave N"}, {"id": "0ead3779-9ebb-4fe8-9f4d-ed39ab888a79", "name": "Jupiter", "brewery_type": "brewpub", "address_1": "2181 Shattuck Ave", "address_2": null, "address_3": null, "city": "Berkeley", "state_province": "California", "postal_code": "94704-1308", "country": "United States", "longitude": "-122.2676799", "latitude": "37.8697889", "phone": "5108438277", "website_url": "http://www.jupiterbeer.com", "state": "California", "street": "2181 Shattuck Ave"}, {"id": "3c9cd3a2-f0b0-4a59-8a34-95f6c83fd1f1", "name": "Jurnee Brewing Company", "brewery_type": "planning", "address_1": null, "address_2": null, "address_3": null, "city": "Chantilly", "state_province": "Virginia", "postal_code": "20152-2075", "country": "United States", "longitude": null, "latitude": null, "phone": null, "website_url": "http://www.jurneebeers.com", "state": "Virginia", "street": null}, {"id": "6b57c0d0-2f3f-46b0-9de6-5216d8f9bd21", "name": "K Point Brewing", "brewery_type": "brewpub", "address_1": "507 Main St", "address_2": null, "address_3": null, "city": "Eau Claire", "state_province": "Wisconsin", "postal_code": "54701-3736", "country": "United States", "longitude": "-91.49634405", "latitude": "44.81114834", "phone": null, "website_url": "http://www.thecoffeegrounds.com/k-point-brewing/", "state": "Wisconsin", "street": "507 Main St"}, {"id": "58ba7fb8-61a9-4a4f-b545-bee0987aa875", "name": "K-Oz Restaurant Brewery", "brewery_type": "brewpub", "address_1": "121 7th St", "address_2": null, "address_3": null, "city": "San Francisco", "state_province": "California", "postal_code": "94103-2835", "country": "United States", "longitude": "-122.409904", "latitude": "37.7786408", "phone": "4158729431", "website_url": "http://www.kandoz.com", "state": "California", "street": "121 7th St"}, {"id": "a1359798-d004-4afc-b32d-5c6f99d6f7a3", "name": "K2 Brothers Brewing", "brewery_type": "brewpub", "address_1": "1221 Empire Blvd", "address_2": null, "address_3": null, "city": "Rochester", "state_province": "New York", "postal_code": "14609-5946", "country": "United States", "longitude": "-77.549992", "latitude": "43.17664", "phone": "5854131997", "website_url": "http://www.K2Brewing.com", "state": "New York", "street": "1221 Empire Blvd"}, {"id": "f27cfcf7-e5ff-412e-9af2-e3d4cf3b9df1", "name": "K\u00c3\u00bcnstler Brewing", "brewery_type": "brewpub", "address_1": "302 E Lachapelle", "address_2": null, "address_3": null, "city": "San Antonio", "state_province": "Texas", "postal_code": "78204-1945", "country": "United States", "longitude": "-98.5000988", "latitude": "29.40503026", "phone": "2106884519", "website_url": "http://www.kuenstlerbrewing.com", "state": "Texas", "street": "302 E Lachapelle"}, {"id": "3d54e58d-ed32-4e17-a719-5ccff31e0dcc", "name": "Kaiser Brewing Company, LLC", "brewery_type": "micro", "address_1": "1607 Hawthorne St", "address_2": null, "address_3": null, "city": "Forest Grove", "state_province": "Oregon", "postal_code": "97116-2537", "country": "United States", "longitude": "-123.0990254", "latitude": "45.51421585", "phone": "5034129628", "website_url": "http://www.kaiserbrewingco.com", "state": "Oregon", "street": "1607 Hawthorne St"}, {"id": "e4f18c07-2a3d-4019-bae0-463e3591dbeb", "name": "Kaktus Brewing Co.", "brewery_type": "brewpub", "address_1": "471 South Hill Rd", "address_2": null, "address_3": null, "city": "Bernalillo", "state_province": "New Mexico", "postal_code": "87004-9199", "country": "United States", "longitude": "-106.5387392", "latitude": "35.30844008", "phone": "5053795072", "website_url": "http://www.kaktusbrewery.com", "state": "New Mexico", "street": "471 South Hill Rd"}, {"id": "a408aa61-48ff-477c-aefe-b38a0aea8dfe", "name": "Kalispell Brewing Co", "brewery_type": "micro", "address_1": "412 Main St", "address_2": null, "address_3": null, "city": "Kalispell", "state_province": "Montana", "postal_code": "59901-4849", "country": "United States", "longitude": null, "latitude": null, "phone": "4067562739", "website_url": "http://www.kalispellbrewing.com", "state": "Montana", "street": "412 Main St"}, {"id": "715614d8-f8f2-4d32-a1c1-2d0c8ba8536c", "name": "Kalona Brewing Company", "brewery_type": "brewpub", "address_1": "405 B Ave", "address_2": null, "address_3": null, "city": "Kalona", "state_province": "Iowa", "postal_code": "52247", "country": "United States", "longitude": "-91.7075553", "latitude": "41.4833131", "phone": "3196563335", "website_url": "http://www.kalonabrewing.com", "state": "Iowa", "street": "405 B Ave"}, {"id": "f25211f7-7f93-4d13-a170-d743cb1929c6", "name": "Kane Brewing", "brewery_type": "micro", "address_1": "1750 Bloomsbury Ave", "address_2": null, "address_3": null, "city": "Ocean", "state_province": "New Jersey", "postal_code": "07712-3941", "country": "United States", "longitude": "-74.0448807", "latitude": "40.2365672", "phone": "7329228600", "website_url": "http://www.kanebrewing.com", "state": "New Jersey", "street": "1750 Bloomsbury Ave"}, {"id": "63149b79-de6e-4b2f-aabd-82b851e5c546", "name": "Kannah Creek Brewing Co", "brewery_type": "brewpub", "address_1": "1960 N 12th St", "address_2": null, "address_3": null, "city": "Grand Junction", "state_province": "Colorado", "postal_code": "81501-2912", "country": "United States", "longitude": "-108.5522615", "latitude": "39.08513947", "phone": "9702630111", "website_url": "http://www.kannahcreekbrewingco.com", "state": "Colorado", "street": "1960 N 12th St"}, {"id": "6224f405-e903-4a89-96f7-c6d6e874eb56", "name": "Kanook Beer Company", "brewery_type": "planning", "address_1": null, "address_2": null, "address_3": null, "city": "Golden", "state_province": "Colorado", "postal_code": "80403-2674", "country": "United States", "longitude": null, "latitude": null, "phone": "3036188362", "website_url": "http://www.kanookbeer.com", "state": "Colorado", "street": null}, {"id": "d2b60a75-2bed-4360-a4d7-ca0bb6004d0a", "name": "Kansas City Bier Company", "brewery_type": "micro", "address_1": "310 W 79th St", "address_2": null, "address_3": null, "city": "Kansas City", "state_province": "Missouri", "postal_code": "64114-1843", "country": "United States", "longitude": "-94.59367119", "latitude": "38.98548485", "phone": "8162148691", "website_url": "http://www.kcbier.com", "state": "Missouri", "street": "310 W 79th St"}, {"id": "817b2847-133e-4139-8a6e-97a07259ea82", "name": "Kansas City Breweries Company", "brewery_type": "proprietor", "address_1": "12650 S Pflumm Rd Ste 202", "address_2": null, "address_3": null, "city": "Olathe", "state_province": "Kansas", "postal_code": "66062-3895", "country": "United States", "longitude": null, "latitude": null, "phone": "8163016313", "website_url": "http://www.KCLite.com", "state": "Kansas", "street": "12650 S Pflumm Rd Ste 202"}, {"id": "76e95144-1f59-427d-9db8-b0a87d5e7f08", "name": "Kansas Territory Brewing", "brewery_type": "micro", "address_1": "310 C St", "address_2": null, "address_3": null, "city": "Washington", "state_province": "Kansas", "postal_code": "66968-1909", "country": "United States", "longitude": "-97.0511838", "latitude": "39.81655418", "phone": "7853253300", "website_url": null, "state": "Kansas", "street": "310 C St"}, {"id": "4c8685f6-66d8-48c8-a80a-37edc0c7fa79", "name": "Karbach Brewing Co", "brewery_type": "large", "address_1": "2032 Karbach St", "address_2": null, "address_3": null, "city": "Houston", "state_province": "Texas", "postal_code": "77092-8406", "country": "United States", "longitude": "-95.4605283", "latitude": "29.8063812", "phone": null, "website_url": "https://www.karbachbrewing.com/", "state": "Texas", "street": "2032 Karbach St"}, {"id": "85b50705-5285-477e-9858-1dd45a00b6f9", "name": "Karetas Brewing", "brewery_type": "contract", "address_1": "1480 Industrial Dr Ste C", "address_2": null, "address_3": null, "city": "Itasca", "state_province": "Illinois", "postal_code": "60143-1857", "country": "United States", "longitude": null, "latitude": null, "phone": "3128788720", "website_url": "http://www.karetasbeer.com", "state": "Illinois", "street": "1480 Industrial Dr Ste C"}, {"id": "4e3b6909-1ec5-4ffe-b86a-d4ddaa7ef86f", "name": "Karl Strauss Brewing Co", "brewery_type": "regional", "address_1": "5985 Santa Fe St", "address_2": null, "address_3": null, "city": "San Diego", "state_province": "California", "postal_code": "92109-1623", "country": "United States", "longitude": "-117.231429", "latitude": "32.832579", "phone": "8582732739", "website_url": "http://www.karlstrauss.com", "state": "California", "street": "5985 Santa Fe St"}, {"id": "91d41bbf-1feb-429e-acf6-58a94353cf64", "name": "Karl Strauss Brewing Co", "brewery_type": "brewpub", "address_1": "40868 Winchester Rd", "address_2": null, "address_3": null, "city": "Temecula", "state_province": "California", "postal_code": "92591-5521", "country": "United States", "longitude": "-117.1584479", "latitude": "33.52586892", "phone": "9512257963", "website_url": "http://www.karlstrauss.com", "state": "California", "street": "40868 Winchester Rd"}, {"id": "44dfe5e3-7687-4e3e-a660-9daefbb60cea", "name": "Karl Strauss Brewing Co - 4S Ranch", "brewery_type": "brewpub", "address_1": "10448 Reserve Dr", "address_2": null, "address_3": null, "city": "San Diego", "state_province": "California", "postal_code": "92127-3510", "country": "United States", "longitude": "-117.113249", "latitude": "33.021301", "phone": "8582732739", "website_url": "http://www.karlstrauss.com", "state": "California", "street": "10448 Reserve Dr"}, {"id": "0ff9bd30-9fe3-4e27-af3d-e64ebafe8b45", "name": "Karl Strauss Brewing Co - Anaheim", "brewery_type": "brewpub", "address_1": "2390 E Orangewood Ave Ste 100", "address_2": null, "address_3": null, "city": "Anaheim", "state_province": "California", "postal_code": "92806-6141", "country": "United States", "longitude": "-117.8823969", "latitude": "33.79591925", "phone": "7149401772", "website_url": null, "state": "California", "street": "2390 E Orangewood Ave Ste 100"}, {"id": "0ad5f944-b41f-4270-9c09-a1ef48cde47c", "name": "Karl Strauss Brewing Co - Carlsbad", "brewery_type": "brewpub", "address_1": "5801 Armada Dr", "address_2": null, "address_3": null, "city": "Carlsbad", "state_province": "California", "postal_code": "92008-4609", "country": "United States", "longitude": "-117.314236", "latitude": "33.124447", "phone": "7604312739", "website_url": "http://www.karlstrauss.com", "state": "California", "street": "5801 Armada Dr"}, {"id": "e7260379-82c5-4054-97f2-19a4b8549ba6", "name": "Karl Strauss Brewing Co - Costa Mesa", "brewery_type": "brewpub", "address_1": "901 S Coast Dr Ste A", "address_2": null, "address_3": null, "city": "Costa Mesa", "state_province": "California", "postal_code": "92626-7790", "country": "United States", "longitude": "-117.8958305", "latitude": "33.68983637", "phone": "7145462739", "website_url": "http://www.karlstrauss.com", "state": "California", "street": "901 S Coast Dr Ste A"}, {"id": "e5ad3941-dc5d-4283-bb52-cea08d3da6c3", "name": "Karl Strauss Brewing Co - Downtown", "brewery_type": "brewpub", "address_1": "1157 Columbia St", "address_2": null, "address_3": null, "city": "San Diego", "state_province": "California", "postal_code": "92101-3511", "country": "United States", "longitude": "-117.1672838", "latitude": "32.71730086", "phone": "6192342739", "website_url": "http://www.karlstrauss.com", "state": "California", "street": "1157 Columbia St"}, {"id": "defbc961-6100-4d7c-a4c1-8c99fd794931", "name": "Karl Strauss Brewing Co - Downtown Los Angeles", "brewery_type": "brewpub", "address_1": "600 Wilshire Blvd Ste 100", "address_2": null, "address_3": null, "city": "Los Angeles", "state_province": "California", "postal_code": "90017-3212", "country": "United States", "longitude": "-118.256154", "latitude": "34.047978", "phone": "2132282739", "website_url": null, "state": "California", "street": "600 Wilshire Blvd Ste 100"}, {"id": "39d6b9f0-85b5-41ee-a429-68de5ddf9d1d", "name": "Karl Strauss Brewing Co - La Jolla", "brewery_type": "brewpub", "address_1": "1044 Wall St", "address_2": null, "address_3": null, "city": "La Jolla", "state_province": "California", "postal_code": "92037-4437", "country": "United States", "longitude": "-117.2742141", "latitude": "32.84679009", "phone": "8585512739", "website_url": "http://www.karlstrauss.com", "state": "California", "street": "1044 Wall St"}, {"id": "b779fc08-50bb-4a3f-8ac0-314c10c686b7", "name": "Karl Strauss Brewing Co - Sorrento Mesa", "brewery_type": "brewpub", "address_1": "9675 Scranton Rd", "address_2": null, "address_3": null, "city": "San Diego", "state_province": "California", "postal_code": "92121-1761", "country": "United States", "longitude": "-117.2027066", "latitude": "32.89634566", "phone": "8585872739", "website_url": "http://www.karlstrauss.com", "state": "California", "street": "9675 Scranton Rd"}, {"id": "7dce6b5c-feab-4ac4-8ce2-29a9fb62d83d", "name": "Karl Strauss Brewing Co - Universal CityWalk", "brewery_type": "brewpub", "address_1": "1000 Universal Studios Blvd", "address_2": null, "address_3": null, "city": "Universal City", "state_province": "California", "postal_code": "91608-1008", "country": "United States", "longitude": "-118.3529336", "latitude": "34.1322144", "phone": "8187532739", "website_url": "http://www.karlstrauss.com", "state": "California", "street": "1000 Universal Studios Blvd"}, {"id": "07070d73-6cfd-409b-ac55-e8bb95d19884", "name": "Karst Brewing LLC", "brewery_type": "micro", "address_1": "315 1st St", "address_2": null, "address_3": null, "city": "Fountain", "state_province": "Minnesota", "postal_code": "55935-8816", "country": "United States", "longitude": "-92.13521386", "latitude": "43.73997404", "phone": "6127476367", "website_url": "http://www.karstbrewed.com", "state": "Minnesota", "street": "315 1st St"}, {"id": "89f65ec7-dd3b-4449-a9fe-3cc3b16ce365", "name": "Kassik's Brewery", "brewery_type": "micro", "address_1": "47160 Spruce Haven St", "address_2": null, "address_3": null, "city": "Kenai", "state_province": "Alaska", "postal_code": "99611-9677", "country": "United States", "longitude": "-151.307721", "latitude": "60.663773", "phone": null, "website_url": null, "state": "Alaska", "street": "47160 Spruce Haven St"}, {"id": "0e970da0-ccda-4d50-a8bf-4e84181cc790", "name": "Kastaway Brewing Co", "brewery_type": "planning", "address_1": null, "address_2": null, "address_3": null, "city": "Katy", "state_province": "Texas", "postal_code": "77493", "country": "United States", "longitude": null, "latitude": null, "phone": null, "website_url": null, "state": "Texas", "street": null}, {"id": "0ec19b32-9ede-4830-be24-e417a317ef43", "name": "Katabatic Brewing Co", "brewery_type": "micro", "address_1": "117 W Park St", "address_2": null, "address_3": null, "city": "Livingston", "state_province": "Montana", "postal_code": "59047-2626", "country": "United States", "longitude": null, "latitude": null, "phone": "4063332855", "website_url": "http://www.katabaticbrewing.com", "state": "Montana", "street": "117 W Park St"}, {"id": "ca8100c4-aeed-4481-bc51-10d2fcd733b6", "name": "Kathrin's Biergarten", "brewery_type": "brewpub", "address_1": "4810 Granite Dr Ste 1A", "address_2": null, "address_3": null, "city": "Rocklin", "state_province": "California", "postal_code": "95677", "country": "United States", "longitude": "-121.2241825", "latitude": "38.79092485", "phone": "9162517502", "website_url": "http://www.kathrinsbiergarten.com", "state": "California", "street": "4810 Granite Dr Ste 1A"}, {"id": "581746ff-1964-4836-8176-966bf9cd3bd7", "name": "Kauai Beer Company", "brewery_type": "brewpub", "address_1": "4265 Rice St", "address_2": null, "address_3": null, "city": "Lihue", "state_province": "Hawaii", "postal_code": "96766", "country": "United States", "longitude": "-159.3647876", "latitude": "21.9722854", "phone": "8082452337", "website_url": "http://www.kauaibeer.com", "state": "Hawaii", "street": "4265 Rice St"}, {"id": "9374fec3-c538-4132-a158-9543aedd32df", "name": "Kauai Island Brewery", "brewery_type": "brewpub", "address_1": "4350 Waialo Rd", "address_2": null, "address_3": null, "city": "Eleele", "state_province": "Hawaii", "postal_code": "96705", "country": "United States", "longitude": "-159.586522", "latitude": "21.901641", "phone": "8083350006", "website_url": "http://www.kauaiislandbrewing.com", "state": "Hawaii", "street": "4350 Waialo Rd"}, {"id": "0b07d04e-8ede-4294-aeb7-a9cc759fd537", "name": "Kaweah Brewing Co.", "brewery_type": "micro", "address_1": "1054 E Walnut Ave", "address_2": null, "address_3": null, "city": "Tulare", "state_province": "California", "postal_code": "93274", "country": "United States", "longitude": "-119.3349798", "latitude": "36.19307993", "phone": "5599725573", "website_url": "http://www.kaweahbrewing.com", "state": "California", "street": "1054 E Walnut Ave"}, {"id": "c0eadf1a-e33e-4721-8e7c-d9e1c6835582", "name": "Keegan Ales", "brewery_type": "micro", "address_1": "20 Saint James St", "address_2": null, "address_3": null, "city": "Kingston", "state_province": "New York", "postal_code": "12401-4534", "country": "United States", "longitude": "-74.012151", "latitude": "41.931636", "phone": "8453312739", "website_url": "http://www.keeganales.com", "state": "New York", "street": "20 Saint James St"}, {"id": "4abee17c-99ad-42b6-ab38-348e1ec56c19", "name": "Keen Brewing", "brewery_type": "planning", "address_1": null, "address_2": null, "address_3": null, "city": "Jacksonville", "state_province": "Florida", "postal_code": "32204-1806", "country": "United States", "longitude": null, "latitude": null, "phone": "9044698266", "website_url": null, "state": "Florida", "street": null}, {"id": "42acde68-870f-4212-ab63-12e3ec609dd8", "name": "Keg & Lantern Brewing Co", "brewery_type": "brewpub", "address_1": "97 Nassau Ave", "address_2": null, "address_3": null, "city": "Brooklyn", "state_province": "New York", "postal_code": "11222-3081", "country": "United States", "longitude": "-73.95031963", "latitude": "40.7241037", "phone": "7183895050", "website_url": "http://www.kegandlanternbrooklyn.com", "state": "New York", "street": "97 Nassau Ave"}, {"id": "cd1bd913-e951-4679-9314-4ed1ad3a7736", "name": "Keg Creek Brewing Company", "brewery_type": "micro", "address_1": "22381 221st S", "address_2": null, "address_3": null, "city": "Glenwood", "state_province": "Iowa", "postal_code": "51534-5183", "country": "United States", "longitude": "-95.7611617", "latitude": "41.0257584", "phone": "7125209029", "website_url": "http://www.kegcreekbrewing.com", "state": "Iowa", "street": "22381 221st S"}, {"id": "bbc7ea1e-ff95-4eb7-b896-8b98686af71d", "name": "Keg Grove Brewing Company", "brewery_type": "micro", "address_1": "712 E Empire St Ste 2", "address_2": null, "address_3": null, "city": "Bloomington", "state_province": "Illinois", "postal_code": "61701-3252", "country": "United States", "longitude": null, "latitude": null, "phone": null, "website_url": "http://keggrovebrewing.com", "state": "Illinois", "street": "712 E Empire St Ste 2"}]