[{"id": "2caa7307-e994-482a-a10f-f82087ff582f", "name": "Hungry Hollow Brewing Company", "brewery_type": "micro", "address_1": "14396 FR 2140", "address_2": null, "address_3": null, "city": "Cassville", "state_province": "Missouri", "postal_code": "65625", "country": "United States", "longitude": "-93.831482", "latitude": "36.757718", "phone": "4173422072", "website_url": "http://www.hungryhollowbrewing.com", "state": "Missouri", "street": "14396 FR 2140"}, {"id": "4b8ade34-41a6-4afa-a757-b37dbea62e57", "name": "Hunter Gatherer Brewery and Alehouse", "brewery_type": "brewpub", "address_1": "900 Main St", "address_2": null, "address_3": null, "city": "Columbia", "state_province": "South Carolina", "postal_code": "29201-3964", "country": "United States", "longitude": "-81.0315874", "latitude": "33.997366", "phone": "8037480540", "website_url": "http://www.huntergathererbrewery.com", "state": "South Carolina", "street": "900 Main St"}, {"id": "a488e5b0-f8ac-43b0-9851-e9c21b10568d", "name": "Hunter's Ale House", "brewery_type": "brewpub", "address_1": "4855 E Blue Grass Rd", "address_2": null, "address_3": null, "city": "Mount Pleasant", "state_province": "Michigan", "postal_code": "48858-7527", "country": "United States", "longitude": null, "latitude": null, "phone": "9897792626", "website_url": null, "state": "Michigan", "street": "4855 E Blue Grass Rd"}, {"id": "1ae079e7-be69-48e8-b4c8-efb3a4cfcc91", "name": "Hunter's Brewing", "brewery_type": "brewpub", "address_1": "1535 S Calumet Rd", "address_2": null, "address_3": null, "city": "Chesterton", "state_province": "Indiana", "postal_code": "46304-3301", "country": "United States", "longitude": "-87.0475184", "latitude": "41.5971593", "phone": "2197286729", "website_url": null, "state": "Indiana", "street": "1535 S Calumet Rd"}, {"id": "54f06f0e-9f92-40c1-9920-6a87db8626bb", "name": "Huntington Beach Beer Co", "brewery_type": "brewpub", "address_1": "201 Main St Ste E", "address_2": null, "address_3": null, "city": "Huntington Beach", "state_province": "California", "postal_code": "92648-8110", "country": "United States", "longitude": "-118.0012223", "latitude": "33.65845972", "phone": "7149605343", "website_url": "http://www.hbbeerco.com", "state": "California", "street": "201 Main St Ste E"}, {"id": "2db716e2-28fb-4db3-95de-11a5d86a29d6", "name": "Hunyuck Brew Co.", "brewery_type": "planning", "address_1": null, "address_2": null, "address_3": null, "city": "Oakdale", "state_province": "Minnesota", "postal_code": "55128-2276", "country": "United States", "longitude": null, "latitude": null, "phone": "6514915066", "website_url": "http://www.hunyuckbrewco.com", "state": "Minnesota", "street": null}, {"id": "48c4fc12-7c05-4a6a-8771-135bd810f38a", "name": "Hurst Brewery", "brewery_type": "brewpub", "address_1": "College Lane", "address_2": null, "address_3": null, "city": "Hassocks", "state_province": "West Sussex", "postal_code": "BN6 9JT", "country": "England", "longitude": "-0.161461", "latitude": "50.941632", "phone": "7866438953", "website_url": "http://www.hurstbrewery.com/", "state": "West Sussex", "street": "College Lane"}, {"id": "390f8036-dad5-49da-845e-2f93db0cc19d", "name": "Huske Hardware House Brewing Co", "brewery_type": "brewpub", "address_1": "405 Hay St", "address_2": null, "address_3": null, "city": "Fayetteville", "state_province": "North Carolina", "postal_code": "28301-5537", "country": "United States", "longitude": "-78.88249131", "latitude": "35.05393051", "phone": "9104265650", "website_url": "http://www.huskehardware.com", "state": "North Carolina", "street": "405 Hay St"}, {"id": "8c10201d-d42a-4573-9384-dd75d08255bd", "name": "Huss Brewing", "brewery_type": "micro", "address_1": "1520 W Mineral Rd Ste 102", "address_2": null, "address_3": null, "city": "Tempe", "state_province": "Arizona", "postal_code": "85283-4343", "country": "United States", "longitude": null, "latitude": null, "phone": "4802647611", "website_url": null, "state": "Arizona", "street": "1520 W Mineral Rd Ste 102"}, {"id": "601b1ef6-a25a-4a22-998b-44eb110d0ca1", "name": "Hutton & Smith Brewing Company", "brewery_type": "micro", "address_1": "431 E Martin Luther King Blvd # 120", "address_2": null, "address_3": null, "city": "Chattanooga", "state_province": "Tennessee", "postal_code": "37403", "country": "United States", "longitude": null, "latitude": null, "phone": "4237603600", "website_url": "http://www.huttonandsmithbrewing.com", "state": "Tennessee", "street": "431 E Martin Luther King Blvd # 120"}, {"id": "8dd50f12-b4db-4fc1-865a-345be886c67f", "name": "HWY 50 Brewery", "brewery_type": "planning", "address_1": null, "address_2": null, "address_3": null, "city": "Camino", "state_province": "California", "postal_code": "95709", "country": "United States", "longitude": "-120.6749302", "latitude": "38.7382366", "phone": null, "website_url": "http://www.hwy50brewery.com", "state": "California", "street": null}, {"id": "7b6d1417-b858-4ec3-9b7a-c54b738e8750", "name": "Hyde Brewing", "brewery_type": "brewpub", "address_1": "2911 Griffith St", "address_2": null, "address_3": null, "city": "Charlotte", "state_province": "North Carolina", "postal_code": "28203-5429", "country": "United States", "longitude": "-80.86910602", "latitude": "35.20083417", "phone": "7046095363", "website_url": "http://hydebrewing.com/", "state": "North Carolina", "street": "2911 Griffith St"}, {"id": "d7f413d6-f2ac-46d2-a2da-6ec77476459b", "name": "Hyde Park Brewing Co", "brewery_type": "micro", "address_1": "4076 Albany Post Rd", "address_2": null, "address_3": null, "city": "Hyde Park", "state_province": "New York", "postal_code": "12538-1934", "country": "United States", "longitude": "-73.93007747", "latitude": "41.76674824", "phone": "8452298277", "website_url": "http://www.hydeparkbrewing.com", "state": "New York", "street": "4076 Albany Post Rd"}, {"id": "6e978e0d-a64e-42de-9c9d-d04b5da5b021", "name": "Hyperion Brewing", "brewery_type": "micro", "address_1": "1740 N Main St", "address_2": null, "address_3": null, "city": "Jacksonville", "state_province": "Florida", "postal_code": "32206-4404", "country": "United States", "longitude": null, "latitude": null, "phone": "9045185131", "website_url": "http://www.hyperionbrewing.com", "state": "Florida", "street": "1740 N Main St"}, {"id": "973edf5b-0239-43fa-9c3d-640bb92a5225", "name": "Hysteria Brewing Company", "brewery_type": "micro", "address_1": "9570 Berger Rd Ste J", "address_2": null, "address_3": null, "city": "Columbia", "state_province": "Maryland", "postal_code": "21046-1559", "country": "United States", "longitude": null, "latitude": null, "phone": "4103608319", "website_url": "http://www.hysteriabrewing.com", "state": "Maryland", "street": "9570 Berger Rd Ste J"}, {"id": "a1c9761d-6656-4e21-919e-8da7c2767842", "name": "I & I Brewing", "brewery_type": "micro", "address_1": "5135 Edison Ave Ste 1", "address_2": null, "address_3": null, "city": "Chino", "state_province": "California", "postal_code": "91710-5773", "country": "United States", "longitude": "-117.6926224", "latitude": "33.99719342", "phone": "9095913915", "website_url": "http://www.iandibrewing.com", "state": "California", "street": "5135 Edison Ave Ste 1"}, {"id": "ad71e208-40a4-4f53-b3a5-a92df88d83f7", "name": "IBC Brewery & Tasting Room", "brewery_type": "micro", "address_1": "3200 St Lucie Blvd", "address_2": null, "address_3": null, "city": "Fort Pierce", "state_province": "Florida", "postal_code": "34946-6761", "country": "United States", "longitude": null, "latitude": null, "phone": "3055089093", "website_url": null, "state": "Florida", "street": "3200 St Lucie Blvd"}, {"id": "8cae70ac-4b7d-4e78-9252-aa57d973dac9", "name": "Icarus Brewing Company", "brewery_type": "micro", "address_1": "1790 Swarthmore Ave Unit 3 Lot 2", "address_2": null, "address_3": null, "city": "Lakewood", "state_province": "New Jersey", "postal_code": "08701-4528", "country": "United States", "longitude": null, "latitude": null, "phone": null, "website_url": "http://www.icarusbrewing.com", "state": "New Jersey", "street": "1790 Swarthmore Ave Unit 3 Lot 2"}, {"id": "01ecbbdb-475c-40d0-a336-9951ac60e52e", "name": "Ice Harbor Brewing Company", "brewery_type": "brewpub", "address_1": "206 N Benton St Ste C", "address_2": null, "address_3": null, "city": "Kennewick", "state_province": "Washington", "postal_code": "99336-3608", "country": "United States", "longitude": "-119.119238", "latitude": "46.2111", "phone": "5095825340", "website_url": "http://www.iceharbor.com", "state": "Washington", "street": "206 N Benton St Ste C"}, {"id": "feb525c5-293c-4e08-88b7-0005da6e8bea", "name": "Ice Harbor Brewing Company at the Marina", "brewery_type": "brewpub", "address_1": "350 Clover Island Dr", "address_2": null, "address_3": null, "city": "Kennewick", "state_province": "Washington", "postal_code": "99336-3678", "country": "United States", "longitude": "-119.111368", "latitude": "46.217631", "phone": "5095863181", "website_url": "http://www.iceharbor.com", "state": "Washington", "street": "350 Clover Island Dr"}, {"id": "0f79930c-9395-4d3d-9611-a9b9f16c759a", "name": "Icebox Brewing LLC", "brewery_type": "planning", "address_1": null, "address_2": null, "address_3": null, "city": "Las Cruces", "state_province": "New Mexico", "postal_code": "88007-4722", "country": "United States", "longitude": null, "latitude": null, "phone": "5755267129", "website_url": null, "state": "New Mexico", "street": null}, {"id": "c2ad7c70-841a-47a0-b863-271f292ab056", "name": "Icewind Brewing", "brewery_type": "micro", "address_1": "349 Knutson St Unit B", "address_2": null, "address_3": null, "city": "Mapleton", "state_province": "North Dakota", "postal_code": "58059-4065", "country": "United States", "longitude": "-97.04609108", "latitude": "46.88200095", "phone": "7012033579", "website_url": "http://www.icewindbrewing.com", "state": "North Dakota", "street": "349 Knutson St Unit B"}, {"id": "3581f90d-ae3d-4608-8f26-1d695d811946", "name": "Icicle Brewing Co", "brewery_type": "brewpub", "address_1": "935 Front St", "address_2": null, "address_3": null, "city": "Leavenworth", "state_province": "Washington", "postal_code": "98826-1427", "country": "United States", "longitude": "-120.6597193", "latitude": "47.5962501", "phone": "5095482739", "website_url": "http://www.iciclebrewing.com", "state": "Washington", "street": "935 Front St"}, {"id": "5a0c4ee1-3be0-43fa-8bbd-45616b6554d2", "name": "Iconyc Brewing Company", "brewery_type": "micro", "address_1": "45-13 34th Ave", "address_2": null, "address_3": null, "city": "Long Island City", "state_province": "New York", "postal_code": "11101-1041", "country": "United States", "longitude": null, "latitude": null, "phone": "3473421360", "website_url": "http://www.iconycbrewing.com", "state": "New York", "street": "45-13 34th Ave"}, {"id": "4614e14e-68ec-42b1-b972-598da619bf51", "name": "Icy Strait Brewery", "brewery_type": "micro", "address_1": "286 Front St", "address_2": null, "address_3": null, "city": "Hoonah", "state_province": "Alaska", "postal_code": "99829", "country": "United States", "longitude": "-135.4464887", "latitude": "58.11031874", "phone": "9077235482", "website_url": "http://icystraitbrewing.company", "state": "Alaska", "street": "286 Front St"}, {"id": "27d4f742-12fa-46d0-b27f-a42af72e1180", "name": "Idaho Brewing Co", "brewery_type": "micro", "address_1": "775 S Capital Ave", "address_2": null, "address_3": null, "city": "Idaho Falls", "state_province": "Idaho", "postal_code": "83402-3965", "country": "United States", "longitude": "-112.0459845", "latitude": "43.48724009", "phone": "2085897233", "website_url": "http://www.idahobrewing.com", "state": "Idaho", "street": "775 S Capital Ave"}, {"id": "6edb4abe-eb25-493c-a514-519cce61a91b", "name": "IDK Beer Co", "brewery_type": "planning", "address_1": null, "address_2": null, "address_3": null, "city": "Lakewood", "state_province": "Colorado", "postal_code": "80228-4251", "country": "United States", "longitude": null, "latitude": null, "phone": null, "website_url": null, "state": "Colorado", "street": null}, {"id": "ac61b0f1-cb04-4362-9446-ad4ade13ec74", "name": "Idle Hands Craft Ales", "brewery_type": "micro", "address_1": "89 Commercial St", "address_2": null, "address_3": null, "city": "Malden", "state_province": "Massachusetts", "postal_code": "02148-5509", "country": "United States", "longitude": "-71.07473084", "latitude": "42.4243819", "phone": "7813336070", "website_url": "http://www.idlehandscraftales.com", "state": "Massachusetts", "street": "89 Commercial St"}, {"id": "78f847f7-1c22-4110-82e8-399244097e38", "name": "Idle Vine Brewing Company", "brewery_type": "micro", "address_1": "16920 Joe Barbee Dr", "address_2": null, "address_3": null, "city": "Round Rock", "state_province": "Texas", "postal_code": "78664-2373", "country": "United States", "longitude": null, "latitude": null, "phone": "5125273235", "website_url": "http://www.IdleVineBrewery.com", "state": "Texas", "street": "16920 Joe Barbee Dr"}, {"id": "16d20128-a551-4eb6-bb79-71b9c2943e35", "name": "Idletyme Brewing Company", "brewery_type": "brewpub", "address_1": "1859 Mountain Rd", "address_2": null, "address_3": null, "city": "Stowe", "state_province": "Vermont", "postal_code": "05672-4890", "country": "United States", "longitude": "-72.698401", "latitude": "44.473833", "phone": "8022534765", "website_url": "http://www.idletymebrewing.com", "state": "Vermont", "street": "1859 Mountain Rd"}, {"id": "3a08cc13-e168-491d-8ae9-8de349b438eb", "name": "Idol Beer Works", "brewery_type": "micro", "address_1": "100 S Sacramento St", "address_2": null, "address_3": null, "city": "Lodi", "state_province": "California", "postal_code": "95240-3526", "country": "United States", "longitude": "-121.2722", "latitude": "38.1328", "phone": null, "website_url": "http://www.idolbeerworks.com", "state": "California", "street": "100 S Sacramento St"}, {"id": "203fa65b-62d0-4e3c-bd62-48e06b9fb22f", "name": "Idyll Hounds Brewing Company", "brewery_type": "micro", "address_1": "845 Serenoa Rd", "address_2": null, "address_3": null, "city": "Santa Rosa Beach", "state_province": "Florida", "postal_code": "32459-5019", "country": "United States", "longitude": null, "latitude": null, "phone": null, "website_url": null, "state": "Florida", "street": "845 Serenoa Rd"}, {"id": "4b96eb3a-b551-4204-9752-ffbf4c3592d7", "name": "Idyllwild Brewpub", "brewery_type": "brewpub", "address_1": "54423 Village Center Dr", "address_2": null, "address_3": null, "city": "Idyllwild", "state_province": "California", "postal_code": "92549", "country": "United States", "longitude": "-116.711296", "latitude": "33.7436195", "phone": "9516590163", "website_url": "http://www.idyllwildbrewpub.com", "state": "California", "street": "54423 Village Center Dr"}, {"id": "28e57039-a0ad-4091-aa1f-d7ddb0297002", "name": "Idylwilde Brewing", "brewery_type": "micro", "address_1": "116 Fawn Dr", "address_2": null, "address_3": null, "city": "Carbondale", "state_province": "Colorado", "postal_code": "81623-9703", "country": "United States", "longitude": null, "latitude": null, "phone": "9702746332", "website_url": "http://idylwildebrewing.com", "state": "Colorado", "street": "116 Fawn Dr"}, {"id": "f8866c52-c47d-4243-96db-9347944077fb", "name": "Iechyd Da Brewing", "brewery_type": "brewpub", "address_1": "317 N Main St", "address_2": null, "address_3": null, "city": "Elkhart", "state_province": "Indiana", "postal_code": "46516-3034", "country": "United States", "longitude": "-85.97531332", "latitude": "41.69004065", "phone": "5742930506", "website_url": "http://www.iechyddabrewingcompany.com", "state": "Indiana", "street": "317 N Main St"}, {"id": "ab91cb99-55d9-48e4-96c9-77593a53a78c", "name": "Ignite Brewing Company, Ltd.", "brewery_type": "micro", "address_1": "600 W Tuscarawas Ave", "address_2": null, "address_3": null, "city": "Barberton", "state_province": "Ohio", "postal_code": "44203-2460", "country": "United States", "longitude": "-81.61268", "latitude": "41.012866", "phone": "3306966881", "website_url": "http://www.facebook.com/Ignitebrewingcompany", "state": "Ohio", "street": "600 W Tuscarawas Ave"}, {"id": "0a187cd6-eafd-4c4e-869a-78d4bd9f59fc", "name": "Ill Mannered Brewing Company", "brewery_type": "micro", "address_1": "38 Grace Dr", "address_2": null, "address_3": null, "city": "Powell", "state_province": "Ohio", "postal_code": "43065-8466", "country": "United States", "longitude": "-83.0740121", "latitude": "40.1635259", "phone": "614-859-6819", "website_url": "http://www.illmanneredbeer.com/", "state": "Ohio", "street": "38 Grace Dr"}, {"id": "c6e87f2a-227c-4549-ab73-aafcb5fd1fef", "name": "ILL STYLEZ BREWING", "brewery_type": "planning", "address_1": null, "address_2": null, "address_3": null, "city": "Freeport", "state_province": "Illinois", "postal_code": "61032-4761", "country": "United States", "longitude": null, "latitude": null, "phone": null, "website_url": null, "state": "Illinois", "street": null}, {"id": "22e59bb4-690e-41f4-9d63-b65ad57452b1", "name": "Illuminated Brew Works", "brewery_type": "micro", "address_1": "415 N Sangamon St", "address_2": null, "address_3": null, "city": "Chicago", "state_province": "Illinois", "postal_code": "60642-6546", "country": "United States", "longitude": "-87.65074933", "latitude": "41.88958325", "phone": "7737262874", "website_url": "http://www.ibw-chicago.com", "state": "Illinois", "street": "415 N Sangamon St"}, {"id": "61d70479-54b0-4c2a-ba13-b8d175ba6493", "name": "Illuminati Brewing Company", "brewery_type": "closed", "address_1": "3950 Hammer Dr Ste 101", "address_2": null, "address_3": null, "city": "Bellingham", "state_province": "Washington", "postal_code": "98226-7776", "country": "United States", "longitude": "-122.4560056", "latitude": "48.7838573", "phone": "3602207072", "website_url": "http://www.illuminatibrewing.com", "state": "Washington", "street": "3950 Hammer Dr Ste 101"}, {"id": "302e8ee4-1060-490c-8d68-f8dcc277d5d6", "name": "Imagine Nation Brewing", "brewery_type": "micro", "address_1": "1151 W Broadway St", "address_2": null, "address_3": null, "city": "Missoula", "state_province": "Montana", "postal_code": "59802-3916", "country": "United States", "longitude": "-114.0099097", "latitude": "46.8766353", "phone": "4069261251", "website_url": "http://www.imaginenationbrewing.com", "state": "Montana", "street": "1151 W Broadway St"}, {"id": "81291016-df53-43a5-9e00-21269ac6b282", "name": "IMBIB Custom Brews", "brewery_type": "micro", "address_1": "785 E 2nd St", "address_2": null, "address_3": null, "city": "Reno", "state_province": "Nevada", "postal_code": "89502-1018", "country": "United States", "longitude": "-119.8010403", "latitude": "39.52744792", "phone": "7753033385", "website_url": "http://www.imbib.beer", "state": "Nevada", "street": "785 E 2nd St"}, {"id": "ea885340-1209-4300-a66e-d272b929c6c5", "name": "Immersion Brewing", "brewery_type": "brewpub", "address_1": "550 SW Industrial Way", "address_2": null, "address_3": null, "city": "Bend", "state_province": "Oregon", "postal_code": "97702-1084", "country": "United States", "longitude": "-121.3155231", "latitude": "44.05100445", "phone": "5416337821", "website_url": "http://www.imbrewing.com", "state": "Oregon", "street": "550 SW Industrial Way"}, {"id": "62baf078-a996-4fd5-8705-256badd33c0f", "name": "Imminent Brewing", "brewery_type": "micro", "address_1": "519 Division St S Unit 2", "address_2": null, "address_3": null, "city": "Northfield", "state_province": "Minnesota", "postal_code": "55057-2021", "country": "United States", "longitude": null, "latitude": null, "phone": "5076462327", "website_url": "http://www.imminentbrewing.com", "state": "Minnesota", "street": "519 Division St S Unit 2"}, {"id": "507ef015-aa10-4ec9-9f8a-0889e1bb3c9e", "name": "Immortal Brewing Company", "brewery_type": "planning", "address_1": null, "address_2": null, "address_3": null, "city": "Las Vegas", "state_province": "Nevada", "postal_code": "89183-5893", "country": "United States", "longitude": null, "latitude": null, "phone": null, "website_url": "http://www.immortalbrewco.com", "state": "Nevada", "street": null}, {"id": "b93a7663-6121-4458-ba91-d8e1c045d0b4", "name": "Imperial Oak Brewing Co", "brewery_type": "micro", "address_1": "501 Willow Blvd Ste 108", "address_2": null, "address_3": null, "city": "Willow Springs", "state_province": "Illinois", "postal_code": "60480-1710", "country": "United States", "longitude": "-87.879257", "latitude": "41.73187", "phone": "7083305096", "website_url": "http://www.imperialoakbrewing.com", "state": "Illinois", "street": "501 Willow Blvd Ste 108"}, {"id": "1cf4be70-96b7-4c19-962a-917e758a2343", "name": "Imperium Brewing", "brewery_type": "planning", "address_1": null, "address_2": null, "address_3": null, "city": "Hickory", "state_province": "Pennsylvania", "postal_code": "15340-1135", "country": "United States", "longitude": null, "latitude": null, "phone": "4129991077", "website_url": "http://imperiumbrewing.com", "state": "Pennsylvania", "street": null}, {"id": "2913aacb-935e-49a5-94cc-8bfa9121e015", "name": "Imprint Beer Company", "brewery_type": "micro", "address_1": "1500 Industry Rd Ste O", "address_2": null, "address_3": null, "city": "Hatfield", "state_province": "Pennsylvania", "postal_code": "19440-3271", "country": "United States", "longitude": null, "latitude": null, "phone": "2676403004", "website_url": "http://www.imprintbeer.com", "state": "Pennsylvania", "street": "1500 Industry Rd Ste O"}, {"id": "2c4ebd88-700d-4707-bd5f-af7dcb121f75", "name": "In the Loop Brewing", "brewery_type": "micro", "address_1": "3338 Land O Lakes Blvd", "address_2": null, "address_3": null, "city": "Land O Lakes", "state_province": "Florida", "postal_code": "34639-4408", "country": "United States", "longitude": "-82.46279799", "latitude": "28.20530858", "phone": "8139979189", "website_url": "http://www.intheloopbrewingcompany.com", "state": "Florida", "street": "3338 Land O Lakes Blvd"}, {"id": "257bd673-0171-49b2-bf70-f9400cd08c86", "name": "In the Shadow Brewing", "brewery_type": "micro", "address_1": "19731 Old Burn Rd", "address_2": null, "address_3": null, "city": "Arlington", "state_province": "Washington", "postal_code": "98223", "country": "United States", "longitude": "-122.1126057", "latitude": "48.17567366", "phone": "4258769253", "website_url": "https://www.itsbrewing.com", "state": "Washington", "street": "19731 Old Burn Rd"}, {"id": "80edf45a-d8dd-458e-9e56-5ca871a77e80", "name": "In-Law Brewing Co", "brewery_type": "micro", "address_1": "5868 County Route 14", "address_2": null, "address_3": null, "city": "Chase Mills", "state_province": "New York", "postal_code": "13621-3102", "country": "United States", "longitude": "-75.04830452", "latitude": "44.88140997", "phone": null, "website_url": "http://www.in-lawbrewingcompany.com", "state": "New York", "street": "5868 County Route 14"}, {"id": "cfc5db6b-e633-4f32-bc38-eab080adfbd3", "name": "Inbound Brewco", "brewery_type": "micro", "address_1": "701 N 5th St", "address_2": null, "address_3": null, "city": "Minneapolis", "state_province": "Minnesota", "postal_code": "55401-1124", "country": "United States", "longitude": "-93.28068766", "latitude": "44.98529275", "phone": "6126158243", "website_url": "http://www.inboundbrew.co", "state": "Minnesota", "street": "701 N 5th St"}, {"id": "c59530fc-3d03-4185-b54e-870d616f379e", "name": "Inc 82 Brewing", "brewery_type": "brewpub", "address_1": "7370 San Ramon Rd", "address_2": null, "address_3": null, "city": "Dublin", "state_province": "California", "postal_code": "94568-2336", "country": "United States", "longitude": "-121.9377474", "latitude": "37.7059588", "phone": "9255608344", "website_url": "http://www.inc82.com", "state": "California", "street": "7370 San Ramon Rd"}, {"id": "5d027860-dc1f-407a-9d80-b887f6ec3b84", "name": "Incendiary Brewing Company", "brewery_type": "planning", "address_1": null, "address_2": null, "address_3": null, "city": "Winston Salem", "state_province": "North Carolina", "postal_code": "27101", "country": "United States", "longitude": null, "latitude": null, "phone": "3369999999", "website_url": "http://www.incendiarybrewing.com", "state": "North Carolina", "street": null}, {"id": "391b3231-8293-4030-a8ff-d0c2a2af6e0e", "name": "Incline Brewing", "brewery_type": "planning", "address_1": null, "address_2": null, "address_3": null, "city": "Larkspur", "state_province": "Colorado", "postal_code": "80118-8721", "country": "United States", "longitude": null, "latitude": null, "phone": null, "website_url": null, "state": "Colorado", "street": null}, {"id": "c63bd7c9-1614-4494-8893-077f4e21151e", "name": "Indeed Brewing Co", "brewery_type": "regional", "address_1": "711 15th Ave NE Ste 102", "address_2": null, "address_3": null, "city": "Minneapolis", "state_province": "Minnesota", "postal_code": "55413-3103", "country": "United States", "longitude": null, "latitude": null, "phone": "6128435090", "website_url": "http://www.indeedbrewing.com", "state": "Minnesota", "street": "711 15th Ave NE Ste 102"}, {"id": "17e75f2d-a365-4ad0-99a7-4e5b4ca3088c", "name": "Independence Brewing", "brewery_type": "regional", "address_1": "3913 Todd Ln Ste 607", "address_2": null, "address_3": null, "city": "Austin", "state_province": "Texas", "postal_code": "78744-1061", "country": "United States", "longitude": "-97.7361012", "latitude": "30.2111313", "phone": "5127070099", "website_url": "http://www.independencebrewing.com", "state": "Texas", "street": "3913 Todd Ln Ste 607"}, {"id": "c54a8c94-38ec-45b9-a641-e2782a61f6b7", "name": "Independent Brewing Co", "brewery_type": "micro", "address_1": "444 Harrison St", "address_2": null, "address_3": null, "city": "Oakland", "state_province": "California", "postal_code": "94607-4118", "country": "United States", "longitude": "-122.2711853", "latitude": "37.7964297", "phone": null, "website_url": null, "state": "California", "street": "444 Harrison St"}, {"id": "903fc6d6-d574-4b60-aaee-4ca4ea06c9a5", "name": "Independent Brewing Company", "brewery_type": "micro", "address_1": "418 N Main St", "address_2": null, "address_3": null, "city": "Bel Air", "state_province": "Maryland", "postal_code": "21014-3509", "country": "United States", "longitude": "-76.35647784", "latitude": "39.53986125", "phone": "4108368313", "website_url": null, "state": "Maryland", "street": "418 N Main St"}, {"id": "73357541-682f-4a38-89c0-599682ed8dbc", "name": "Independent Fermentations Brewing", "brewery_type": "micro", "address_1": "127 Camelot Dr Ste 3", "address_2": null, "address_3": null, "city": "Plymouth", "state_province": "Massachusetts", "postal_code": "02360-3039", "country": "United States", "longitude": null, "latitude": null, "phone": "5087464634", "website_url": "http://www.independentfermentations.com", "state": "Massachusetts", "street": "127 Camelot Dr Ste 3"}, {"id": "7df04f36-9a89-4cff-8ed2-19eb90019a76", "name": "Indian Joe Brewing", "brewery_type": "micro", "address_1": "2123 Industrial Ct", "address_2": null, "address_3": null, "city": "Vista", "state_province": "California", "postal_code": "92081-7900", "country": "United States", "longitude": "-117.2204292", "latitude": "33.1694168", "phone": "7602953945", "website_url": "http://www.indianjoebrewing.com", "state": "California", "street": "2123 Industrial Ct"}, {"id": "84f1650a-80f6-47d0-9af0-b469e846829d", "name": "Indian Ladder Farmstead Brewery and Cidery", "brewery_type": "micro", "address_1": "342 Altamont Rd", "address_2": null, "address_3": null, "city": "Altamont", "state_province": "New York", "postal_code": "12009-3500", "country": "United States", "longitude": null, "latitude": null, "phone": "5185771484", "website_url": "http://www.ilfcb.com", "state": "New York", "street": "342 Altamont Rd"}, {"id": "fb6a0065-5bf8-4a97-8036-bba568020d92", "name": "Indian Springs Brewing Company", "brewery_type": "proprietor", "address_1": "109 E Main St", "address_2": null, "address_3": null, "city": "Neosho", "state_province": "Missouri", "postal_code": "64850-1810", "country": "United States", "longitude": "-94.36740902", "latitude": "36.86853698", "phone": "4174549498", "website_url": "http://www.indianspringsbrewing.com", "state": "Missouri", "street": "109 E Main St"}, {"id": "8be1fd6d-0452-4ec6-b6d9-4990a6993d28", "name": "Indian Valley Brewing", "brewery_type": "micro", "address_1": "14 Commercial Blvd Ste 125", "address_2": null, "address_3": null, "city": "Novato", "state_province": "California", "postal_code": "94949-6110", "country": "United States", "longitude": "-122.5350144", "latitude": "38.06828367", "phone": "4153014983", "website_url": "http://www.indianvalleybrewing.com", "state": "California", "street": "14 Commercial Blvd Ste 125"}, {"id": "7693e499-882f-448f-86a8-5527fbc22961", "name": "Indian Wells Brewing Co", "brewery_type": "micro", "address_1": "2565 State Highway 14", "address_2": null, "address_3": null, "city": "Inyokern", "state_province": "California", "postal_code": "93527-2700", "country": "United States", "longitude": "-117.8727845", "latitude": "35.6675286", "phone": "7603775989", "website_url": "http://www.mojave-red.com", "state": "California", "street": "2565 State Highway 14"}, {"id": "14b7019d-d662-4403-b315-7466e59d39a3", "name": "Indiana City Brewing", "brewery_type": "micro", "address_1": "24 Shelby Street", "address_2": null, "address_3": null, "city": "Indianapolis", "state_province": "Indiana", "postal_code": "46202-3941", "country": "United States", "longitude": "-86.141258", "latitude": "39.7661102", "phone": "3176431103", "website_url": "http://indianacitybeer.com", "state": "Indiana", "street": "24 Shelby Street"}, {"id": "dcb29c7b-b8ee-4ae0-a762-aa0df714dddd", "name": "Indie Brewing Company", "brewery_type": "micro", "address_1": "2350 Sunrise St", "address_2": null, "address_3": null, "city": "Los Angeles", "state_province": "California", "postal_code": "90023-1036", "country": "United States", "longitude": "-118.2227391", "latitude": "34.0358529", "phone": "3233544285", "website_url": "http://indiebrewco.com", "state": "California", "street": "2350 Sunrise St"}, {"id": "24e29ba9-71d6-4125-9921-96512e6944d5", "name": "Indigo Reef Brewing Company", "brewery_type": "micro", "address_1": "2079 Wambaw Creek Unit 1", "address_2": null, "address_3": null, "city": "Charleston", "state_province": "South Carolina", "postal_code": "29492", "country": "United States", "longitude": "-79.90995", "latitude": "32.90352", "phone": "8438676015", "website_url": "https://www.indigoreefbrewing.com/", "state": "South Carolina", "street": "2079 Wambaw Creek Unit 1"}, {"id": "f683b809-ff71-4f95-99a1-febed584ac36", "name": "Industrial Arts Brewing Co.", "brewery_type": "micro", "address_1": "55 W Railroad Ave # 25W", "address_2": null, "address_3": null, "city": "Garnerville", "state_province": "New York", "postal_code": "10923-1261", "country": "United States", "longitude": null, "latitude": null, "phone": "8459428776", "website_url": "http://www.industrialartsbrewing.com", "state": "New York", "street": "55 W Railroad Ave # 25W"}, {"id": "25da3374-54cf-4773-bec9-dc400671af73", "name": "Industrial Revolution Brewing Company", "brewery_type": "micro", "address_1": "285 Cheesman St", "address_2": null, "address_3": null, "city": "Erie", "state_province": "Colorado", "postal_code": "80516-8464", "country": "United States", "longitude": "-105.0477556", "latitude": "40.05161529", "phone": "3038281200", "website_url": null, "state": "Colorado", "street": "285 Cheesman St"}, {"id": "dc0256fa-9a1f-4758-a2c0-73175c17ae2d", "name": "Industry Brewery", "brewery_type": "planning", "address_1": null, "address_2": null, "address_3": null, "city": "Houston", "state_province": "Texas", "postal_code": "77024-7146", "country": "United States", "longitude": null, "latitude": null, "phone": "7138514130", "website_url": null, "state": "Texas", "street": null}, {"id": "1ac07781-e350-4498-a472-95cf83790adf", "name": "Industry Brewing", "brewery_type": "brewpub", "address_1": "8012 N Hale Ave", "address_2": null, "address_3": null, "city": "Peoria", "state_province": "Illinois", "postal_code": "61615-2050", "country": "United States", "longitude": "-89.60764563", "latitude": "40.78613406", "phone": "3098392930", "website_url": "http://www.spicehospgroup.com", "state": "Illinois", "street": "8012 N Hale Ave"}, {"id": "93d9f4fb-7f29-4f3b-bac7-c9e9cca9600e", "name": "Infamous Brewing", "brewery_type": "micro", "address_1": "4602 Weletka Dr", "address_2": null, "address_3": null, "city": "Austin", "state_province": "Texas", "postal_code": "78734-1829", "country": "United States", "longitude": null, "latitude": null, "phone": "5124878786", "website_url": "http://www.infamousbrewing.com", "state": "Texas", "street": "4602 Weletka Dr"}, {"id": "c169996a-d5d7-4499-b868-ca921a80d2a6", "name": "Infinite Ale Works", "brewery_type": "micro", "address_1": "304 S Magnolia Ave", "address_2": null, "address_3": null, "city": "Ocala", "state_province": "Florida", "postal_code": "34471-1158", "country": "United States", "longitude": "-82.1362315", "latitude": "29.1244956", "phone": "3525726083", "website_url": "http://InfiniteAleWorks.com", "state": "Florida", "street": "304 S Magnolia Ave"}, {"id": "2cea348d-f05f-471b-a911-79a5ed5b4262", "name": "Infusion Brewing Company", "brewery_type": "micro", "address_1": "6115 Maple St", "address_2": null, "address_3": null, "city": "Omaha", "state_province": "Nebraska", "postal_code": "68104-4043", "country": "United States", "longitude": "-96.007724", "latitude": "41.284907", "phone": "4029342064", "website_url": "http://www.infusionbrewing.com", "state": "Nebraska", "street": "6115 Maple St"}, {"id": "8f012711-6e6e-4f02-ab5c-e67a5c6e5c44", "name": "Infusion Brewing Company", "brewery_type": "micro", "address_1": "6271 S 118th St", "address_2": null, "address_3": null, "city": "Omaha", "state_province": "Nebraska", "postal_code": "68137-3574", "country": "United States", "longitude": "-96.0980711", "latitude": "41.2077948", "phone": "4029342064", "website_url": "http://www.infusionbrewing.com", "state": "Nebraska", "street": "6271 S 118th St"}, {"id": "64aa273d-2bdc-4bc8-a501-99905a1d070d", "name": "Infusion Brewing Company of Trinity", "brewery_type": "micro", "address_1": "7813 Mitchell Blvd", "address_2": null, "address_3": null, "city": "New Port Richey", "state_province": "Florida", "postal_code": "34655-4723", "country": "United States", "longitude": null, "latitude": null, "phone": "7273124512", "website_url": null, "state": "Florida", "street": "7813 Mitchell Blvd"}, {"id": "0f10f6cc-b446-4348-97e7-38533986a0ad", "name": "Ingenious Brewing Company", "brewery_type": "micro", "address_1": "1986 S Houston Ave", "address_2": null, "address_3": null, "city": "Humble", "state_province": "Texas", "postal_code": "77396-1507", "country": "United States", "longitude": "-95.2633815", "latitude": "29.9748544", "phone": "8324122142", "website_url": "http://www.ingeniousbeer.com", "state": "Texas", "street": "1986 S Houston Ave"}, {"id": "21cbcded-b764-49d4-898c-92a18dd1983f", "name": "Inland Ale Works Brewing Co", "brewery_type": "micro", "address_1": "505 1st St", "address_2": null, "address_3": null, "city": "Cheney", "state_province": "Washington", "postal_code": "99004", "country": "United States", "longitude": "-117.5746659", "latitude": "47.48762493", "phone": "5092352037", "website_url": "https://inlandaleworksbrewing.square.site", "state": "Washington", "street": "505 1st St"}, {"id": "d2a69eb1-5b6b-417b-b5d1-6d8b9e46702d", "name": "Inland Empire Brewing Co", "brewery_type": "proprietor", "address_1": "1710 Palmyrita Ave Ste 11", "address_2": null, "address_3": null, "city": "Riverside", "state_province": "California", "postal_code": "92507-1627", "country": "United States", "longitude": "-117.3485896", "latitude": "34.00435346", "phone": "9516437687", "website_url": "http://www.iebrew.com", "state": "California", "street": "1710 Palmyrita Ave Ste 11"}, {"id": "3e68be75-66a6-4974-9eab-3e5ee34a2717", "name": "Inland Wharf Brewing Company", "brewery_type": "micro", "address_1": "26440 Jefferson Ave Ste A", "address_2": null, "address_3": null, "city": "Murrieta", "state_province": "California", "postal_code": "92562-6951", "country": "United States", "longitude": "-117.1781802", "latitude": "33.5346449", "phone": "9516967999", "website_url": "http://www.inlandwharfbrewing.com", "state": "California", "street": "26440 Jefferson Ave Ste A"}, {"id": "de007555-83ec-4b44-b54c-32c0befded7d", "name": "Inlet Brewing Co", "brewery_type": "proprietor", "address_1": "4448 Nicole Cir", "address_2": null, "address_3": null, "city": "Jupiter", "state_province": "Florida", "postal_code": "33469", "country": "United States", "longitude": "-80.10011389", "latitude": "26.96003048", "phone": "5613390004", "website_url": "http://www.inletbrewingco.com", "state": "Florida", "street": "4448 Nicole Cir"}, {"id": "9c5f000c-f091-43c8-9bef-8a7031edbc30", "name": "Inn On Peaks Island Brewery, The", "brewery_type": "brewpub", "address_1": "33 Island Ave", "address_2": null, "address_3": null, "city": "Peaks Island", "state_province": "Maine", "postal_code": "04108-1333", "country": "United States", "longitude": "-70.1979666", "latitude": "43.65417851", "phone": "2077665100", "website_url": "http://www.innonpeaks.com", "state": "Maine", "street": "33 Island Ave"}, {"id": "bddf12ae-541c-4c95-8b14-0f107296582c", "name": "Inner Compass Brewing", "brewery_type": "micro", "address_1": "300 E 2nd St", "address_2": null, "address_3": null, "city": "Sanford", "state_province": "Florida", "postal_code": "32771-1312", "country": "United States", "longitude": "-81.270294", "latitude": "28.810888", "phone": "4074071792", "website_url": "http://www.innercompassbrewing.com", "state": "Florida", "street": "300 E 2nd St"}, {"id": "c15aae1a-0782-4cf8-8a03-00e986ba7511", "name": "InnerSpace Brewing Company", "brewery_type": "micro", "address_1": "2414 Clinton Ave W", "address_2": null, "address_3": null, "city": "Huntsville", "state_province": "Alabama", "postal_code": "35805-3014", "country": "United States", "longitude": "-86.5932014", "latitude": "34.7277523", "phone": "2564895599", "website_url": "http://www.innerspacebrewing.com", "state": "Alabama", "street": "2414 Clinton Ave W"}, {"id": "f52e5cfe-99ba-4c8b-ad2a-2bba33c29e24", "name": "Innovation Brew Works", "brewery_type": "micro", "address_1": "3650 W Temple Ave Bldg 220A", "address_2": null, "address_3": null, "city": "Pomona", "state_province": "California", "postal_code": "91768-2582", "country": "United States", "longitude": "-117.8148645", "latitude": "34.05000627", "phone": "9098692788", "website_url": "http://www.ibrewworks.com/", "state": "California", "street": "3650 W Temple Ave Bldg 220A"}, {"id": "e4cad2e2-73fb-4fa2-9705-85a1507acfca", "name": "Innovation Brewing", "brewery_type": "brewpub", "address_1": "414 W Main St", "address_2": null, "address_3": null, "city": "Sylva", "state_province": "North Carolina", "postal_code": "28779-5548", "country": "United States", "longitude": "-83.22208589", "latitude": "35.37361923", "phone": "8285869678", "website_url": "http://www.innovationbrewing.com", "state": "North Carolina", "street": "414 W Main St"}, {"id": "a1740e03-084e-4970-8a36-6a2b9653a92f", "name": "Inoculum Ale Works", "brewery_type": "micro", "address_1": "1320 Commercial Way", "address_2": null, "address_3": null, "city": "Spring Hill", "state_province": "Florida", "postal_code": "34606", "country": "United States", "longitude": "-82.551896", "latitude": "28.6060793", "phone": null, "website_url": "http://www.inoculumaleworks.com", "state": "Florida", "street": "1320 Commercial Way"}, {"id": "a0d63612-aa12-440a-89fe-da702b1bbeec", "name": "Inside Passage Brewing Company LLC", "brewery_type": "closed", "address_1": null, "address_2": null, "address_3": null, "city": "Ketchikan", "state_province": "Alaska", "postal_code": "99901-6502", "country": "United States", "longitude": "-131.6466819", "latitude": "55.3430696", "phone": "5133240762", "website_url": null, "state": "Alaska", "street": null}, {"id": "0fd5160d-52eb-4624-a69c-4553618bf8d6", "name": "Inside The Five Brewing", "brewery_type": "brewpub", "address_1": "5703 Main St", "address_2": null, "address_3": null, "city": "Sylvania", "state_province": "Ohio", "postal_code": "43560-4901", "country": "United States", "longitude": "-83.70328149", "latitude": "41.71726502", "phone": "5674087212", "website_url": "http://www.insidethefive.com", "state": "Ohio", "street": "5703 Main St"}, {"id": "c7a00c2e-2404-40ca-9157-3819026eac99", "name": "Insight Brewing Company", "brewery_type": "micro", "address_1": "2821 E Hennepin Ave", "address_2": null, "address_3": null, "city": "Minneapolis", "state_province": "Minnesota", "postal_code": "55413-2916", "country": "United States", "longitude": "-93.2702061", "latitude": "44.9812702", "phone": null, "website_url": null, "state": "Minnesota", "street": "2821 E Hennepin Ave"}, {"id": "f85daa7e-055a-4649-96e5-9f0527548728", "name": "Institution Ale Company", "brewery_type": "brewpub", "address_1": "3841 Mission Oaks Blvd", "address_2": null, "address_3": null, "city": "Camarillo", "state_province": "California", "postal_code": "93012-5036", "country": "United States", "longitude": "-119.0203372", "latitude": "34.21646691", "phone": "8054823777", "website_url": "http://www.institutionales.com", "state": "California", "street": "3841 Mission Oaks Blvd"}, {"id": "e2c014f0-d1c8-43cc-a8c7-639fa846abcb", "name": "Insurgent Brewing Co. LLC", "brewery_type": "micro", "address_1": "990 N State Route 89 Ste B", "address_2": null, "address_3": null, "city": "Chino Valley", "state_province": "Arizona", "postal_code": "86323-5139", "country": "United States", "longitude": null, "latitude": null, "phone": "9289254773", "website_url": "http://www.insurgentbrewingco.com", "state": "Arizona", "street": "990 N State Route 89 Ste B"}, {"id": "9131dabf-d066-425f-bd88-cb0c3a26952b", "name": "Insurrection Aleworks", "brewery_type": "micro", "address_1": "1635 E Railroad St", "address_2": null, "address_3": null, "city": "Heidelberg", "state_province": "Pennsylvania", "postal_code": "15106-4026", "country": "United States", "longitude": "-80.08755441", "latitude": "40.39264014", "phone": "4122762030", "website_url": "http://insurrectionaleworks.com", "state": "Pennsylvania", "street": "1635 E Railroad St"}, {"id": "acd68c1e-2f4c-4cc4-a68c-91e0b4c996e7", "name": "Interboro Spirits And Ales", "brewery_type": "brewpub", "address_1": "942 Grand St", "address_2": null, "address_3": null, "city": "Brooklyn", "state_province": "New York", "postal_code": "11211-2707", "country": "United States", "longitude": "-73.9369567", "latitude": "40.7126813", "phone": "6462455417", "website_url": "http://www.interboro.nyc", "state": "New York", "street": "942 Grand St"}, {"id": "f560d7a7-7367-4aa8-a0ed-61e52bb081c9", "name": "Intercourse Brewing Co", "brewery_type": "contract", "address_1": "4166 Ironbridge Dr", "address_2": null, "address_3": null, "city": "Collegeville", "state_province": "Pennsylvania", "postal_code": "19426-1188", "country": "United States", "longitude": null, "latitude": null, "phone": "6108129426", "website_url": "http://www.intercoursebrewingco.com", "state": "Pennsylvania", "street": "4166 Ironbridge Dr"}, {"id": "e3867dfa-d22e-4091-996a-725df25409d3", "name": "Intergalactic Brewing Co", "brewery_type": "micro", "address_1": "9715 Carroll Centre Rd #107", "address_2": null, "address_3": null, "city": "San Diego", "state_province": "California", "postal_code": "92126-6507", "country": "United States", "longitude": "-117.1223493", "latitude": "32.89873279", "phone": "8587500601", "website_url": "http://www.intergalacticbrew.com", "state": "California", "street": "9715 Carroll Centre Rd #107"}, {"id": "848d84a2-bcb7-4b85-b659-99efe94293fb", "name": "Intermission Beer Company", "brewery_type": "micro", "address_1": "10089 Brook Rd unit A", "address_2": null, "address_3": null, "city": "Glen Allen", "state_province": "Virginia", "postal_code": "23059", "country": "United States", "longitude": null, "latitude": null, "phone": "8045850405", "website_url": "https://www.intermissionbeer.com/", "state": "Virginia", "street": "10089 Brook Rd unit A"}, {"id": "3b174e82-0a69-43c6-9b47-94cd039c59c3", "name": "Intersect Brewing", "brewery_type": "micro", "address_1": "2160 W Drake Rd Unit A1", "address_2": null, "address_3": null, "city": "Fort Collins", "state_province": "Colorado", "postal_code": "80526-1486", "country": "United States", "longitude": null, "latitude": null, "phone": "9706822041", "website_url": "http://www.intersectbrewing.com", "state": "Colorado", "street": "2160 W Drake Rd Unit A1"}, {"id": "220200a7-c8b3-481a-8c60-ede62fe291c0", "name": "Intervention Brewing Company, LLC", "brewery_type": "planning", "address_1": null, "address_2": null, "address_3": null, "city": "Irving", "state_province": "Texas", "postal_code": "75061-8826", "country": "United States", "longitude": null, "latitude": null, "phone": "2147633070", "website_url": null, "state": "Texas", "street": null}, {"id": "c5607e29-ab4c-4475-aba5-cf5538bd7df0", "name": "Intracoastal Brewing Co.", "brewery_type": "micro", "address_1": "652 W Eau Gallie Blvd", "address_2": null, "address_3": null, "city": "Melbourne", "state_province": "Florida", "postal_code": "32935-6509", "country": "United States", "longitude": "-80.7039168", "latitude": "28.1206522", "phone": "3218727395", "website_url": "http://www.intracoastalbrewingcompany.com", "state": "Florida", "street": "652 W Eau Gallie Blvd"}, {"id": "838a99fa-a7e0-468a-97f4-a9149f627454", "name": "Intrinsic Brewing", "brewery_type": "brewpub", "address_1": "509 W State Street", "address_2": null, "address_3": null, "city": "Garland", "state_province": "Texas", "postal_code": "75040", "country": "United States", "longitude": "-96.63705236", "latitude": "32.91369215", "phone": "2144345429", "website_url": "http://www.intrinsicbrewing.com", "state": "Texas", "street": "509 W State Street"}, {"id": "ce5c20ab-e826-470b-afe6-204ed343e2d8", "name": "Intuition Ale Works", "brewery_type": "micro", "address_1": "929 E Bay St", "address_2": null, "address_3": null, "city": "Jacksonville", "state_province": "Florida", "postal_code": "32202-2307", "country": "United States", "longitude": "-81.64490792", "latitude": "30.32336192", "phone": "9046837720", "website_url": "http://www.intuitionaleworks.com", "state": "Florida", "street": "929 E Bay St"}, {"id": "07439e86-ae1e-45ce-8078-2ede40215f1a", "name": "Intuition Ale Works Production Facility", "brewery_type": "micro", "address_1": "720 King St", "address_2": null, "address_3": null, "city": "Jacksonville", "state_province": "Florida", "postal_code": "32204-3440", "country": "United States", "longitude": "-81.69702371", "latitude": "30.31799538", "phone": null, "website_url": null, "state": "Florida", "street": "720 King St"}, {"id": "f042a269-ee40-4b80-8bdf-dda3af3d37b2", "name": "Inu Island Ales", "brewery_type": "micro", "address_1": "46-147 Kahuhipa St STE E", "address_2": null, "address_3": null, "city": "Kaneohe", "state_province": "Hawaii", "postal_code": "96744", "country": "United States", "longitude": "-157.805414", "latitude": "21.416279", "phone": "4088888586", "website_url": "http://www.inuislandales.com", "state": "Hawaii", "street": "46-147 Kahuhipa St STE E"}, {"id": "5f3f1c30-b19d-47da-a908-2b8bafa0e6fc", "name": "Invasive Species Brewing", "brewery_type": "micro", "address_1": "726 NE 2nd Ave", "address_2": null, "address_3": null, "city": "Fort Lauderdale", "state_province": "Florida", "postal_code": "33304-2616", "country": "United States", "longitude": "-80.1418016", "latitude": "26.1298369", "phone": "7546662687", "website_url": "http://www.invasivespeciesbrewing.com", "state": "Florida", "street": "726 NE 2nd Ave"}, {"id": "bd199c9c-e52c-4b26-80b1-4b18bf5f69a2", "name": "Inventors Brewpub", "brewery_type": "brewpub", "address_1": "435 N Lake St", "address_2": null, "address_3": null, "city": "Port Washington", "state_province": "Wisconsin", "postal_code": "53074-1608", "country": "United States", "longitude": "-87.86700105", "latitude": "43.39195039", "phone": null, "website_url": null, "state": "Wisconsin", "street": "435 N Lake St"}, {"id": "f2d17fb9-2f1a-4654-88fc-105fa0600df3", "name": "Invictus Brewing Co", "brewery_type": "planning", "address_1": null, "address_2": null, "address_3": null, "city": "Blaine", "state_province": "Minnesota", "postal_code": "55449", "country": "United States", "longitude": null, "latitude": null, "phone": "6127234090", "website_url": "http://www.InvictusBrewingCo.com", "state": "Minnesota", "street": null}, {"id": "16d30fe7-5308-4905-8ce9-15bc61275c2a", "name": "Invictus Brewing Co.", "brewery_type": "brewpub", "address_1": "2025 105th Ave NE", "address_2": null, "address_3": null, "city": "Blaine", "state_province": "Minnesota", "postal_code": "55449-5202", "country": "United States", "longitude": "-93.2189616", "latitude": "45.1608516", "phone": "6127234090", "website_url": "http://www.invictusbrewingco.com", "state": "Minnesota", "street": "2025 105th Ave NE"}, {"id": "75661940-50cd-4e30-a7dc-772b0852d66f", "name": "Iowa Brewing Company", "brewery_type": "micro", "address_1": "708 3rd St SE", "address_2": null, "address_3": null, "city": "Cedar Rapids", "state_province": "Iowa", "postal_code": "52401-2012", "country": "United States", "longitude": "-91.66212463", "latitude": "41.97421739", "phone": "3193662337", "website_url": "http://www.iowabrewing.beer", "state": "Iowa", "street": "708 3rd St SE"}, {"id": "ac2278d6-ed4a-4c1a-a94d-e114717389ce", "name": "Iowa River Brewing Company", "brewery_type": "micro", "address_1": "107 N 1st St", "address_2": null, "address_3": null, "city": "Marshalltown", "state_province": "Iowa", "postal_code": "50158-5803", "country": "United States", "longitude": "-92.91450419", "latitude": "42.05061076", "phone": "6417512848", "website_url": "http://www.iowariverbrewing.com", "state": "Iowa", "street": "107 N 1st St"}, {"id": "783cf348-6a53-404f-99f6-eac225d1334d", "name": "Ipswich Ale Brewery", "brewery_type": "regional", "address_1": "2 Brewery Pl", "address_2": null, "address_3": null, "city": "Ipswich", "state_province": "Massachusetts", "postal_code": "01938-1196", "country": "United States", "longitude": null, "latitude": null, "phone": "9783563329", "website_url": "http://www.ipswichalebrewery.com", "state": "Massachusetts", "street": "2 Brewery Pl"}, {"id": "b2b80cf5-adc4-4e7c-9a53-d3f55ed24d7f", "name": "Irish Mafia Brewing Co", "brewery_type": "brewpub", "address_1": "2971 Whalen Rd", "address_2": null, "address_3": null, "city": "Bloomfield", "state_province": "New York", "postal_code": "14469-9786", "country": "United States", "longitude": "-77.38938696", "latitude": "42.89268134", "phone": "5852715172", "website_url": "http://www.irishmafiabrewing.com", "state": "New York", "street": "2971 Whalen Rd"}, {"id": "795d96bb-633e-4d4d-8959-1ba609f409f2", "name": "Iron Bird Brewing Co.", "brewery_type": "brewpub", "address_1": "402 S Nevada Ave", "address_2": null, "address_3": null, "city": "Colorado Springs", "state_province": "Colorado", "postal_code": "80903-2110", "country": "United States", "longitude": "-104.8223799", "latitude": "38.8280292", "phone": "7194247002", "website_url": "http://www.ironbirdbrewing.com", "state": "Colorado", "street": "402 S Nevada Ave"}, {"id": "fa970827-906e-4ebd-b68c-19c192778661", "name": "Iron Brewing Company", "brewery_type": "brewpub", "address_1": "136 Washington St", "address_2": null, "address_3": null, "city": "Norwalk", "state_province": "Connecticut", "postal_code": "06854", "country": "United States", "longitude": "-73.41734954", "latitude": "41.09888787", "phone": "2033544010", "website_url": "http://www.ironbrewing.com", "state": "Connecticut", "street": "136 Washington St"}, {"id": "df561fc1-54b8-4a17-94fb-c344202bafed", "name": "Iron Duke Brewing Co", "brewery_type": "micro", "address_1": "100 State St Ste 122", "address_2": null, "address_3": null, "city": "Ludlow", "state_province": "Massachusetts", "postal_code": "01056-3435", "country": "United States", "longitude": null, "latitude": null, "phone": "4136246258", "website_url": "http://www.irondukebrewing.com", "state": "Massachusetts", "street": "100 State St Ste 122"}, {"id": "d3bb9850-31a3-4875-8cd8-41a9486f0738", "name": "Iron Fist Brewing Co", "brewery_type": "closed", "address_1": "1305 Hot Springs Way Ste 101", "address_2": null, "address_3": null, "city": "Vista", "state_province": "California", "postal_code": "92081-7876", "country": "United States", "longitude": "-117.2388018", "latitude": "33.14569866", "phone": "7602166500", "website_url": "http://www.ironfistbrewing.com", "state": "California", "street": "1305 Hot Springs Way Ste 101"}, {"id": "bfd07141-cfd5-461d-bbac-17dfc9b8dec1", "name": "Iron Flamingo Brewery", "brewery_type": "micro", "address_1": "196 Baker St", "address_2": null, "address_3": null, "city": "Corning", "state_province": "New York", "postal_code": "14830-2074", "country": "United States", "longitude": "-77.0564722", "latitude": "42.1551591", "phone": "6079364766", "website_url": "http://www.ironflamingobrewery.com", "state": "New York", "street": "196 Baker St"}, {"id": "62593648-b9ed-47aa-811b-544d112df7ae", "name": "Iron Goat Brewing", "brewery_type": "brewpub", "address_1": "1302 W 2nd Ave", "address_2": null, "address_3": null, "city": "Spokane", "state_province": "Washington", "postal_code": "99201-4616", "country": "United States", "longitude": "-117.4312826", "latitude": "47.65452878", "phone": "5094740722", "website_url": "http://www.irongoatbrewing.com", "state": "Washington", "street": "1302 W 2nd Ave"}, {"id": "742eda93-f91a-4b97-b6f6-b5192b2445de", "name": "Iron Hart", "brewery_type": "brewpub", "address_1": "49 N Church St", "address_2": null, "address_3": null, "city": "Carbondale", "state_province": "Pennsylvania", "postal_code": "18407-1904", "country": "United States", "longitude": "-75.50001", "latitude": "41.573825", "phone": "5702802739", "website_url": "http://www.3guysandabeerd.com", "state": "Pennsylvania", "street": "49 N Church St"}, {"id": "12ed139d-06c2-4f93-9491-b798f22b1d9f", "name": "Iron Hill Brewery & Restaurant - Chestnut Hill", "brewery_type": "brewpub", "address_1": "8400 Germantown Ave", "address_2": null, "address_3": null, "city": "Philadelphia", "state_province": "Pennsylvania", "postal_code": "19118-3328", "country": "United States", "longitude": "-75.205095", "latitude": "40.075132", "phone": "2159485600", "website_url": "http://www.ironhillbrewery.com", "state": "Pennsylvania", "street": "8400 Germantown Ave"}, {"id": "16bf5f1e-014c-4afc-b350-e9bda8966adc", "name": "Iron Hill Brewery & Restaurant - Greenville", "brewery_type": "brewpub", "address_1": "741 Haywood Rd", "address_2": null, "address_3": null, "city": "Greenville", "state_province": "South Carolina", "postal_code": "29607", "country": "United States", "longitude": null, "latitude": null, "phone": "8645687009", "website_url": "http://www.ironhillbrewery.com", "state": "South Carolina", "street": "741 Haywood Rd"}, {"id": "77032466-4be5-4202-8609-43c95ebe6a47", "name": "Iron Hill Brewery & Restaurant - Huntingdon Valley", "brewery_type": "brewpub", "address_1": "785 Huntingdon Pike", "address_2": null, "address_3": null, "city": "Huntingdon Valley", "state_province": "Pennsylvania", "postal_code": "19006-8362", "country": "United States", "longitude": "-75.0674691", "latitude": "40.1192109", "phone": null, "website_url": "http://www.ironhillbrewery.com", "state": "Pennsylvania", "street": "785 Huntingdon Pike"}, {"id": "bff3cd82-4867-4d0b-8bea-120e70de2ab0", "name": "Iron Hill Brewery & Restaurant - Lancaster", "brewery_type": "brewpub", "address_1": "781 Harrisburg Pike", "address_2": null, "address_3": null, "city": "Lancaster", "state_province": "Pennsylvania", "postal_code": "17603-2655", "country": "United States", "longitude": "-76.3188136", "latitude": "40.0506816", "phone": "7172919800", "website_url": "http://www.ironhillbrewery.com", "state": "Pennsylvania", "street": "781 Harrisburg Pike"}, {"id": "e0e11103-11ff-4ec8-865f-9f0b02a42f23", "name": "Iron Hill Brewery & Restaurant - Maple Shade", "brewery_type": "brewpub", "address_1": "124 East King's Hwy", "address_2": null, "address_3": null, "city": "Maple Shade", "state_province": "New Jersey", "postal_code": "08052-5405", "country": "United States", "longitude": null, "latitude": null, "phone": "8562730300", "website_url": "http://www.ironhillbrewery.com", "state": "New Jersey", "street": "124 East King's Hwy"}, {"id": "08af2081-845a-474e-9f80-efbb605e209c", "name": "Iron Hill Brewery & Restaurant - Media", "brewery_type": "brewpub", "address_1": "30 E State Street", "address_2": null, "address_3": null, "city": "Media", "state_province": "Pennsylvania", "postal_code": "19063-2904", "country": "United States", "longitude": "-75.38831847", "latitude": "39.9174642", "phone": "6106279000", "website_url": "http://www.ironhillbrewery.com", "state": "Pennsylvania", "street": "30 E State Street"}, {"id": "22f14965-0761-424c-8824-ed47e3b04dd5", "name": "Iron Hill Brewery & Restaurant - Newark", "brewery_type": "brewpub", "address_1": "147 East Main St", "address_2": null, "address_3": null, "city": "Newark", "state_province": "Delaware", "postal_code": "19711-7313", "country": "United States", "longitude": "-75.7468068", "latitude": "39.6834128", "phone": "3022669000", "website_url": "http://www.ironhillbrewery.com", "state": "Delaware", "street": "147 East Main St"}, {"id": "aeb41458-0b55-4613-9b03-99fc0306f3a5", "name": "Iron Hill Brewery & Restaurant - North Wales", "brewery_type": "brewpub", "address_1": "1460 Bethlehem Pike", "address_2": null, "address_3": null, "city": "North Wales", "state_province": "Pennsylvania", "postal_code": "19454-2159", "country": "United States", "longitude": null, "latitude": null, "phone": "2677082000", "website_url": "http://www.ironhillbrewery.com", "state": "Pennsylvania", "street": "1460 Bethlehem Pike"}, {"id": "672b0dd0-5267-4c96-802a-1285bfaa186c", "name": "Iron Hill Brewery & Restaurant - Phoenixville", "brewery_type": "brewpub", "address_1": "130 Bridge St", "address_2": null, "address_3": null, "city": "Phoenixville", "state_province": "Pennsylvania", "postal_code": "19460-3448", "country": "United States", "longitude": "-75.51335", "latitude": "40.13418", "phone": "6109839333", "website_url": "http://www.ironhillbrewery.com", "state": "Pennsylvania", "street": "130 Bridge St"}, {"id": "6deaab2b-0b81-478f-b4dc-0f30fdfe1f9c", "name": "Iron Hill Brewery & Restaurant - Rehoboth Beach", "brewery_type": "brewpub", "address_1": "19815 Coastal Hwy", "address_2": null, "address_3": null, "city": "Rehoboth Beach", "state_province": "Delaware", "postal_code": "19971", "country": "United States", "longitude": "-75.090191", "latitude": "38.7074994", "phone": "3022608000", "website_url": "http://www.ironhillbrewery.com", "state": "Delaware", "street": "19815 Coastal Hwy"}, {"id": "b6d5a122-8bb1-4597-903a-c8025c9de6c8", "name": "Iron Hill Brewery & Restaurant - Voorhees", "brewery_type": "brewpub", "address_1": "13107 Town Center Blvd", "address_2": null, "address_3": null, "city": "Voorhees", "state_province": "New Jersey", "postal_code": "08043-2668", "country": "United States", "longitude": "-74.9979656", "latitude": "39.8524026", "phone": "3028882739", "website_url": "http://www.ironhillbrewery.com", "state": "New Jersey", "street": "13107 Town Center Blvd"}, {"id": "cc272e55-527c-4099-9b39-0f9f849612d8", "name": "Iron Hill Brewery & Restaurant - West Chester", "brewery_type": "brewpub", "address_1": "3 West Gay St", "address_2": null, "address_3": null, "city": "West Chester", "state_province": "Pennsylvania", "postal_code": "19380-3010", "country": "United States", "longitude": "-75.60564101", "latitude": "39.96059635", "phone": "6107389600", "website_url": "http://www.ironhillbrewery.com", "state": "Pennsylvania", "street": "3 West Gay St"}, {"id": "6829ce25-15a6-4383-a81f-1f58fc8884dd", "name": "Iron Hill Brewery & Restaurant - Wilmington", "brewery_type": "brewpub", "address_1": "620 Justison St", "address_2": null, "address_3": null, "city": "Wilmington", "state_province": "Delaware", "postal_code": "19801-5141", "country": "United States", "longitude": null, "latitude": null, "phone": "3026588200", "website_url": "http://www.ironhillbrewery.com", "state": "Delaware", "street": "620 Justison St"}, {"id": "9b34bbbe-c448-442e-87ab-03d22245426a", "name": "Iron Hill Brewery & Restaurant (Ardmore)", "brewery_type": "brewpub", "address_1": "60 Greenfield Ave", "address_2": null, "address_3": null, "city": "Ardmore", "state_province": "Pennsylvania", "postal_code": "19003-1204", "country": "United States", "longitude": "-75.29755364", "latitude": "40.00854097", "phone": "3028882739", "website_url": "http://www.ironhillbrewery.com", "state": "Pennsylvania", "street": "60 Greenfield Ave"}, {"id": "56289e78-9880-4933-ad9e-e59365be2837", "name": "Iron Horse Brewery", "brewery_type": "regional", "address_1": "1621 Vantage Hwy", "address_2": null, "address_3": null, "city": "Ellensburg", "state_province": "Washington", "postal_code": "98926-9001", "country": "United States", "longitude": "-120.5200004", "latitude": "47.00287945", "phone": "5099333134", "website_url": "http://www.ironhorsebrewery.com", "state": "Washington", "street": "1621 Vantage Hwy"}, {"id": "2764f826-fa1f-4b3a-9240-9e620c06f220", "name": "Iron John's Brewing Company", "brewery_type": "micro", "address_1": "245 S Plumer Ave Ste 27", "address_2": null, "address_3": null, "city": "Tucson", "state_province": "Arizona", "postal_code": "85719-6348", "country": "United States", "longitude": null, "latitude": null, "phone": "5202373448", "website_url": "http://www.ironjohnsbrewing.com", "state": "Arizona", "street": "245 S Plumer Ave Ste 27"}, {"id": "8950820d-02c8-460d-b6ce-66c0c5c4ac6b", "name": "Iron Monk Brewing Company", "brewery_type": "micro", "address_1": "519 S Husband St", "address_2": null, "address_3": null, "city": "Stillwater", "state_province": "Oklahoma", "postal_code": "74074-4031", "country": "United States", "longitude": "-97.0595399", "latitude": "36.1163409", "phone": "4057142585", "website_url": "http://www.ironmonkbeer.com", "state": "Oklahoma", "street": "519 S Husband St"}, {"id": "8c0bc28a-fb48-4e7c-941a-1d5131fb1787", "name": "Iron Spike Brewing Company", "brewery_type": "brewpub", "address_1": "150 E Simmons St Ste 1", "address_2": null, "address_3": null, "city": "Galesburg", "state_province": "Illinois", "postal_code": "61401-4641", "country": "United States", "longitude": null, "latitude": null, "phone": "3092974718", "website_url": "http://www.ironspikebrewpub.com", "state": "Illinois", "street": "150 E Simmons St Ste 1"}, {"id": "25e5c66e-d4ed-4557-b748-da3de58c1076", "name": "Iron Springs Pub & Brewery", "brewery_type": "brewpub", "address_1": "765 Center Blvd", "address_2": null, "address_3": null, "city": "Fairfax", "state_province": "California", "postal_code": "94930-1764", "country": "United States", "longitude": "-122.5862525", "latitude": "37.98670111", "phone": "4154851005", "website_url": "http://www.ironspringspub.com", "state": "California", "street": "765 Center Blvd"}, {"id": "4a6b7b4f-5857-4635-a67e-9132a6d0e6c8", "name": "Iron Tree Table & Taps", "brewery_type": "brewpub", "address_1": "37 Costello Ave", "address_2": null, "address_3": null, "city": "Florissant", "state_province": "Colorado", "postal_code": "80816", "country": "United States", "longitude": null, "latitude": null, "phone": "7197480124", "website_url": "http://www.irontreerestaurant.com", "state": "Colorado", "street": "37 Costello Ave"}, {"id": "cc4ccff2-93f4-4134-b2a6-53d06a3e2c89", "name": "Iron Triangle Brewing Company", "brewery_type": "micro", "address_1": "1581 Industrial St", "address_2": null, "address_3": null, "city": "Los Angeles", "state_province": "California", "postal_code": "90021-1217", "country": "United States", "longitude": "-118.2373618", "latitude": "34.03612189", "phone": "3109905702", "website_url": "http://www.irontrianglebrewing.com", "state": "California", "street": "1581 Industrial St"}, {"id": "85006537-0e74-4e0f-823b-592904e96c5b", "name": "Iron Tug Brewing", "brewery_type": "micro", "address_1": "371 Park Ave", "address_2": null, "address_3": null, "city": "Rochester", "state_province": "New York", "postal_code": "14607", "country": "United States", "longitude": "-77.58587345", "latitude": "43.15024613", "phone": "5857385606", "website_url": "http://www.irontugbrewing.com", "state": "New York", "street": "371 Park Ave"}, {"id": "45076e61-0e44-46f4-a85b-58ad50988a2b", "name": "Ironbark Brewery", "brewery_type": "micro", "address_1": "2610 Kibby Rd", "address_2": null, "address_3": null, "city": "Jackson", "state_province": "Michigan", "postal_code": "49203-4908", "country": "United States", "longitude": "-84.43762976", "latitude": "42.2188971", "phone": "5177487988", "website_url": null, "state": "Michigan", "street": "2610 Kibby Rd"}, {"id": "e7444032-8c9b-4755-9ccb-fa603653e1c9", "name": "Ironclad Brewery", "brewery_type": "micro", "address_1": "115 N 2nd St", "address_2": null, "address_3": null, "city": "Wilmington", "state_province": "North Carolina", "postal_code": "28401-3936", "country": "United States", "longitude": "-77.94767214", "latitude": "34.23671629", "phone": "9107690290", "website_url": "http://www.ironcladbrewery.com", "state": "North Carolina", "street": "115 N 2nd St"}, {"id": "7a9c3c72-0fbb-4ad4-9528-5dec234f7538", "name": "Ironfire Brewing Company", "brewery_type": "micro", "address_1": "42095 Zevo Dr Unit 1", "address_2": null, "address_3": null, "city": "Temecula", "state_province": "California", "postal_code": "92590-3741", "country": "United States", "longitude": "-117.1779573", "latitude": "33.51202561", "phone": "9512961397", "website_url": "http://www.ironfirebrewing.com", "state": "California", "street": "42095 Zevo Dr Unit 1"}, {"id": "1859086e-a38e-4e00-8760-398e58190dac", "name": "Ironmonger Brewing", "brewery_type": "micro", "address_1": "2129 Northwest Pkwy SE Ste 105", "address_2": null, "address_3": null, "city": "Marietta", "state_province": "Georgia", "postal_code": "30067-9223", "country": "United States", "longitude": "-84.48696353", "latitude": "33.91959382", "phone": "6787428551", "website_url": "http://www.ironmongerbrewing.com", "state": "Georgia", "street": "2129 Northwest Pkwy SE Ste 105"}, {"id": "e1b632ac-39c9-465f-b3df-7de3efa2976e", "name": "Ironwood Brewing Co LLC", "brewery_type": "micro", "address_1": "6 Roosevelt Rd", "address_2": null, "address_3": null, "city": "Valparaiso", "state_province": "Indiana", "postal_code": "46383-5136", "country": "United States", "longitude": "-87.046457", "latitude": "41.46840633", "phone": "2194054644", "website_url": "http://www.ironwoodbrewing.beer", "state": "Indiana", "street": "6 Roosevelt Rd"}, {"id": "7e10797c-320d-4fdf-940b-09550b0e8fc3", "name": "Ironwood Creek", "brewery_type": "planning", "address_1": null, "address_2": null, "address_3": null, "city": "Evans", "state_province": "Georgia", "postal_code": "30809-8239", "country": "United States", "longitude": null, "latitude": null, "phone": null, "website_url": null, "state": "Georgia", "street": null}, {"id": "d3fa529b-07fc-436a-98cf-66ba68b0a579", "name": "Ironworks Brewery & Pub", "brewery_type": "brewpub", "address_1": "12354 W Alameda Pkwy Ste 110", "address_2": null, "address_3": null, "city": "Lakewood", "state_province": "Colorado", "postal_code": "80228-2844", "country": "United States", "longitude": null, "latitude": null, "phone": "3039855818", "website_url": "http://www.ironworkspub.com", "state": "Colorado", "street": "12354 W Alameda Pkwy Ste 110"}, {"id": "77100b94-fd5e-42fb-ac9f-d256817f1e16", "name": "Irving Cliff Brewery", "brewery_type": "brewpub", "address_1": "2 Chapel St", "address_2": null, "address_3": null, "city": "Honesdale", "state_province": "Pennsylvania", "postal_code": "18431-2094", "country": "United States", "longitude": "-75.257181", "latitude": "41.574806", "phone": "5706470644", "website_url": "http://www.irvingcliffbrewery.com", "state": "Pennsylvania", "street": "2 Chapel St"}]