[{"id": "3ebef1a3-b680-4911-a442-07f042521c8c", "name": "Empire Brewing Co", "brewery_type": "brewpub", "address_1": "120 Walton St", "address_2": null, "address_3": null, "city": "Syracuse", "state_province": "New York", "postal_code": "13202-1571", "country": "United States", "longitude": "-76.15406625", "latitude": "43.04804637", "phone": "3156552337", "website_url": "http://www.empirebrew.com", "state": "New York", "street": "120 Walton St"}, {"id": "e4e51dc8-6d71-4ccd-85e4-4cad72d1b5df", "name": "Empire City Beer Company", "brewery_type": "planning", "address_1": null, "address_2": null, "address_3": null, "city": "New York", "state_province": "New York", "postal_code": "10012", "country": "United States", "longitude": null, "latitude": null, "phone": "9178040571", "website_url": "http://www.hitemhard.com", "state": "New York", "street": null}, {"id": "79908f3b-0e14-4e3b-81e7-8e0de0954688", "name": "Empire Farm Brewery", "brewery_type": "micro", "address_1": "33 Rippleton Rd", "address_2": null, "address_3": null, "city": "Cazenovia", "state_province": "New York", "postal_code": "13035-9601", "country": "United States", "longitude": "-75.8664345", "latitude": "42.9197307", "phone": "3156552337", "website_url": "http://www.empirebrew.com", "state": "New York", "street": "33 Rippleton Rd"}, {"id": "e40c10b9-391e-457d-b734-5c79bf4a5480", "name": "Empirical Brewery", "brewery_type": "micro", "address_1": "1801 W Foster Ave", "address_2": null, "address_3": null, "city": "Chicago", "state_province": "Illinois", "postal_code": "60640-1023", "country": "United States", "longitude": "-87.6749395", "latitude": "41.9762555", "phone": null, "website_url": "http://www.empiricalbrewery.com", "state": "Illinois", "street": "1801 W Foster Ave"}, {"id": "c589ab3d-f739-4226-89f7-b84266f8b039", "name": "Emprize Brew Mill", "brewery_type": "brewpub", "address_1": "200 Main St", "address_2": null, "address_3": null, "city": "Menasha", "state_province": "Wisconsin", "postal_code": "54952", "country": "United States", "longitude": "-88.4504129", "latitude": "44.2013644", "phone": "9204861539", "website_url": "https://www.emprizebrewing.com", "state": "Wisconsin", "street": "200 Main St"}, {"id": "b9675043-285f-4bc2-bb74-2d14bbd4840f", "name": "Empyrean Brewing Co", "brewery_type": "micro", "address_1": "729 Q St", "address_2": null, "address_3": null, "city": "Lincoln", "state_province": "Nebraska", "postal_code": "68508-1536", "country": "United States", "longitude": "-96.7105429", "latitude": "40.8155873", "phone": "4024345970", "website_url": "http://www.empyreanbrewingco.com", "state": "Nebraska", "street": "729 Q St"}, {"id": "cc77b466-cfd0-4906-a0ea-fbfa768e7a6b", "name": "Enchanted Circle Brewing Company", "brewery_type": "brewpub", "address_1": "20 Sage Ln.", "address_2": null, "address_3": null, "city": "Angel Fire", "state_province": "New Mexico", "postal_code": "87710", "country": "United States", "longitude": "-105.2882775", "latitude": "36.396276", "phone": "5055078687", "website_url": null, "state": "New Mexico", "street": "20 Sage Ln."}, {"id": "ce9e3633-3660-4da7-9ceb-5f4f99d9d3a5", "name": "Endeavor Brewing Company", "brewery_type": "micro", "address_1": "909 W 5th Ave", "address_2": null, "address_3": null, "city": "Columbus", "state_province": "Ohio", "postal_code": "43212", "country": "United States", "longitude": "-83.030429", "latitude": "39.988002", "phone": "6144567074", "website_url": "http://www.endeavorbrewingco.com", "state": "Ohio", "street": "909 W 5th Ave"}, {"id": "bd66ac70-2685-4cfc-91f1-ec349c35c9ed", "name": "Endless Brewing", "brewery_type": "micro", "address_1": "20610 Pa-29", "address_2": null, "address_3": null, "city": "Montrose", "state_province": "Pennsylvania", "postal_code": "18801", "country": "United States", "longitude": null, "latitude": null, "phone": "5709670985", "website_url": "http://www.endlessbrewing.com", "state": "Pennsylvania", "street": "20610 Pa-29"}, {"id": "a9090cf0-65c9-4c4b-985b-0d8692dae5ac", "name": "Endless Pint Brewing", "brewery_type": "planning", "address_1": null, "address_2": null, "address_3": null, "city": "Versailles", "state_province": "Ohio", "postal_code": "45380", "country": "United States", "longitude": null, "latitude": null, "phone": "4197338806", "website_url": "http://www.endlesspintbrewing.com", "state": "Ohio", "street": null}, {"id": "0a06eb5a-b9f4-4078-8fc7-65a213197d00", "name": "Endo Brewing Company", "brewery_type": "micro", "address_1": "2755 Dagny Way Ste 101", "address_2": null, "address_3": null, "city": "Lafayette", "state_province": "Colorado", "postal_code": "80026-8023", "country": "United States", "longitude": "-105.1341065", "latitude": "40.0144311", "phone": "7204428052", "website_url": "http://endobrewing.com", "state": "Colorado", "street": "2755 Dagny Way Ste 101"}, {"id": "b8214502-7df8-43aa-9d22-a4d55c175dac", "name": "Enegren Brewing Co", "brewery_type": "micro", "address_1": "444 Zachary St Unit 120", "address_2": null, "address_3": null, "city": "Moorpark", "state_province": "California", "postal_code": "93021-2073", "country": "United States", "longitude": "-118.8706594", "latitude": "34.28324302", "phone": "8055520602", "website_url": "http://www.enegrenbrewing.com", "state": "California", "street": "444 Zachary St Unit 120"}, {"id": "f5b03217-9e4c-4cb2-9b10-5d983f8bd811", "name": "Engine 15 Brewing Company", "brewery_type": "micro", "address_1": "633 N Myrtle Ave", "address_2": null, "address_3": null, "city": "Jacksonville", "state_province": "Florida", "postal_code": "32204-1319", "country": "United States", "longitude": null, "latitude": null, "phone": "9045519429", "website_url": "http://www.engine15.com", "state": "Florida", "street": "633 N Myrtle Ave"}, {"id": "6e65e1de-6602-4580-a801-140ca2430354", "name": "Engine 15 Brewing Company", "brewery_type": "brewpub", "address_1": "1500 Beach Blvd Ste 217", "address_2": null, "address_3": null, "city": "Jacksonville Beach", "state_province": "Florida", "postal_code": "32250-2624", "country": "United States", "longitude": "-81.3923194", "latitude": "30.2882669", "phone": "9042492337", "website_url": "http://www.engine15.com", "state": "Florida", "street": "1500 Beach Blvd Ste 217"}, {"id": "d4c69915-a54d-4525-a84b-14de75196904", "name": "English Ales Brewery", "brewery_type": "micro", "address_1": "223 Reindollar Ave Ste A", "address_2": null, "address_3": null, "city": "Marina", "state_province": "California", "postal_code": "93933-3851", "country": "United States", "longitude": "-121.8038356", "latitude": "36.68038392", "phone": "8318833000", "website_url": "http://www.englishalesbrewery.com", "state": "California", "street": "223 Reindollar Ave Ste A"}, {"id": "1a244e49-1067-49cf-b1ec-5006c1c1158c", "name": "English Setter Brewing Company", "brewery_type": "closed", "address_1": "15310 E Marietta Ave Ste 4", "address_2": null, "address_3": null, "city": "Spokane", "state_province": "Washington", "postal_code": "99216-1876", "country": "United States", "longitude": "-117.1983425", "latitude": "47.68121756", "phone": "5094133663", "website_url": "http://www.englishsetterbrewing.com", "state": "Washington", "street": "15310 E Marietta Ave Ste 4"}, {"id": "e6018041-dbb0-492f-9a2d-73f1e3a27874", "name": "Engrained Brewing Co", "brewery_type": "brewpub", "address_1": "1120 W Lincolnshire Blvd", "address_2": null, "address_3": null, "city": "Springfield", "state_province": "Illinois", "postal_code": "62711-6445", "country": "United States", "longitude": "-89.6914854", "latitude": "39.7481952", "phone": "2175463054", "website_url": "http://www.engrainedbrewing.com", "state": "Illinois", "street": "1120 W Lincolnshire Blvd"}, {"id": "561a5198-be7f-447a-991c-516dcbc7dbae", "name": "Enki Brewing", "brewery_type": "micro", "address_1": "1495 Steiger Lake Ln", "address_2": null, "address_3": null, "city": "Victoria", "state_province": "Minnesota", "postal_code": "55386-9537", "country": "United States", "longitude": "-93.65723977", "latitude": "44.86169699", "phone": "9523008408", "website_url": "http://www.enkibrewing.com", "state": "Minnesota", "street": "1495 Steiger Lake Ln"}, {"id": "8c79b15d-77ca-452d-8527-b38cabf2a40a", "name": "Enlightened Brewing Company", "brewery_type": "micro", "address_1": "2018 S 1st St Ste 170", "address_2": null, "address_3": null, "city": "Milwaukee", "state_province": "Wisconsin", "postal_code": "53207-1102", "country": "United States", "longitude": null, "latitude": null, "phone": "4143646225", "website_url": "http://www.enlightenedbeer.com", "state": "Wisconsin", "street": "2018 S 1st St Ste 170"}, {"id": "f58c9bc0-34ca-4673-99f3-c124e0a41ee1", "name": "Enso Brewing Company", "brewery_type": "micro", "address_1": null, "address_2": null, "address_3": null, "city": "Vashon", "state_province": "Washington", "postal_code": "98070", "country": "United States", "longitude": null, "latitude": null, "phone": "2067072437", "website_url": null, "state": "Washington", "street": null}, {"id": "3f8ad1a4-2cc8-4851-96f2-958f401ea4f0", "name": "Entitled Beer Company", "brewery_type": "proprietor", "address_1": "21 North St", "address_2": null, "address_3": null, "city": "Hingham", "state_province": "Massachusetts", "postal_code": "02043-", "country": "United States", "longitude": "-70.88618473", "latitude": "42.24360723", "phone": "7817401035", "website_url": "http://www.entitledbrewing.com", "state": "Massachusetts", "street": "21 North St"}, {"id": "413d419f-ee43-4e41-a70e-4e7268346f9b", "name": "Enumclaw Brewing Company @ Rockridge Orchards & Cidery", "brewery_type": "closed", "address_1": "40709 264th Ave SE", "address_2": null, "address_3": null, "city": "Enumclaw", "state_province": "Washington", "postal_code": "98022-8366", "country": "United States", "longitude": null, "latitude": null, "phone": "3608026800", "website_url": "http://www.rockridgeorchards.com", "state": "Washington", "street": "40709 264th Ave SE"}, {"id": "9eae20d8-c073-4f43-b3ae-817ad1fca5ae", "name": "Eola School Restaurant", "brewery_type": "brewpub", "address_1": "12119 FM 381 Rd", "address_2": null, "address_3": null, "city": "Eola", "state_province": "Texas", "postal_code": "76937", "country": "United States", "longitude": null, "latitude": null, "phone": "3254693314", "website_url": "http://www.eolaschool.com", "state": "Texas", "street": "12119 FM 381 Rd"}, {"id": "2295d060-841f-4b67-81c9-1ddf3f37ab11", "name": "Epic Brewing Co., LLC", "brewery_type": "micro", "address_1": "3001 Walnut St", "address_2": null, "address_3": null, "city": "Denver", "state_province": "Colorado", "postal_code": "80205-2324", "country": "United States", "longitude": "-104.9813405", "latitude": "39.7632294", "phone": "7205397410", "website_url": "http://www.epicbrewing.com", "state": "Colorado", "street": "3001 Walnut St"}, {"id": "4748474e-0161-45c5-916b-0e69e5950a3f", "name": "Epic Brewing Co., LLC", "brewery_type": "micro", "address_1": "825 S State St", "address_2": null, "address_3": null, "city": "Salt Lake City", "state_province": "Utah", "postal_code": "84111-4207", "country": "United States", "longitude": "-111.887825", "latitude": "40.7511406", "phone": "8019060123", "website_url": "http://www.epicbrewing.com", "state": "Utah", "street": "825 S State St"}, {"id": "20c6bcdb-a3ed-474a-a759-9505c03b8d87", "name": "Epic Brewing Co., LLC", "brewery_type": "closed", "address_1": "1048 E 2100 S Ste 110", "address_2": null, "address_3": null, "city": "Salt Lake City", "state_province": "Utah", "postal_code": "84106-", "country": "United States", "longitude": null, "latitude": null, "phone": "8017425490", "website_url": "http://www.epicbrewing.com", "state": "Utah", "street": "1048 E 2100 S Ste 110"}, {"id": "016640d5-4cd0-4dd0-b25d-b18f7f04d58d", "name": "Epicure Brewing", "brewery_type": "micro", "address_1": "40 Franklin St", "address_2": null, "address_3": null, "city": "Norwich", "state_province": "Connecticut", "postal_code": "06360-", "country": "United States", "longitude": "-72.07437477", "latitude": "41.52521341", "phone": "8603770789", "website_url": "http://www.epicurebrewing.com", "state": "Connecticut", "street": "40 Franklin St"}, {"id": "d2d0c6ff-11ef-4c8a-b20d-ee0c6d6e6f1f", "name": "Epidemic Ales", "brewery_type": "micro", "address_1": "150 Mason Circle Stes I&J", "address_2": null, "address_3": null, "city": "Concord", "state_province": "California", "postal_code": "94520", "country": "United States", "longitude": "-122.0390695", "latitude": "38.01022008", "phone": "9255668850", "website_url": "http://www.epidemicales.com", "state": "California", "street": "150 Mason Circle Stes I&J"}, {"id": "13f3232c-9325-4b93-9fd9-06459cdd1734", "name": "Eponymous Brewing Co", "brewery_type": "micro", "address_1": "126 Main Ave S", "address_2": null, "address_3": null, "city": "Brookings", "state_province": "South Dakota", "postal_code": "57006-3038", "country": "United States", "longitude": "-96.79881257", "latitude": "44.30472165", "phone": "6056922739", "website_url": "http://www.eponymousbrewing.com", "state": "South Dakota", "street": "126 Main Ave S"}, {"id": "c4a5b92c-1d16-44f2-99ac-f7fecb759dc9", "name": "Eppig Brewing", "brewery_type": "micro", "address_1": "3052 El Cajon Blvd Ste 103", "address_2": null, "address_3": null, "city": "San Diego", "state_province": "California", "postal_code": "92104-1399", "country": "United States", "longitude": "-117.128732", "latitude": "32.755723", "phone": "6195011840", "website_url": "http://www.eppigbrewing.com", "state": "California", "street": "3052 El Cajon Blvd Ste 103"}, {"id": "87c781ee-9196-4e43-84ad-347f007569a2", "name": "Equal Parts Brewing", "brewery_type": "micro", "address_1": "3118 Harrisburg Blvd", "address_2": null, "address_3": null, "city": "Houston", "state_province": "Texas", "postal_code": "77003", "country": "United States", "longitude": null, "latitude": null, "phone": "3463523190", "website_url": "http://www.equalpartsbrewing.com/", "state": "Texas", "street": "3118 Harrisburg Blvd"}, {"id": "5979ba35-787d-4c50-9e32-bdf544d34087", "name": "Equilibrium Brewery", "brewery_type": "micro", "address_1": "22 Henry Street", "address_2": null, "address_3": null, "city": "Middletown", "state_province": "New York", "postal_code": "10940", "country": "United States", "longitude": "-74.42143934", "latitude": "41.44646965", "phone": "8457754216", "website_url": "http://www.eqbrew.com", "state": "New York", "street": "22 Henry Street"}, {"id": "a3a2cc22-a18b-4cf9-86df-0ca06723116d", "name": "Equinox Brewing", "brewery_type": "micro", "address_1": "133 Remington St", "address_2": null, "address_3": null, "city": "Fort Collins", "state_province": "Colorado", "postal_code": "80524-2833", "country": "United States", "longitude": "-105.0757134", "latitude": "40.5863266", "phone": "9704841368", "website_url": "http://www.equinoxbrewing.com", "state": "Colorado", "street": "133 Remington St"}, {"id": "f10f2add-c809-4f58-958b-c47876af2a28", "name": "Erie Ale Works", "brewery_type": "micro", "address_1": "416 W 12th St", "address_2": null, "address_3": null, "city": "Erie", "state_province": "Pennsylvania", "postal_code": "16501-1506", "country": "United States", "longitude": "-80.1219366", "latitude": "42.108963", "phone": "8143149089", "website_url": "http://www.eriealeworks.com", "state": "Pennsylvania", "street": "416 W 12th St"}, {"id": "e29579e9-a9e2-4c53-b966-d2ad4bb698b6", "name": "Erie Brewing Co", "brewery_type": "micro", "address_1": "6008 Knowledge Pkwy # A", "address_2": null, "address_3": null, "city": "Erie", "state_province": "Pennsylvania", "postal_code": "16510-4676", "country": "United States", "longitude": null, "latitude": null, "phone": "8144597741", "website_url": "http://www.eriebrewingco.com", "state": "Pennsylvania", "street": "6008 Knowledge Pkwy # A"}, {"id": "87fe9d64-abad-4104-b35f-d5c3c156c910", "name": "Erie Canal Brewing Company", "brewery_type": "micro", "address_1": "135 S Peterboro St", "address_2": null, "address_3": null, "city": "Canastota", "state_province": "New York", "postal_code": "13032-1409", "country": "United States", "longitude": "-75.75153202", "latitude": "43.07857637", "phone": "3155105001", "website_url": "http://www.eriecanalbrewingcompany.com", "state": "New York", "street": "135 S Peterboro St"}, {"id": "8551ddb7-d116-460e-b82d-4003bf816287", "name": "Eris Brewery And Cider House", "brewery_type": "brewpub", "address_1": "4240 W Irving Park Rd", "address_2": null, "address_3": null, "city": "Chicago", "state_province": "Illinois", "postal_code": "60641", "country": "United States", "longitude": "-87.7342346", "latitude": "41.95388195", "phone": "5623086582", "website_url": null, "state": "Illinois", "street": "4240 W Irving Park Rd"}, {"id": "d9942ca7-6ba7-4f64-90de-73796afe5851", "name": "Escape Brewing Company", "brewery_type": "micro", "address_1": "9945 Trinity Blvd Ste 108", "address_2": null, "address_3": null, "city": "Trinity", "state_province": "Florida", "postal_code": "34655-4552", "country": "United States", "longitude": "-82.65284391", "latitude": "28.18036575", "phone": "7276393820", "website_url": "http://www.escapebrewingcompany.com", "state": "Florida", "street": "9945 Trinity Blvd Ste 108"}, {"id": "036c6be6-1227-40f9-833f-a753747edcdb", "name": "Escape Craft Brewery", "brewery_type": "micro", "address_1": "721 Nevada St Ste 401", "address_2": null, "address_3": null, "city": "Redlands", "state_province": "California", "postal_code": "92373-8053", "country": "United States", "longitude": "-117.2175772", "latitude": "34.0603401", "phone": "9097133727", "website_url": "http://www.escapecraftbrewery.com", "state": "California", "street": "721 Nevada St Ste 401"}, {"id": "60a1ea9e-db4f-4bcf-8799-bb84baa08082", "name": "Escondido Brewing Company", "brewery_type": "micro", "address_1": "649 Rock Springs Rd", "address_2": null, "address_3": null, "city": "Escondido", "state_province": "California", "postal_code": "92025-1622", "country": "United States", "longitude": "-117.097042", "latitude": "33.124632", "phone": null, "website_url": "http://www.escobrewco.com", "state": "California", "street": "649 Rock Springs Rd"}, {"id": "c8aa4da8-b80b-46b2-bf4c-e76bfe47d22e", "name": "Escutcheon Brewing Co.", "brewery_type": "micro", "address_1": "142 W Commercial St", "address_2": null, "address_3": null, "city": "Winchester", "state_province": "Virginia", "postal_code": "22601-4828", "country": "United States", "longitude": "-78.1634732", "latitude": "39.19554464", "phone": "5407733042", "website_url": "http://www.escutcheonbrewing.com", "state": "Virginia", "street": "142 W Commercial St"}, {"id": "2f4ac980-04c4-4391-a4e4-2f5d90f9e4c2", "name": "Eskes Brew Pub", "brewery_type": "brewpub", "address_1": "106 Des Georges Pl", "address_2": null, "address_3": null, "city": "Taos", "state_province": "New Mexico", "postal_code": "87571-6179", "country": "United States", "longitude": "-105.5731656", "latitude": "36.4058929", "phone": "5757581517", "website_url": "http://www.eskesbrewpub.com", "state": "New Mexico", "street": "106 Des Georges Pl"}, {"id": "b07c36e6-95d2-4fdc-981f-8266a0bc3786", "name": "Estes Park Brewery", "brewery_type": "micro", "address_1": "470 Prospect Village Dr", "address_2": null, "address_3": null, "city": "Estes Park", "state_province": "Colorado", "postal_code": "80517", "country": "United States", "longitude": "-105.5261317", "latitude": "40.3714876", "phone": "9705865421", "website_url": "http://www.epbrewery.net", "state": "Colorado", "street": "470 Prospect Village Dr"}, {"id": "b8b99a39-f008-4bde-9824-c5aaf4ba6b61", "name": "Eternity Brewing Co", "brewery_type": "micro", "address_1": "4060 E Grand River Ave", "address_2": null, "address_3": null, "city": "Howell", "state_province": "Michigan", "postal_code": "48843-8583", "country": "United States", "longitude": "-83.9948055", "latitude": "42.63273017", "phone": "5172954904", "website_url": "http://www.eternitybrewing.com", "state": "Michigan", "street": "4060 E Grand River Ave"}, {"id": "ec0e5191-0b58-43ae-b0fb-6f6b7af46bbc", "name": "Ethereal Brewing", "brewery_type": "micro", "address_1": "1224 Manchester St", "address_2": null, "address_3": null, "city": "Lexington", "state_province": "Kentucky", "postal_code": "40504-1129", "country": "United States", "longitude": "-84.5200035", "latitude": "38.056562", "phone": "8593091254", "website_url": "http://www.etherealbrew.com", "state": "Kentucky", "street": "1224 Manchester St"}, {"id": "7a824a71-6925-4710-bea9-2231cecc634b", "name": "Etna Brewing Co LLC", "brewery_type": "micro", "address_1": "131 Callahan Street", "address_2": null, "address_3": null, "city": "Etna", "state_province": "California", "postal_code": "96027", "country": "United States", "longitude": "-122.8918305", "latitude": "41.45674141", "phone": "5304675277", "website_url": "http://www.etnabrew.com", "state": "California", "street": "131 Callahan Street"}, {"id": "5b2d36b5-9994-421e-bd81-f9bca58a9216", "name": "Etowah Brewery", "brewery_type": "planning", "address_1": null, "address_2": null, "address_3": null, "city": "Dahlonega", "state_province": "Georgia", "postal_code": "30533", "country": "United States", "longitude": null, "latitude": null, "phone": "6785707349", "website_url": null, "state": "Georgia", "street": null}, {"id": "01a6ba0f-c1d8-4d6f-9c90-c97f611a0844", "name": "ETX Brewing Co.", "brewery_type": "micro", "address_1": "221 S Broadway Ave", "address_2": null, "address_3": null, "city": "Tyler", "state_province": "Texas", "postal_code": "75702-7302", "country": "United States", "longitude": "-95.3081695", "latitude": "32.2553345", "phone": "9036307720", "website_url": "http://www.etxbrew.com", "state": "Texas", "street": "221 S Broadway Ave"}, {"id": "d3fd07d4-ccaa-4100-bf82-a6acd3ed4b7e", "name": "Eudora Brewing Co", "brewery_type": "micro", "address_1": "4716 Wilmington Pike", "address_2": null, "address_3": null, "city": "Dayton", "state_province": "Ohio", "postal_code": "45440-2021", "country": "United States", "longitude": "-84.162271", "latitude": "39.735916", "phone": "9377236863", "website_url": "http://www.eudorabrewing.com", "state": "Ohio", "street": "4716 Wilmington Pike"}, {"id": "1540f10e-84b9-4af6-ac33-c3a8830aa67c", "name": "Eureka Heights Brewing Company", "brewery_type": "micro", "address_1": "941 W 18th St", "address_2": null, "address_3": null, "city": "Houston", "state_province": "Texas", "postal_code": "77008-3336", "country": "United States", "longitude": "-95.4164348", "latitude": "29.8019913", "phone": "8329534677", "website_url": "http://www.eurekaheights.com", "state": "Texas", "street": "941 W 18th St"}, {"id": "9d99fd5e-9aeb-48c6-a8b5-ece6a0607dbd", "name": "EuroBevs", "brewery_type": "contract", "address_1": "2255 Cumberland Pkwy SE", "address_2": null, "address_3": null, "city": "Atlanta", "state_province": "Georgia", "postal_code": "30339-4515", "country": "United States", "longitude": null, "latitude": null, "phone": "7704371285", "website_url": "http://www.eurobevs.com", "state": "Georgia", "street": "2255 Cumberland Pkwy SE"}, {"id": "e33818b7-7dd4-45ac-8f77-0816794a18a1", "name": "Euryale Brewing Company", "brewery_type": "micro", "address_1": "2060 Chicago Ave Ste A17", "address_2": null, "address_3": null, "city": "Riverside", "state_province": "California", "postal_code": "92507-2344", "country": "United States", "longitude": "-117.3479555", "latitude": "33.99293689", "phone": "9515308865", "website_url": "http://www.euryalebrewing.com", "state": "California", "street": "2060 Chicago Ave Ste A17"}, {"id": "7240f52e-72c7-4c00-a8f3-9eeb0daac16e", "name": "Evans Brewing Co / Bayhawk Ales", "brewery_type": "micro", "address_1": "2000 Main St", "address_2": null, "address_3": null, "city": "Irvine", "state_province": "California", "postal_code": "92614-7202", "country": "United States", "longitude": "-117.8559667", "latitude": "33.68560798", "phone": "7147080082", "website_url": "http://www.evansbrewco.com", "state": "California", "street": "2000 Main St"}, {"id": "d656f484-6477-4d44-8c47-7bf1bf309363", "name": "Evasion Brewing - Production Facility", "brewery_type": "micro", "address_1": "4230 NE Riverside Dr", "address_2": null, "address_3": null, "city": "McMinnville", "state_province": "Oregon", "postal_code": "97128-8403", "country": "United States", "longitude": "-123.1519619", "latitude": "45.22899995", "phone": "5038355322", "website_url": "http://www.evasionbrewing.com", "state": "Oregon", "street": "4230 NE Riverside Dr"}, {"id": "51e73708-c0e0-4502-8986-2b1db31621f5", "name": "Eventide Brewing Co", "brewery_type": "micro", "address_1": "1015 Grant St SE", "address_2": null, "address_3": null, "city": "Atlanta", "state_province": "Georgia", "postal_code": "30315-2014", "country": "United States", "longitude": "-84.37706291", "latitude": "33.72670205", "phone": "4049074543", "website_url": "http://www.eventidebrewing.com", "state": "Georgia", "street": "1015 Grant St SE"}, {"id": "13677292-c029-4542-9335-497bcd8d515d", "name": "Ever Grain Brewing Co", "brewery_type": "micro", "address_1": "4444 Carlisle Pike Ste C", "address_2": null, "address_3": null, "city": "Camp Hill", "state_province": "Pennsylvania", "postal_code": "17011-4102", "country": "United States", "longitude": null, "latitude": null, "phone": "7175258222", "website_url": null, "state": "Pennsylvania", "street": "4444 Carlisle Pike Ste C"}, {"id": "0bd9b336-f4f3-41f7-91e0-19709d3c6364", "name": "Evergreen Brewery", "brewery_type": "brewpub", "address_1": "2962 Evergreen Pkwy", "address_2": null, "address_3": null, "city": "Evergreen", "state_province": "Colorado", "postal_code": "80439-7995", "country": "United States", "longitude": null, "latitude": null, "phone": "3037368419", "website_url": "http://www.evergreentaphouse.com", "state": "Colorado", "street": "2962 Evergreen Pkwy"}, {"id": "7c0fa97b-b482-43bd-a429-b62ed564e50c", "name": "Everybody's Brewing Co", "brewery_type": "micro", "address_1": "177 E Jewett Blvd", "address_2": null, "address_3": null, "city": "White Salmon", "state_province": "Washington", "postal_code": "98672-8976", "country": "United States", "longitude": "-121.4854565", "latitude": "45.72787736", "phone": "5096372774", "website_url": "http://www.everybodysbrewing.com", "state": "Washington", "street": "177 E Jewett Blvd"}, {"id": "51e62ad1-42ab-490a-b8a8-3ae8d6502c7f", "name": "Evil Czech Brewery", "brewery_type": "brewpub", "address_1": "3703 N Main St", "address_2": null, "address_3": null, "city": "Mishawaka", "state_province": "Indiana", "postal_code": "46545-3111", "country": "United States", "longitude": "-86.1823337", "latitude": "41.6939205", "phone": null, "website_url": null, "state": "Indiana", "street": "3703 N Main St"}, {"id": "339caa7a-481f-4315-bba1-bca6b74d8b89", "name": "Evil Genius Beer Co", "brewery_type": "micro", "address_1": "1727 N Front St", "address_2": null, "address_3": null, "city": "Philadelphia", "state_province": "Pennsylvania", "postal_code": "19122-3203", "country": "United States", "longitude": "-75.13401561", "latitude": "39.97578018", "phone": "2154256820", "website_url": "http://www.evilgeniusbeer.com", "state": "Pennsylvania", "street": "1727 N Front St"}, {"id": "133e055a-4014-4eaf-822f-4d5089b14ffc", "name": "Evil Horse Brewing Company, LLC", "brewery_type": "micro", "address_1": "1338 Main St", "address_2": null, "address_3": null, "city": "Crete", "state_province": "Illinois", "postal_code": "60417-2131", "country": "United States", "longitude": "-87.631432", "latitude": "41.44499003", "phone": "7083042907", "website_url": "http://evilhorsebrewing.com", "state": "Illinois", "street": "1338 Main St"}, {"id": "375f4801-e257-44f8-af0c-1e4bb3804b20", "name": "Evolution Craft Brewing Co", "brewery_type": "regional", "address_1": "200 Elmwood St", "address_2": null, "address_3": null, "city": "Salisbury", "state_province": "Maryland", "postal_code": "21804-5522", "country": "United States", "longitude": "-75.595254", "latitude": "38.361979", "phone": "4432602337", "website_url": "http://www.evolutioncraftbrewing.com", "state": "Maryland", "street": "200 Elmwood St"}, {"id": "fe4a7fe6-9a1a-4e6b-8a7b-d4ddd6ad0efd", "name": "Evolution Craft Brewing Co - Salisbury", "brewery_type": "brewpub", "address_1": "201 E Vine St", "address_2": null, "address_3": null, "city": "Salisbury", "state_province": "Maryland", "postal_code": "21804-5515", "country": "United States", "longitude": "-75.595628", "latitude": "38.360471", "phone": null, "website_url": null, "state": "Maryland", "street": "201 E Vine St"}, {"id": "4a2c515d-7384-4406-8751-31133687eac1", "name": "Ex Novo Brewing Co", "brewery_type": "micro", "address_1": "2326 N Flint Ave", "address_2": null, "address_3": null, "city": "Portland", "state_province": "Oregon", "postal_code": "97227-1905", "country": "United States", "longitude": "-122.6684147", "latitude": "45.54002045", "phone": "5038948251", "website_url": "http://www.exnovobrew.com", "state": "Oregon", "street": "2326 N Flint Ave"}, {"id": "5e6d5f65-c765-4f07-ab83-92556b3c8d04", "name": "Excel Brewing Co", "brewery_type": "micro", "address_1": "488 S Broadway", "address_2": null, "address_3": null, "city": "Breese", "state_province": "Illinois", "postal_code": "62230-1805", "country": "United States", "longitude": "-89.53007673", "latitude": "38.60665933", "phone": "6185267159", "website_url": "http://www.excelbottling.com", "state": "Illinois", "street": "488 S Broadway"}, {"id": "42159682-82fd-4be8-8fe4-2e8a4799339d", "name": "Excelsior Brewing Co", "brewery_type": "micro", "address_1": "421 3rd St Ste 3", "address_2": null, "address_3": null, "city": "Excelsior", "state_province": "Minnesota", "postal_code": "55331-2008", "country": "United States", "longitude": null, "latitude": null, "phone": "9524747837", "website_url": "http://www.excelsiorbrew.com", "state": "Minnesota", "street": "421 3rd St Ste 3"}, {"id": "9e2133f8-4aba-4b9b-830f-13f9c3626c44", "name": "Exferimentation Brewing Company", "brewery_type": "micro", "address_1": "7 N Saginaw St", "address_2": null, "address_3": null, "city": "Pontiac", "state_province": "Michigan", "postal_code": "48342-2182", "country": "United States", "longitude": "-83.292346", "latitude": "42.6369922", "phone": "2486481377", "website_url": "http://www.exferimentationbrewing.com", "state": "Michigan", "street": "7 N Saginaw St"}, {"id": "cbc96b9c-6ff0-4172-8bbd-02f4a55ab5bc", "name": "Exhibit 'A' Brewing Co.", "brewery_type": "micro", "address_1": "81 Morton St", "address_2": null, "address_3": null, "city": "Framingham", "state_province": "Massachusetts", "postal_code": "01702-7153", "country": "United States", "longitude": "-71.40187088", "latitude": "42.27880435", "phone": null, "website_url": "http://www.exhibit-A-brewing.com", "state": "Massachusetts", "street": "81 Morton St"}, {"id": "7a156b9c-1010-4774-ab03-3f401a22089c", "name": "Exile Brewing", "brewery_type": "micro", "address_1": "1514 Walnut St", "address_2": null, "address_3": null, "city": "Des Moines", "state_province": "Iowa", "postal_code": "50309-3420", "country": "United States", "longitude": "-93.63702159", "latitude": "41.5830167", "phone": "5158832337", "website_url": "http://www.exilebrewing.com", "state": "Iowa", "street": "1514 Walnut St"}, {"id": "ad3eac47-5589-4d11-a8cf-f118895fe7f7", "name": "Exit 6 Brewery", "brewery_type": "micro", "address_1": "5055 Highway N Ste 112", "address_2": null, "address_3": null, "city": "Saint Charles", "state_province": "Missouri", "postal_code": "63304-8031", "country": "United States", "longitude": "-90.639934", "latitude": "38.745126", "phone": "6362444343", "website_url": "http://www.exit6brewery.com", "state": "Missouri", "street": "5055 Highway N Ste 112"}, {"id": "38b01e10-3aac-4226-b30f-bb568f0e41bc", "name": "Exit Strategy Brewing Company", "brewery_type": "brewpub", "address_1": "7700 Madison St", "address_2": null, "address_3": null, "city": "Forest Park", "state_province": "Illinois", "postal_code": "60130-1404", "country": "United States", "longitude": "-87.8108065", "latitude": "41.8795262", "phone": "7086898771", "website_url": "http://www.exitstrategybrewing.com", "state": "Illinois", "street": "7700 Madison St"}, {"id": "e7d630be-55a7-4d75-8fa0-72a6f25e49ec", "name": "Explorer Brewing Company", "brewery_type": "micro", "address_1": "209 Ash St", "address_2": null, "address_3": null, "city": "Kelso", "state_province": "Washington", "postal_code": "98626", "country": "United States", "longitude": "-122.9120251", "latitude": "46.14277372", "phone": "3602328337", "website_url": "https://www.facebook.com/discoverourcraft", "state": "Washington", "street": "209 Ash St"}, {"id": "4df55a90-f4fa-4966-9e9c-5d0beaa22d46", "name": "Extra Billys Brewery and Smokehouse", "brewery_type": "brewpub", "address_1": "1110 Alverser Dr", "address_2": null, "address_3": null, "city": "Midlothian", "state_province": "Virginia", "postal_code": "23113-2654", "country": "United States", "longitude": null, "latitude": null, "phone": "8043798727", "website_url": "http://www.extrabillys.com", "state": "Virginia", "street": "1110 Alverser Dr"}, {"id": "b2040588-749b-4784-b662-24d3e14c0827", "name": "F-Town Brewing Company", "brewery_type": "micro", "address_1": "22 4th St NE", "address_2": null, "address_3": null, "city": "Faribault", "state_province": "Minnesota", "postal_code": "55021-5207", "country": "United States", "longitude": "-93.26734492", "latitude": "44.29499775", "phone": "5073317677", "website_url": "http://www.ftownbeer.com", "state": "Minnesota", "street": "22 4th St NE"}, {"id": "09fd5463-3654-4126-8c8a-fc7af79025cc", "name": "Faction Brewing Co", "brewery_type": "micro", "address_1": "2501 Monarch St Ste 200", "address_2": null, "address_3": null, "city": "Alameda", "state_province": "California", "postal_code": "94501-5098", "country": "United States", "longitude": "-122.3097077", "latitude": "37.7866722", "phone": "5105232739", "website_url": "http://www.factionbrewing.com", "state": "California", "street": "2501 Monarch St Ste 200"}, {"id": "4b832677-fcb7-4eb8-8d6b-c0429d0db2f1", "name": "Factotum Brewhouse", "brewery_type": "micro", "address_1": "3845 Lipan St", "address_2": null, "address_3": null, "city": "Denver", "state_province": "Colorado", "postal_code": "80211-2651", "country": "United States", "longitude": "-105.0020653", "latitude": "39.7702043", "phone": "7204414735", "website_url": "http://www.factotumbrewhouse.com", "state": "Colorado", "street": "3845 Lipan St"}, {"id": "409cbbab-e5e4-45a7-a251-16406806ccda", "name": "Fainting Goat Brewing Company", "brewery_type": "micro", "address_1": "330 S Main St", "address_2": null, "address_3": null, "city": "Fuquay Varina", "state_province": "North Carolina", "postal_code": "27526-2225", "country": "United States", "longitude": "-78.80001933", "latitude": "35.5812855", "phone": "9193950642", "website_url": "http://www.faintinggoatbeer.com", "state": "North Carolina", "street": "330 S Main St"}, {"id": "146c521f-d3c9-4a86-82a8-7bbf951aedea", "name": "Fair Isle Brewing", "brewery_type": "planning", "address_1": null, "address_2": null, "address_3": null, "city": "Seattle", "state_province": "Washington", "postal_code": "98199-1121", "country": "United States", "longitude": null, "latitude": null, "phone": "2066041317", "website_url": "http://www.fairislebrewing.com", "state": "Washington", "street": null}, {"id": "3614131f-2a22-4bcb-8708-e7450dc980d2", "name": "Fair Oaks Brew Pub", "brewery_type": "brewpub", "address_1": "7988 California Ave", "address_2": null, "address_3": null, "city": "Fair Oaks", "state_province": "California", "postal_code": "95628-7140", "country": "United States", "longitude": "-121.2687393", "latitude": "38.64181849", "phone": null, "website_url": "http://www.fairoaksbrewpub.com", "state": "California", "street": "7988 California Ave"}, {"id": "cdbad8ba-146f-45dd-b87c-c91eec35d170", "name": "Fair State Brewing Cooperative", "brewery_type": "micro", "address_1": "2506A Central Ave NE", "address_2": null, "address_3": null, "city": "Minneapolis", "state_province": "Minnesota", "postal_code": "55418", "country": "United States", "longitude": "-93.247453", "latitude": "45.01337914", "phone": "6124443209", "website_url": "http://www.fairstate.coop", "state": "Minnesota", "street": "2506A Central Ave NE"}, {"id": "8cb37c9f-01f0-4737-b068-0563e61da8d8", "name": "Fair State Brewing Cooperative - St. Paul", "brewery_type": "micro", "address_1": "2075 Ellis Ave", "address_2": null, "address_3": null, "city": "Saint Paul", "state_province": "Minnesota", "postal_code": "55114-1308", "country": "United States", "longitude": "-93.18822129", "latitude": "44.96603388", "phone": "6124443209", "website_url": null, "state": "Minnesota", "street": "2075 Ellis Ave"}, {"id": "3321c8e5-b94c-4eac-bdd7-2702889ab9f8", "name": "Fair Winds Brewing Company", "brewery_type": "micro", "address_1": "7000 Newington Rd Ste K& # L", "address_2": null, "address_3": null, "city": "Lorton", "state_province": "Virginia", "postal_code": "22079-1133", "country": "United States", "longitude": null, "latitude": null, "phone": "7033722001", "website_url": "http://www.fairwindsbrewing.com", "state": "Virginia", "street": "7000 Newington Rd Ste K& # L"}, {"id": "e73ab2c9-9e8e-40f7-ac90-d3de503f2052", "name": "Fairfield Craft Ales", "brewery_type": "micro", "address_1": "724 Honeyspot Rd", "address_2": null, "address_3": null, "city": "Stratford", "state_province": "Connecticut", "postal_code": "06615-7109", "country": "United States", "longitude": "-73.14702832", "latitude": "41.17565816", "phone": "2032962530", "website_url": "http://www.fairfieldcraftales.com", "state": "Connecticut", "street": "724 Honeyspot Rd"}, {"id": "ff7683a0-1be0-4ac4-a538-91e45d7db527", "name": "Fairfield Opera House Brewery", "brewery_type": "brewpub", "address_1": "415 N D St", "address_2": null, "address_3": null, "city": "Fairfield", "state_province": "Nebraska", "postal_code": "68938-2114", "country": "United States", "longitude": "-98.10588657", "latitude": "40.43061571", "phone": "4027262447", "website_url": "http://www.fairfieldoperahouse.com", "state": "Nebraska", "street": "415 N D St"}, {"id": "33ddedf3-db57-4bc5-a935-ee1ac0ca1435", "name": "Fairhope Brewing Co", "brewery_type": "micro", "address_1": "914 Nichols Ave", "address_2": null, "address_3": null, "city": "Fairhope", "state_province": "Alabama", "postal_code": "36532-3684", "country": "United States", "longitude": "-87.898282", "latitude": "30.516291", "phone": "2512797517", "website_url": null, "state": "Alabama", "street": "914 Nichols Ave"}, {"id": "e80dd655-7f93-4e25-9008-89124f4dc685", "name": "Fairport Brewing Co", "brewery_type": "micro", "address_1": "99 S Main St", "address_2": null, "address_3": null, "city": "Fairport", "state_province": "New York", "postal_code": "14450-2100", "country": "United States", "longitude": "-77.4416792", "latitude": "43.0988098", "phone": "5857520613", "website_url": "http://www.fairportbrewing.com", "state": "New York", "street": "99 S Main St"}, {"id": "469c98f8-6cf2-4bce-89d2-8ac4f07e519d", "name": "Fairport Brewing Co", "brewery_type": "micro", "address_1": "1000 Turk Hill Rd Ste 298", "address_2": null, "address_3": null, "city": "Fairport", "state_province": "New York", "postal_code": "14450-8755", "country": "United States", "longitude": null, "latitude": null, "phone": "5857520613", "website_url": null, "state": "New York", "street": "1000 Turk Hill Rd Ste 298"}, {"id": "ce39a577-ce79-4328-9251-faa66bd7ffa7", "name": "Fall Brewing Company", "brewery_type": "micro", "address_1": "4542 30th St", "address_2": null, "address_3": null, "city": "San Diego", "state_province": "California", "postal_code": "92116-4247", "country": "United States", "longitude": "-117.1302802", "latitude": "32.75997514", "phone": "6195010903", "website_url": "http://www.fallbrewing.com", "state": "California", "street": "4542 30th St"}, {"id": "0bd3a805-101a-44af-97ee-eae99c7fe1c7", "name": "Fall River Brewing Company", "brewery_type": "closed", "address_1": "24339 State Highway 89", "address_2": null, "address_3": null, "city": "Burney", "state_province": "California", "postal_code": "96013-9615", "country": "United States", "longitude": "-121.6230357", "latitude": "40.99337635", "phone": null, "website_url": "http://www.fallriverbrewing.com", "state": "California", "street": "24339 State Highway 89"}, {"id": "29fb815b-f6a0-461b-8b08-9829959cdf1a", "name": "Fall River Brewing Company", "brewery_type": "micro", "address_1": "4001 Eastside Rd", "address_2": null, "address_3": null, "city": "Redding", "state_province": "California", "postal_code": "96001", "country": "United States", "longitude": "-122.3869586", "latitude": "40.55859975", "phone": null, "website_url": "http://www.fallriverbrewing.com", "state": "California", "street": "4001 Eastside Rd"}, {"id": "c93b83e9-91a9-4f3b-b3d7-4931d43ff2bf", "name": "Fallbrook Brewing Co", "brewery_type": "micro", "address_1": "116 W Hawthorne St", "address_2": null, "address_3": null, "city": "Fallbrook", "state_province": "California", "postal_code": "92028-", "country": "United States", "longitude": "-117.2516425", "latitude": "33.38273379", "phone": null, "website_url": "http://www.fallbrookbrewing.com", "state": "California", "street": "116 W Hawthorne St"}, {"id": "e5467256-ec72-496e-82ff-8a5bf07bf2c1", "name": "Falling Branch Brewery", "brewery_type": "micro", "address_1": "825 Highland Rd", "address_2": null, "address_3": null, "city": "Street", "state_province": "Maryland", "postal_code": "21154-1312", "country": "United States", "longitude": "-76.3708166", "latitude": "39.66665004", "phone": null, "website_url": "http://fallingbranchbeer.com", "state": "Maryland", "street": "825 Highland Rd"}, {"id": "e986a09e-8f49-456c-b9dc-950b744484d4", "name": "Falling Down Beer Co.", "brewery_type": "brewpub", "address_1": "2270 E 10 Mile Rd", "address_2": null, "address_3": null, "city": "Warren", "state_province": "Michigan", "postal_code": "48091-3701", "country": "United States", "longitude": "-82.9805361", "latitude": "42.4787048", "phone": null, "website_url": null, "state": "Michigan", "street": "2270 E 10 Mile Rd"}, {"id": "3cffc2c8-fe86-46cd-836b-55f860daa1d9", "name": "Falling Sky Brewing", "brewery_type": "brewpub", "address_1": "1334 Oak Aly", "address_2": null, "address_3": null, "city": "Eugene", "state_province": "Oregon", "postal_code": "97401-3190", "country": "United States", "longitude": "-123.0921962", "latitude": "44.04539623", "phone": "5415057096", "website_url": "http://www.fallingskybrewing.com", "state": "Oregon", "street": "1334 Oak Aly"}, {"id": "46c00e4c-6069-40af-9412-24cc10a64902", "name": "Falls City Brewing Company", "brewery_type": "micro", "address_1": "901 E Liberty St", "address_2": null, "address_3": null, "city": "Louisville", "state_province": "Kentucky", "postal_code": "40204", "country": "United States", "longitude": "-85.73625618", "latitude": "38.25036895", "phone": "5022577284", "website_url": "http://www.fallscitybeer.com", "state": "Kentucky", "street": "901 E Liberty St"}, {"id": "774bb339-af5e-4a24-9bec-a34d854dc393", "name": "Fam's Brewing Company", "brewery_type": "brewpub", "address_1": "1291 Folly Rd", "address_2": null, "address_3": null, "city": "Charleston", "state_province": "South Carolina", "postal_code": "29412", "country": "United States", "longitude": null, "latitude": null, "phone": "8437937733", "website_url": "http://www.famspizza.com", "state": "South Carolina", "street": "1291 Folly Rd"}, {"id": "2cd2c54f-2579-4da6-8c4e-cd95c811d78a", "name": "Family Business Beer Company", "brewery_type": "micro", "address_1": "19510 Hamilton Pool Rd", "address_2": null, "address_3": null, "city": "Dripping Springs", "state_province": "Texas", "postal_code": "78620-2823", "country": "United States", "longitude": null, "latitude": null, "phone": "5128294202", "website_url": "http://www.familybusinessbeerco.com", "state": "Texas", "street": "19510 Hamilton Pool Rd"}, {"id": "c266b8f9-e306-4809-a344-5c6244ce6c6e", "name": "Fanatic Brewing Company", "brewery_type": "micro", "address_1": "2735 N Central St", "address_2": null, "address_3": null, "city": "Knoxville", "state_province": "Tennessee", "postal_code": "37917", "country": "United States", "longitude": "-83.94224452", "latitude": "35.99175106", "phone": "8655482337", "website_url": "http://www.fanaticbrewing.com", "state": "Tennessee", "street": "2735 N Central St"}, {"id": "b024d4aa-863a-460b-ad4d-aba44398e2ab", "name": "Fannin Brewing", "brewery_type": "micro", "address_1": "3758 E First St", "address_2": null, "address_3": null, "city": "Blue Ridge", "state_province": "Georgia", "postal_code": "30513-4514", "country": "United States", "longitude": "-84.31707477", "latitude": "34.87142613", "phone": "7062582762", "website_url": "http://www.fanninbrewingcompany.com", "state": "Georgia", "street": "3758 E First St"}, {"id": "e82ab4e0-4615-4ab0-b7f5-8d5b75839bb7", "name": "Fantasy Brewmasters, LLC", "brewery_type": "contract", "address_1": "5825 Dogwood Way", "address_2": null, "address_3": null, "city": "Naples", "state_province": "Florida", "postal_code": "34116-4909", "country": "United States", "longitude": null, "latitude": null, "phone": "2392063247", "website_url": null, "state": "Florida", "street": "5825 Dogwood Way"}, {"id": "20652f26-12e5-4a3e-8a7b-589f6626acb4", "name": "Far Gohn Brewing Company", "brewery_type": "micro", "address_1": "301 S East St", "address_2": null, "address_3": null, "city": "Culpeper", "state_province": "Virginia", "postal_code": "22701-3105", "country": "United States", "longitude": null, "latitude": null, "phone": "5404232089", "website_url": "http://www.fargohnbrewing.com", "state": "Virginia", "street": "301 S East St"}, {"id": "e87d9efb-c71e-45fb-a54c-3bdc71391046", "name": "Fargo Brewing Co", "brewery_type": "micro", "address_1": "610 University Dr N", "address_2": null, "address_3": null, "city": "Fargo", "state_province": "North Dakota", "postal_code": "58102-4342", "country": "United States", "longitude": "-96.79937236", "latitude": "46.88326389", "phone": "7014782337", "website_url": "http://www.fargobrewing.com", "state": "North Dakota", "street": "610 University Dr N"}, {"id": "0186da1a-a5c4-4076-8a33-25ee193a65a4", "name": "Farm Road Brewery", "brewery_type": "planning", "address_1": null, "address_2": null, "address_3": null, "city": "Arlington", "state_province": "Vermont", "postal_code": "05250-8766", "country": "United States", "longitude": null, "latitude": null, "phone": null, "website_url": null, "state": "Vermont", "street": null}, {"id": "90f16bb9-b94f-4f2c-8fae-c64ed95208b3", "name": "Farm Shed Wines & Brews", "brewery_type": "micro", "address_1": "22808 Sumner Buckley Hwy E", "address_2": null, "address_3": null, "city": "Buckley", "state_province": "Washington", "postal_code": "98321-8424", "country": "United States", "longitude": "-122.124967", "latitude": "47.180813", "phone": "8444379786", "website_url": "http://www.farmshedwines.com", "state": "Washington", "street": "22808 Sumner Buckley Hwy E"}, {"id": "4bd0b915-e78d-4dde-bf1d-549999499aca", "name": "Farmacy Brewing", "brewery_type": "planning", "address_1": null, "address_2": null, "address_3": null, "city": "Reisterstown", "state_province": "Maryland", "postal_code": "21136-3817", "country": "United States", "longitude": null, "latitude": null, "phone": "4109352551", "website_url": null, "state": "Maryland", "street": null}, {"id": "ab98a927-af49-4318-928d-0bb98651f45d", "name": "Farmers Brewing Co", "brewery_type": "planning", "address_1": null, "address_2": null, "address_3": null, "city": "Princeton", "state_province": "California", "postal_code": "95970-9519", "country": "United States", "longitude": "-122.009975", "latitude": "39.4032192", "phone": "5306246053", "website_url": "http://www.farmersbrewing.com", "state": "California", "street": null}, {"id": "b2a43962-9a78-4e6d-882c-d3cb13129327", "name": "Farmington Brewing Company LLC", "brewery_type": "micro", "address_1": "33336 Grand River Ave", "address_2": null, "address_3": null, "city": "Farmington", "state_province": "Michigan", "postal_code": "48336-3124", "country": "United States", "longitude": "-83.37603742", "latitude": "42.4649541", "phone": "2489579543", "website_url": "http://fbcbrewing.com", "state": "Michigan", "street": "33336 Grand River Ave"}, {"id": "6cbd8d7c-b5af-4eda-802c-550643b62d42", "name": "Farmington Underground Canning and Kegging", "brewery_type": "micro", "address_1": null, "address_2": null, "address_3": null, "city": "Farmington", "state_province": "Michigan", "postal_code": "48336", "country": "United States", "longitude": null, "latitude": null, "phone": null, "website_url": null, "state": "Michigan", "street": null}, {"id": "7eaa5cbc-b92b-4c5f-91fa-5242c2a66214", "name": "Farmstrong Brewing Co", "brewery_type": "micro", "address_1": "110 Stewart Rd", "address_2": null, "address_3": null, "city": "Mount Vernon", "state_province": "Washington", "postal_code": "98273-9628", "country": "United States", "longitude": "-122.3369645", "latitude": "48.4431376", "phone": "3608738852", "website_url": "http://www.farmstrongbrewing.com", "state": "Washington", "street": "110 Stewart Rd"}, {"id": "e07da07f-d0a7-46e5-ac44-190dbff63bfa", "name": "Farnam House Brewing Company", "brewery_type": "brewpub", "address_1": "3558 Farnam St", "address_2": null, "address_3": null, "city": "Omaha", "state_province": "Nebraska", "postal_code": "68131-3304", "country": "United States", "longitude": "-95.96580178", "latitude": "41.2578153", "phone": "4024016086", "website_url": "http://www.farnamhousebrewing.com", "state": "Nebraska", "street": "3558 Farnam St"}, {"id": "2151a210-0008-45b5-902a-6300cd87bea6", "name": "Farnham Ale & Lager", "brewery_type": "micro", "address_1": "82 Ethan Allen Dr", "address_2": null, "address_3": null, "city": "South Burlington", "state_province": "Vermont", "postal_code": "05403-5971", "country": "United States", "longitude": "-73.15391274", "latitude": "44.48290389", "phone": "8027351288", "website_url": "http://www.farnham-alelager.com", "state": "Vermont", "street": "82 Ethan Allen Dr"}, {"id": "dfa10b9e-ad89-4a05-b718-2621cca3d5f9", "name": "Fast Fashion Brewing", "brewery_type": "micro", "address_1": "730 N 34th St", "address_2": null, "address_3": null, "city": "Seattle", "state_province": "Washington", "postal_code": "98103", "country": "United States", "longitude": "-122.3484134", "latitude": "47.64970532", "phone": "2065574907", "website_url": "https://fastfashion.us/", "state": "Washington", "street": "730 N 34th St"}, {"id": "deb362d3-968b-47c5-81f0-61178ed0d6ca", "name": "Fat Bottom Brewing", "brewery_type": "micro", "address_1": "800 44th Ave N", "address_2": null, "address_3": null, "city": "Nashville", "state_province": "Tennessee", "postal_code": "37209-2336", "country": "United States", "longitude": "-86.84031688", "latitude": "36.16044926", "phone": "6152935783", "website_url": "http://www.fatbottombrewing.com", "state": "Tennessee", "street": "800 44th Ave N"}, {"id": "8cd7a35b-7a2e-43ab-bdcd-f3a2f2cd8331", "name": "Fat Boy Brewing Co", "brewery_type": "contract", "address_1": "2851 S Stratton Dr", "address_2": null, "address_3": null, "city": "Milwaukee", "state_province": "Wisconsin", "postal_code": "53219-2759", "country": "United States", "longitude": "-88.0130081", "latitude": "42.99227079", "phone": "4147616366", "website_url": "http://www.fatboybeer.com", "state": "Wisconsin", "street": "2851 S Stratton Dr"}, {"id": "e47d18ae-4f7c-4c27-8a28-feae3c16d541", "name": "Fat Head's Brewery", "brewery_type": "regional", "address_1": null, "address_2": null, "address_3": null, "city": "Middleburg Heights", "state_province": "Ohio", "postal_code": "44130-2472", "country": "United States", "longitude": null, "latitude": null, "phone": "2168980242", "website_url": "http://www.fatheads.com", "state": "Ohio", "street": null}, {"id": "7b7dbd69-0464-48a3-898e-cad1deb07b3b", "name": "Fat Head's Brewery & Saloon", "brewery_type": "brewpub", "address_1": "24581 Lorain Rd", "address_2": null, "address_3": null, "city": "North Olmsted", "state_province": "Ohio", "postal_code": "44070-2170", "country": "United States", "longitude": "-81.89440993", "latitude": "41.42667743", "phone": "4408011001", "website_url": "http://www.fatheadscleveland.com", "state": "Ohio", "street": "24581 Lorain Rd"}, {"id": "26f084da-1c39-4d15-9139-a0566da855da", "name": "Fat Head's Brewpub - Canton", "brewery_type": "brewpub", "address_1": "3885 Everhard Rd NW", "address_2": null, "address_3": null, "city": "Canton", "state_province": "Ohio", "postal_code": "44709-4003", "country": "United States", "longitude": "-81.41867571", "latitude": "40.85972436", "phone": null, "website_url": null, "state": "Ohio", "street": "3885 Everhard Rd NW"}, {"id": "5916f082-a258-478f-9586-9096ee1d159d", "name": "Fat Hill Brewing", "brewery_type": "micro", "address_1": "17 N Federal Ave", "address_2": null, "address_3": null, "city": "Mason City", "state_province": "Iowa", "postal_code": "50401-3250", "country": "United States", "longitude": "-93.20096509", "latitude": "43.15203459", "phone": "9524126272", "website_url": "http://FatHillBrewing.com", "state": "Iowa", "street": "17 N Federal Ave"}, {"id": "04ae9ae6-162a-4a1d-8c06-cbfe1b484d2b", "name": "Fat Orange Cat Brew Co", "brewery_type": "micro", "address_1": null, "address_2": null, "address_3": null, "city": "East Hampton", "state_province": "Connecticut", "postal_code": "06424-1636", "country": "United States", "longitude": null, "latitude": null, "phone": "8608818045", "website_url": "http://www.fatorangecatbrewco.com", "state": "Connecticut", "street": null}, {"id": "14dd447c-9aa5-4fd8-bdd0-f8febf45176c", "name": "Fat Point Brewing", "brewery_type": "micro", "address_1": "611 Charlotte St", "address_2": null, "address_3": null, "city": "Punta Gorda", "state_province": "Florida", "postal_code": "33950-4115", "country": "United States", "longitude": null, "latitude": null, "phone": "8003807405", "website_url": "http://www.fatpoint.com", "state": "Florida", "street": "611 Charlotte St"}, {"id": "391fbfc6-0b81-4b96-8fe2-8f886f4527aa", "name": "Fat Toad Brewing Company", "brewery_type": "micro", "address_1": "3986 W 530 Rd", "address_2": null, "address_3": null, "city": "Pryor", "state_province": "Oklahoma", "postal_code": "74361", "country": "United States", "longitude": "-95.3276131", "latitude": "36.2498069", "phone": "9188641308", "website_url": "http://www.fattoadbrewing.com", "state": "Oklahoma", "street": "3986 W 530 Rd"}, {"id": "82221e83-b64e-43c2-9593-0ec456674870", "name": "FATE Brewing Company", "brewery_type": "brewpub", "address_1": "1600 38th St Ste 100", "address_2": null, "address_3": null, "city": "Boulder", "state_province": "Colorado", "postal_code": "80301-2610", "country": "United States", "longitude": "-105.2454818", "latitude": "40.0149794", "phone": null, "website_url": null, "state": "Colorado", "street": "1600 38th St Ste 100"}, {"id": "0b8ec1a7-bd72-439d-a741-71d61f851aa8", "name": "Father John's Microbrewery", "brewery_type": "brewpub", "address_1": "301 W Butler St", "address_2": null, "address_3": null, "city": "Bryan", "state_province": "Ohio", "postal_code": "43506-1608", "country": "United States", "longitude": "-84.553828", "latitude": "41.473192", "phone": "4196331313", "website_url": "http://www.fatherjohnsbrewery.com", "state": "Ohio", "street": "301 W Butler St"}, {"id": "e9e4a440-843a-43d3-b481-52a7e5307444", "name": "Fathom & League Hop Yard Brewery", "brewery_type": "micro", "address_1": "360 Grandview Dr", "address_2": null, "address_3": null, "city": "Sequim", "state_province": "Washington", "postal_code": "98382-7875", "country": "United States", "longitude": null, "latitude": null, "phone": "3602860278", "website_url": "http://www.fathomandleaguebrewery.com", "state": "Washington", "street": "360 Grandview Dr"}, {"id": "ef476d83-b75b-4637-9adf-e5ceb03df535", "name": "Fatty's Beer Works", "brewery_type": "contract", "address_1": "1436 Meeting Street Rd", "address_2": null, "address_3": null, "city": "Charleston", "state_province": "South Carolina", "postal_code": "29405-9342", "country": "United States", "longitude": "-79.950716", "latitude": "32.816629", "phone": "8439745330", "website_url": "http://www.followfatty.com", "state": "South Carolina", "street": "1436 Meeting Street Rd"}, {"id": "e01bf1ae-7f9b-4c7e-9f4f-8b9f46ba8457", "name": "Faultline Brewing Co", "brewery_type": "brewpub", "address_1": "1235 Oakmead Pkwy", "address_2": null, "address_3": null, "city": "Sunnyvale", "state_province": "California", "postal_code": "94085-4040", "country": "United States", "longitude": "-121.9895755", "latitude": "37.38688662", "phone": "4087362739", "website_url": null, "state": "California", "street": "1235 Oakmead Pkwy"}, {"id": "6b709f6c-f30d-44bd-843e-3dd0a99fb05d", "name": "Faults Brewing", "brewery_type": "planning", "address_1": null, "address_2": null, "address_3": null, "city": "Anchorage", "state_province": "Alaska", "postal_code": "99509-0312", "country": "United States", "longitude": "-149.8948523", "latitude": "61.2163129", "phone": "9073019922", "website_url": null, "state": "Alaska", "street": null}, {"id": "5b2dc61f-9074-4e9e-bd6f-16593b342f9c", "name": "Faust Hotel Restaurant and Brew Pub", "brewery_type": "micro", "address_1": "499 S Castell Ave", "address_2": null, "address_3": null, "city": "New Braunfels", "state_province": "Texas", "postal_code": "78130-7618", "country": "United States", "longitude": "-98.12031", "latitude": "29.698525", "phone": "8306257791", "website_url": "http://www.faustbrewing.com", "state": "Texas", "street": "499 S Castell Ave"}, {"id": "cdbeb166-5eaf-4a66-9ca5-1cf6b55df680", "name": "Fawken Beer Company", "brewery_type": "planning", "address_1": null, "address_2": null, "address_3": null, "city": "Columbia", "state_province": "Tennessee", "postal_code": "38401-2030", "country": "United States", "longitude": null, "latitude": null, "phone": "6156636116", "website_url": null, "state": "Tennessee", "street": null}, {"id": "400d6684-fd2d-4a17-9745-ccfb28a2a871", "name": "Fayetteville Brewing Company", "brewery_type": "planning", "address_1": null, "address_2": null, "address_3": null, "city": "Fayetteville", "state_province": "Arkansas", "postal_code": "72704-7402", "country": "United States", "longitude": "-94.1574328", "latitude": "36.0625843", "phone": "4792631905", "website_url": "http://www.fayettebrew.com", "state": "Arkansas", "street": null}, {"id": "4f86b0c5-c7a2-4cfa-8fa3-40afca62a741", "name": "Fearless Brewing Co", "brewery_type": "brewpub", "address_1": "326 S Broadway St", "address_2": null, "address_3": null, "city": "Estacada", "state_province": "Oregon", "postal_code": "97023-7000", "country": "United States", "longitude": "-122.3350759", "latitude": "45.2870468", "phone": "5036302337", "website_url": "http://www.fearless.beer", "state": "Oregon", "street": "326 S Broadway St"}, {"id": "39a29354-6247-4e93-bc5d-5f1ee33b24ab", "name": "Feather Falls Brewing Co", "brewery_type": "brewpub", "address_1": "3 Alverda Dr", "address_2": null, "address_3": null, "city": "Oroville", "state_province": "California", "postal_code": "95966-9379", "country": "United States", "longitude": "-121.521407", "latitude": "39.46576", "phone": "5305344059", "website_url": "http://www.featherfallscasino.com", "state": "California", "street": "3 Alverda Dr"}, {"id": "d26eddc8-d40c-4448-8eea-011b109966c2", "name": "Feather River Brewing Co", "brewery_type": "micro", "address_1": "14665 Forest Ridge Rd", "address_2": null, "address_3": null, "city": "Magalia", "state_province": "California", "postal_code": "95954-0443", "country": "United States", "longitude": "-121.5777621", "latitude": "39.84088592", "phone": "5308730734", "website_url": "http://www.featherriverbrewing.com", "state": "California", "street": "14665 Forest Ridge Rd"}, {"id": "502b4291-c1be-403f-aeb4-0e5434def665", "name": "Feathered Serpent Brewery", "brewery_type": "planning", "address_1": null, "address_2": null, "address_3": null, "city": "San Dimas", "state_province": "California", "postal_code": "91773-1477", "country": "United States", "longitude": "-117.8067257", "latitude": "34.1066756", "phone": "3237079238", "website_url": null, "state": "California", "street": null}, {"id": "2b08803c-7d1c-4eb9-bb76-6c8b744482f3", "name": "Feckin Brewery", "brewery_type": "micro", "address_1": "415 S McLoughlin Blvd", "address_2": null, "address_3": null, "city": "Oregon City", "state_province": "Oregon", "postal_code": "97045-3101", "country": "United States", "longitude": "-122.6217909", "latitude": "45.3474038", "phone": "5038805608", "website_url": "http://www.fecknbrew.com", "state": "Oregon", "street": "415 S McLoughlin Blvd"}, {"id": "fedb74bd-dba3-42c7-8214-dc462f596369", "name": "Federation Brewing", "brewery_type": "micro", "address_1": "420 3rd St Unit A", "address_2": null, "address_3": null, "city": "Oakland", "state_province": "California", "postal_code": "94607-3809", "country": "United States", "longitude": "-122.2752148", "latitude": "37.79677436", "phone": null, "website_url": "http://www.federationbrewing.com", "state": "California", "street": "420 3rd St Unit A"}, {"id": "18fa7337-3df9-4a49-902d-3983251d6058", "name": "Feed Store Beer Co", "brewery_type": "planning", "address_1": null, "address_2": null, "address_3": null, "city": "Bloomfield", "state_province": "Indiana", "postal_code": "47424-1137", "country": "United States", "longitude": null, "latitude": null, "phone": "8123814343", "website_url": "http://www.feedstorebeer.com", "state": "Indiana", "street": null}, {"id": "c2edeb1a-5721-4b01-afe1-82af71c79821", "name": "Fegley's Brew Works", "brewery_type": "brewpub", "address_1": "812 Hamilton St", "address_2": null, "address_3": null, "city": "Allentown", "state_province": "Pennsylvania", "postal_code": "18101-2437", "country": "United States", "longitude": "-75.4575021", "latitude": "40.6060468", "phone": null, "website_url": null, "state": "Pennsylvania", "street": "812 Hamilton St"}, {"id": "9266dfe0-081f-43f5-ba21-0c838257fdd6", "name": "Felicia's Atomic Brewhouse and Bakery", "brewery_type": "brewpub", "address_1": "45 E Main St", "address_2": null, "address_3": null, "city": "Trumansburg", "state_province": "New York", "postal_code": "14886", "country": "United States", "longitude": "-76.65512", "latitude": "42.539886", "phone": "6072094229", "website_url": "http://www.atomicbrewhouse.com", "state": "New York", "street": "45 E Main St"}, {"id": "55a2e9a7-753a-4299-a65a-fbe19b76f5cd", "name": "Fenceline Beer Lab", "brewery_type": "brewpub", "address_1": "107 S Main Ave", "address_2": null, "address_3": null, "city": "Huxley", "state_province": "Iowa", "postal_code": "50124-9311", "country": "United States", "longitude": "-93.606476", "latitude": "41.892071", "phone": "5154106814", "website_url": "https://www.fencelinebeerlab.com", "state": "Iowa", "street": "107 S Main Ave"}, {"id": "187aa8b1-c795-42b5-aedb-c8947f5a7442", "name": "Fenders Brewing Company", "brewery_type": "micro", "address_1": "212 W Van Dorn St", "address_2": null, "address_3": null, "city": "Polk City", "state_province": "Iowa", "postal_code": "50226-2297", "country": "United States", "longitude": "-93.71392", "latitude": "41.77079882", "phone": null, "website_url": "http://fendersbrewing.com", "state": "Iowa", "street": "212 W Van Dorn St"}, {"id": "2a824990-9f77-4b8a-ae7b-76aba05c5504", "name": "Fenton Winery & Brewery", "brewery_type": "brewpub", "address_1": "1370 N Long Lake Rd", "address_2": null, "address_3": null, "city": "Fenton", "state_province": "Michigan", "postal_code": "48430-8867", "country": "United States", "longitude": "-83.70470876", "latitude": "42.85155557", "phone": "8103734194", "website_url": "http://www.fentonwinery.com", "state": "Michigan", "street": "1370 N Long Lake Rd"}, {"id": "8c2b58e7-e1fc-495d-adda-5be4c18fb4e1", "name": "Feral Public House", "brewery_type": "brewpub", "address_1": "1109 Washington St", "address_2": null, "address_3": null, "city": "Vancouver", "state_province": "Washington", "postal_code": "98660", "country": "United States", "longitude": "-122.6723137", "latitude": "45.63010593", "phone": "3608365255", "website_url": "http://www.heathenbrewing.com", "state": "Washington", "street": "1109 Washington St"}, {"id": "7cb31a73-07b5-42ea-949e-18d43b99c153", "name": "Ferguson Brewing Co", "brewery_type": "brewpub", "address_1": "418 S Florissant Rd", "address_2": null, "address_3": null, "city": "Saint Louis", "state_province": "Missouri", "postal_code": "63135-2716", "country": "United States", "longitude": "-90.3023163", "latitude": "38.7383895", "phone": "3142547359", "website_url": "http://www.fergusonbrewing.com", "state": "Missouri", "street": "418 S Florissant Rd"}, {"id": "5d495cd7-11f9-4a81-95de-71b96deca5dd", "name": "Fermaentra", "brewery_type": "micro", "address_1": "1715 E Evans Ave", "address_2": null, "address_3": null, "city": "Denver", "state_province": "Colorado", "postal_code": "80210-4601", "country": "United States", "longitude": "-104.9428631", "latitude": "39.6784277", "phone": "3039550736", "website_url": "http://www.fermaentra.com", "state": "Colorado", "street": "1715 E Evans Ave"}, {"id": "95cc8853-1ec3-4810-8e41-8f6d4031acbd", "name": "Ferment.Drink.Repeat", "brewery_type": "micro", "address_1": "2636 San Bruno Ave", "address_2": null, "address_3": null, "city": "San Francisco", "state_province": "California", "postal_code": "94134-1507", "country": "United States", "longitude": "-122.4039991", "latitude": "37.72833678", "phone": null, "website_url": null, "state": "California", "street": "2636 San Bruno Ave"}, {"id": "e8f67941-37fa-41bd-8c4b-ca598a144217", "name": "Fermentery Form", "brewery_type": "micro", "address_1": "161 Cecil B Moore Ave", "address_2": null, "address_3": null, "city": "Philadelphia", "state_province": "Pennsylvania", "postal_code": "19122-3234", "country": "United States", "longitude": "-75.136886", "latitude": "39.976092", "phone": "2675183676", "website_url": "http://www.fermenteryform.com", "state": "Pennsylvania", "street": "161 Cecil B Moore Ave"}, {"id": "c049573d-94ac-4d4a-b092-099b4f464a18", "name": "Fernson Brewing Company", "brewery_type": "micro", "address_1": "1400 E Robur Dr", "address_2": null, "address_3": null, "city": "Sioux Falls", "state_province": "South Dakota", "postal_code": "57104-0582", "country": "United States", "longitude": "-96.70852613", "latitude": "43.60785297", "phone": "6057893822", "website_url": "http://fernson.com", "state": "South Dakota", "street": "1400 E Robur Dr"}, {"id": "5d9015c7-f11d-4741-a3d4-edfe5ad625d1", "name": "Fernson Downtown", "brewery_type": "brewpub", "address_1": "332 S Phillips Ave", "address_2": null, "address_3": null, "city": "Sioux Falls", "state_province": "South Dakota", "postal_code": "57104-6319", "country": "United States", "longitude": "-96.72658415", "latitude": "43.54377963", "phone": "6057892012", "website_url": "http://fernson.com", "state": "South Dakota", "street": "332 S Phillips Ave"}, {"id": "d143a579-cd07-4eb2-a825-f64b5957ac81", "name": "Ferrari Beer Company", "brewery_type": "micro", "address_1": "160 Ashford Ave", "address_2": null, "address_3": null, "city": "Dobbs Ferry", "state_province": "New York", "postal_code": "10522-1906", "country": "United States", "longitude": "-73.86161615", "latitude": "41.01452326", "phone": "9146937340", "website_url": "http://www.ferraribeer.com", "state": "New York", "street": "160 Ashford Ave"}]