[{"id": "c78e00a1-dbd0-4a22-884c-99cddc4d3460", "name": "Pecan Street Brewing Co", "brewery_type": "brewpub", "address_1": "106 East Pecan Drive", "address_2": null, "address_3": null, "city": "Johnson City", "state_province": "Texas", "postal_code": "78636-1504", "country": "United States", "longitude": "-98.4113504", "latitude": "30.27762004", "phone": "8308682131", "website_url": "http://www.pecanstreetbrewing.com", "state": "Texas", "street": "106 East Pecan Drive"}, {"id": "66883061-9c0c-47b2-b6dd-178809cded7c", "name": "Peckish Pig", "brewery_type": "brewpub", "address_1": "623 Howard St", "address_2": null, "address_3": null, "city": "Evanston", "state_province": "Illinois", "postal_code": "60202-3941", "country": "United States", "longitude": null, "latitude": null, "phone": "8474916778", "website_url": "http://www.thepeckishpig@gmail.com", "state": "Illinois", "street": "623 Howard St"}, {"id": "6d1b585a-6e1b-4452-8d1d-2b0d1f061a4f", "name": "Pedal Haus Brewery", "brewery_type": "brewpub", "address_1": "730 S Mill Ave. Suite 102", "address_2": null, "address_3": null, "city": "Tempe", "state_province": "Arizona", "postal_code": "85281-3618", "country": "United States", "longitude": null, "latitude": null, "phone": "4803142337", "website_url": "http://www.pedalhausbrewery.com", "state": "Arizona", "street": "730 S Mill Ave. Suite 102"}, {"id": "a8a2c02d-5871-4c69-9ee1-11766bc3c948", "name": "Peddler Brewing", "brewery_type": "micro", "address_1": "1514 NW Leary Way", "address_2": null, "address_3": null, "city": "Seattle", "state_province": "Washington", "postal_code": "98107-4739", "country": "United States", "longitude": "-122.37703", "latitude": "47.6638679", "phone": "3603620002", "website_url": "http://www.peddlerbrewing.com", "state": "Washington", "street": "1514 NW Leary Way"}, {"id": "add42f7c-059e-4ecc-81dd-2f7d3eabb800", "name": "Pedestrian Brewing", "brewery_type": "planning", "address_1": null, "address_2": null, "address_3": null, "city": "Lakewood", "state_province": "Ohio", "postal_code": "44107-3309", "country": "United States", "longitude": null, "latitude": null, "phone": "2162620740", "website_url": "http://pedestrian.beer", "state": "Ohio", "street": null}, {"id": "35b9ca60-ff08-49e0-a3d2-82f41ece475d", "name": "Pedro Point Brewing", "brewery_type": "micro", "address_1": "55A Bill Drake Way", "address_2": null, "address_3": null, "city": "Pacifica", "state_province": "California", "postal_code": "94044", "country": "United States", "longitude": "-122.4910217", "latitude": "37.65116158", "phone": "6502889149", "website_url": "http://www.pedropointbrewing.com", "state": "California", "street": "55A Bill Drake Way"}, {"id": "c74aeb35-eca1-49ba-bc2a-cdda2c11b4a0", "name": "Peekskill Brewing Co", "brewery_type": "brewpub", "address_1": "47 S Water St # 53", "address_2": null, "address_3": null, "city": "Peekskill", "state_province": "New York", "postal_code": "10566-2035", "country": "United States", "longitude": "-73.9292934", "latitude": "41.2867311", "phone": "9147342337", "website_url": "http://www.peekskillbrewery.com", "state": "New York", "street": "47 S Water St # 53"}, {"id": "4649b1ce-01c9-4428-acad-c001f7dfc9e5", "name": "Peel Brewing Co.", "brewery_type": "brewpub", "address_1": "104 S Cherry St", "address_2": null, "address_3": null, "city": "O Fallon", "state_province": "Illinois", "postal_code": "62269-2046", "country": "United States", "longitude": null, "latitude": null, "phone": "6187262244", "website_url": "http://www.peelpizza.com", "state": "Illinois", "street": "104 S Cherry St"}, {"id": "d9e12659-831c-433a-9229-23f71e25c592", "name": "Pegasus City Brewery", "brewery_type": "micro", "address_1": "2222 Vantage St", "address_2": null, "address_3": null, "city": "Dallas", "state_province": "Texas", "postal_code": "75207-6102", "country": "United States", "longitude": "-96.83399696", "latitude": "32.79915648", "phone": "9723667722", "website_url": "http://www.pegasuscitybrewery.com", "state": "Texas", "street": "2222 Vantage St"}, {"id": "f7036951-96e0-4f03-b3e7-f56351d36eda", "name": "Pelican Brewing Company", "brewery_type": "regional", "address_1": "33180 Cape Kiwanda Dr", "address_2": null, "address_3": null, "city": "Pacific City", "state_province": "Oregon", "postal_code": "97135-8012", "country": "United States", "longitude": "-123.9695724", "latitude": "45.21550832", "phone": "5039657007", "website_url": "http://www.pelicanbrewery.com", "state": "Oregon", "street": "33180 Cape Kiwanda Dr"}, {"id": "03879edb-988b-45ac-88a0-90c19d25dab5", "name": "Pelican Brewing Company - Cannon Beach", "brewery_type": "brewpub", "address_1": "1371 S Hemlock St", "address_2": null, "address_3": null, "city": "Cannon Beach", "state_province": "Oregon", "postal_code": "97110-3055", "country": "United States", "longitude": "-123.9620236", "latitude": "45.88850543", "phone": "5039083377", "website_url": null, "state": "Oregon", "street": "1371 S Hemlock St"}, {"id": "611cf039-c4d2-4a29-af93-6893281c2469", "name": "Pelican Brewing Company - Tillamook", "brewery_type": "micro", "address_1": "1708 1st St", "address_2": null, "address_3": null, "city": "Tillamook", "state_province": "Oregon", "postal_code": "97141-2104", "country": "United States", "longitude": "-123.8462991", "latitude": "45.45789207", "phone": "5039657007", "website_url": null, "state": "Oregon", "street": "1708 1st St"}, {"id": "091b0410-7c35-47b4-a3f6-6da8d83f6a22", "name": "Pen Druid Brewing", "brewery_type": "micro", "address_1": "7 River Ln", "address_2": null, "address_3": null, "city": "Sperryville", "state_province": "Virginia", "postal_code": "22740", "country": "United States", "longitude": null, "latitude": null, "phone": "5409875064", "website_url": "http://www.pendruid.com", "state": "Virginia", "street": "7 River Ln"}, {"id": "a4d8d567-4e45-4a19-9798-6e882bbcae17", "name": "Pennesseewassee Brewing", "brewery_type": "micro", "address_1": "458 Plains Rd", "address_2": null, "address_3": null, "city": "Harrison", "state_province": "Maine", "postal_code": "04040-3829", "country": "United States", "longitude": null, "latitude": null, "phone": "2077439808", "website_url": "http://www.pennybrew.com", "state": "Maine", "street": "458 Plains Rd"}, {"id": "6e5cb266-90f8-4e79-bde0-076cc8dba8dd", "name": "Pennsylvania Brewing Co", "brewery_type": "micro", "address_1": "800 Vinial St", "address_2": null, "address_3": null, "city": "Pittsburgh", "state_province": "Pennsylvania", "postal_code": "15212-5151", "country": "United States", "longitude": "-79.99163722", "latitude": "40.457132", "phone": "4122379402", "website_url": "http://www.pennbrew.com", "state": "Pennsylvania", "street": "800 Vinial St"}, {"id": "405503f6-a0f3-456b-b47b-eefd54cf0a43", "name": "Pennyweight Craft Brewing", "brewery_type": "planning", "address_1": null, "address_2": null, "address_3": null, "city": "Livermore", "state_province": "California", "postal_code": "94550", "country": "United States", "longitude": "-121.7680531", "latitude": "37.6820583", "phone": "5107541685", "website_url": "http://www.pennyweightbrew.com", "state": "California", "street": null}, {"id": "06198bbc-2cab-40c1-b306-692a299452eb", "name": "Penobscot Bay Brewery", "brewery_type": "micro", "address_1": "279 South Main Street", "address_2": null, "address_3": null, "city": "Winterport", "state_province": "Maine", "postal_code": "04496-0405", "country": "United States", "longitude": "-68.847883", "latitude": "44.634187", "phone": "2072234500", "website_url": "http://www.winterportwinery.com/brewery.asp", "state": "Maine", "street": "279 South Main Street"}, {"id": "779f7764-a326-4b35-9d24-3d9a098f8df9", "name": "Penrose Brewing Company", "brewery_type": "micro", "address_1": "509 Stevens St", "address_2": null, "address_3": null, "city": "Geneva", "state_province": "Illinois", "postal_code": "60134-1363", "country": "United States", "longitude": "-88.30984886", "latitude": "41.89253112", "phone": "6302322115", "website_url": "http://www.penrosebrewing.com", "state": "Illinois", "street": "509 Stevens St"}, {"id": "c7a5c1e3-3814-4acd-bef9-d408dead58fe", "name": "Pensacola Bay Brewery", "brewery_type": "micro", "address_1": "225 E Zaragoza St", "address_2": null, "address_3": null, "city": "Pensacola", "state_province": "Florida", "postal_code": "32502-6048", "country": "United States", "longitude": null, "latitude": null, "phone": "8504343353", "website_url": "http://www.pbbrew.com", "state": "Florida", "street": "225 E Zaragoza St"}, {"id": "fc70ca5f-24fb-4665-87b9-b377f9cf996f", "name": "Pentagonal Brewing Co", "brewery_type": "closed", "address_1": "115 N Imperial Ave Suite A", "address_2": null, "address_3": null, "city": "Imperial", "state_province": "California", "postal_code": "92251-1250", "country": "United States", "longitude": "-115.4192538", "latitude": "32.80049306", "phone": "7605451045", "website_url": "http://www.facebook.com/Pentagonalbrewingcompany/", "state": "California", "street": "115 N Imperial Ave Suite A"}, {"id": "6d395f83-0e7b-4f48-820d-b98859b0b8f1", "name": "Peoples Brewing Co", "brewery_type": "micro", "address_1": "2006 N 9th Street Rd", "address_2": null, "address_3": null, "city": "Lafayette", "state_province": "Indiana", "postal_code": "47904-1036", "country": "United States", "longitude": "-86.885995", "latitude": "40.43700688", "phone": "7657924677", "website_url": "http://www.peoplesbrew.com", "state": "Indiana", "street": "2006 N 9th Street Rd"}, {"id": "5feefc62-8f0b-4150-a4d0-1817f292a3f0", "name": "Peoria Artisan Brewery", "brewery_type": "brewpub", "address_1": "10144 W. Lake Pleasant Parkway Suite 1130", "address_2": null, "address_3": null, "city": "Peoria", "state_province": "Arizona", "postal_code": "85382", "country": "United States", "longitude": null, "latitude": null, "phone": "6236959357", "website_url": "http://www.peoriaartisanbrewing.com", "state": "Arizona", "street": "10144 W. Lake Pleasant Parkway Suite 1130"}, {"id": "8f8dec1e-8d9e-4328-bf6c-2df4521cd661", "name": "Peoria Artisan Brewery", "brewery_type": "brewpub", "address_1": "10144 W Lake Pleasant Pkwy Ste 1130", "address_2": null, "address_3": null, "city": "Peoria", "state_province": "Arizona", "postal_code": "85382-9716", "country": "United States", "longitude": null, "latitude": null, "phone": "6235364804", "website_url": "http://www.peoriaartisanbrewing.com", "state": "Arizona", "street": "10144 W Lake Pleasant Pkwy Ste 1130"}, {"id": "da9fa8f8-bf7d-47b8-baa9-9e3f4da93b86", "name": "Percival Brewing Company", "brewery_type": "micro", "address_1": "83 Morse St", "address_2": null, "address_3": null, "city": "Norwood", "state_province": "Massachusetts", "postal_code": "02122", "country": "United States", "longitude": "-71.2072323", "latitude": "42.17226305", "phone": "7816644705", "website_url": "http://www.percivalbeercompany.com", "state": "Massachusetts", "street": "83 Morse St"}, {"id": "bcd21562-9ff4-4a7b-8230-8cb051094f2d", "name": "Perennial Artisan Ales", "brewery_type": "micro", "address_1": "8125 Michigan Ave Ste 116", "address_2": null, "address_3": null, "city": "Saint Louis", "state_province": "Missouri", "postal_code": "63111-3535", "country": "United States", "longitude": "-90.265979", "latitude": "38.54573", "phone": "3146317300", "website_url": "http://www.perennialbeer.com", "state": "Missouri", "street": "8125 Michigan Ave Ste 116"}, {"id": "5ca8e3d6-f42d-4389-9854-fe521a3ce95c", "name": "Perfect Fool Brewing Company", "brewery_type": "planning", "address_1": null, "address_2": null, "address_3": null, "city": "Atlanta", "state_province": "Georgia", "postal_code": "30319", "country": "United States", "longitude": null, "latitude": null, "phone": null, "website_url": null, "state": "Georgia", "street": null}, {"id": "2d9384f0-ef54-4aaf-bc74-05c5b5169ee9", "name": "Perfect Plain Brewing Co.", "brewery_type": "micro", "address_1": "50 E Garden St", "address_2": null, "address_3": null, "city": "Pensacola", "state_province": "Florida", "postal_code": "32502-5604", "country": "United States", "longitude": "-87.214831", "latitude": "30.4132165", "phone": null, "website_url": "http://www.perfectplain.com", "state": "Florida", "street": "50 E Garden St"}, {"id": "d5a19834-aad1-4e8f-a0f8-650595f717ab", "name": "Perfect World Brewing Co", "brewery_type": "micro", "address_1": "1276 Broadway", "address_2": null, "address_3": null, "city": "Albany", "state_province": "New York", "postal_code": "12204-2623", "country": "United States", "longitude": null, "latitude": null, "phone": null, "website_url": "http://www.facebook.com/PerfectWorldBrewing/", "state": "New York", "street": "1276 Broadway"}, {"id": "61928845-6acb-4d83-a5ea-5e43788c9ad2", "name": "Perihelion Brewery", "brewery_type": "brewpub", "address_1": "2800 16th Ave S", "address_2": null, "address_3": null, "city": "Seattle", "state_province": "Washington", "postal_code": "98144-5732", "country": "United States", "longitude": "-122.3118193", "latitude": "47.5784432", "phone": "2062003935", "website_url": null, "state": "Washington", "street": "2800 16th Ave S"}, {"id": "67b5abdf-0111-4a45-9677-495e4eb63552", "name": "Periodic Brewing LLC", "brewery_type": "brewpub", "address_1": "115 E 7th St", "address_2": null, "address_3": null, "city": "Leadville", "state_province": "Colorado", "postal_code": "80461-3505", "country": "United States", "longitude": "-106.2917767", "latitude": "39.2496419", "phone": "7203168144", "website_url": "http://www.periodicbrewing.com", "state": "Colorado", "street": "115 E 7th St"}, {"id": "6b0b1108-2486-4c3d-aad3-f9c736b5a855", "name": "Periodic Brewing Northglenn", "brewery_type": "micro", "address_1": "2100 E 112th Ave", "address_2": null, "address_3": null, "city": "Northglenn", "state_province": "Colorado", "postal_code": "80233-2345", "country": "United States", "longitude": "-104.9619495", "latitude": "39.89940226", "phone": "7208641012", "website_url": null, "state": "Colorado", "street": "2100 E 112th Ave"}, {"id": "92398e11-aee4-469d-a522-52ff39843cd8", "name": "Perkiomen Valley Brewery", "brewery_type": "planning", "address_1": null, "address_2": null, "address_3": null, "city": "Telford", "state_province": "Pennsylvania", "postal_code": "18969-1615", "country": "United States", "longitude": null, "latitude": null, "phone": "2158726424", "website_url": "http://www.perkiomenvalleybrewery.com", "state": "Pennsylvania", "street": null}, {"id": "06cfb198-fc60-4119-bd71-813f5d4db893", "name": "Permission Brewing Company", "brewery_type": "planning", "address_1": null, "address_2": null, "address_3": null, "city": "Columbus", "state_province": "Ohio", "postal_code": "43004", "country": "United States", "longitude": null, "latitude": null, "phone": "6143530762", "website_url": "http://www.permissionbrewing.com", "state": "Ohio", "street": null}, {"id": "745138de-12aa-4167-9302-1fb84642e899", "name": "Perrin Brewing Company", "brewery_type": "regional", "address_1": "5910 Comstock Park Dr NW", "address_2": null, "address_3": null, "city": "Comstock Park", "state_province": "Michigan", "postal_code": "49321-8256", "country": "United States", "longitude": null, "latitude": null, "phone": "6165511957", "website_url": "http://www.perrinbrewing.com", "state": "Michigan", "street": "5910 Comstock Park Dr NW"}, {"id": "ac2950c8-10fb-479f-80b7-878146cc5461", "name": "Perry Street Brewing Co.", "brewery_type": "micro", "address_1": "1025 S Perry St # 2", "address_2": null, "address_3": null, "city": "Spokane", "state_province": "Washington", "postal_code": "99202-3464", "country": "United States", "longitude": "-117.3898022", "latitude": "47.64605073", "phone": "5092792820", "website_url": "http://www.perrystreetbrewing.com", "state": "Washington", "street": "1025 S Perry St # 2"}, {"id": "8c24c15e-9b95-440e-94e4-72e5a0de9a27", "name": "Perrylodgic Brewing Company", "brewery_type": "micro", "address_1": "3465 US-79 N", "address_2": null, "address_3": null, "city": "Paris", "state_province": "Tennessee", "postal_code": "38242-9998", "country": "United States", "longitude": "-88.3268031", "latitude": "36.2785418", "phone": "7314077100", "website_url": "http://www.perrylodgic.com", "state": "Tennessee", "street": "3465 US-79 N"}, {"id": "71398a4c-3cfb-41ef-8869-738b39958d46", "name": "Persimmon Hollow Brewing", "brewery_type": "micro", "address_1": "111 W Georgia Ave", "address_2": null, "address_3": null, "city": "Deland", "state_province": "Florida", "postal_code": "32720-5406", "country": "United States", "longitude": "-81.30372058", "latitude": "29.02726822", "phone": "3868737350", "website_url": "http://www.persimmonhollowbrewing.com", "state": "Florida", "street": "111 W Georgia Ave"}, {"id": "6d9f7f4e-e492-4647-8e5f-89612b4fcbd9", "name": "Pesky Pelican Brewpub", "brewery_type": "brewpub", "address_1": "923 72nd St N", "address_2": null, "address_3": null, "city": "Saint Petersburg", "state_province": "Florida", "postal_code": "33710-4666", "country": "United States", "longitude": "-82.73743948", "latitude": "27.78248193", "phone": "7273029600", "website_url": "http://www.peskypelicanbrewpub.com", "state": "Florida", "street": "923 72nd St N"}, {"id": "1b2570c6-9396-41a3-8247-f2b9a0231018", "name": "Peter B's Brewpub", "brewery_type": "brewpub", "address_1": "2 Portola Plz Behind The Portola Hotel", "address_2": null, "address_3": null, "city": "Monterey", "state_province": "California", "postal_code": "93940-2419", "country": "United States", "longitude": "-121.8947298", "latitude": "36.60253247", "phone": "8316492699", "website_url": "http://www.peterbsbrewpub.com", "state": "California", "street": "2 Portola Plz Behind The Portola Hotel"}, {"id": "ce4a02f3-1dd0-4063-bf4b-ffef297c2bbc", "name": "Peticolas Brewing Co", "brewery_type": "micro", "address_1": "2026 Farrington St", "address_2": null, "address_3": null, "city": "Dallas", "state_province": "Texas", "postal_code": "75207-6616", "country": "United States", "longitude": "-96.83031882", "latitude": "32.79677687", "phone": "2142347600", "website_url": "http://www.peticolasbrewing.com", "state": "Texas", "street": "2026 Farrington St"}, {"id": "067530c6-4848-4418-9a45-92dd720cc681", "name": "Petoskey Brewing", "brewery_type": "micro", "address_1": "1844 M 119 Harbor-Petoskey Rd", "address_2": null, "address_3": null, "city": "Petoskey", "state_province": "Michigan", "postal_code": "49770-9341", "country": "United States", "longitude": null, "latitude": null, "phone": "2317532057", "website_url": "http://www.petoskeybrewing.com", "state": "Michigan", "street": "1844 M 119 Harbor-Petoskey Rd"}, {"id": "a929c6d4-0f33-4aa0-98c9-bc419b661c53", "name": "Petrichor Brewing", "brewery_type": "micro", "address_1": "7434 Village Center Dr. ", "address_2": null, "address_3": null, "city": "O Fallon", "state_province": "Missouri", "postal_code": "63368", "country": "United States", "longitude": "-90.733123", "latitude": "38.749498", "phone": "6362654004", "website_url": "http://www.petrichorbeer.com", "state": "Missouri", "street": "7434 Village Center Dr. "}, {"id": "c9997ca5-9564-4374-b2b5-12ea56890eeb", "name": "Petrucci Brothers Brewing Co", "brewery_type": "micro", "address_1": "911 5th Ave", "address_2": null, "address_3": null, "city": "New Brighton", "state_province": "Pennsylvania", "postal_code": "15066-1923", "country": "United States", "longitude": "-80.31190134", "latitude": "40.73477504", "phone": "7249872579", "website_url": "http://www.petruccibrothers.com", "state": "Pennsylvania", "street": "911 5th Ave"}, {"id": "ab15fe9b-7b80-4ba9-88e4-9bd9fafac949", "name": "Petskull Brewing", "brewery_type": "micro", "address_1": "220 N 9th St", "address_2": null, "address_3": null, "city": "Manitowoc", "state_province": "Wisconsin", "postal_code": "54220-4637", "country": "United States", "longitude": "-87.65931012", "latitude": "44.0940222", "phone": "9209465670", "website_url": "http://www.petskullbrewing.com", "state": "Wisconsin", "street": "220 N 9th St"}, {"id": "d6058fcd-e918-4063-bd15-b96f4feade20", "name": "PFriem Family Brewers", "brewery_type": "regional", "address_1": "707 Portway Ave Ste 101", "address_2": null, "address_3": null, "city": "Hood River", "state_province": "Oregon", "postal_code": "97031-1218", "country": "United States", "longitude": "-121.51797", "latitude": "45.714751", "phone": "5413210490", "website_url": "http://www.pfriembeer.com", "state": "Oregon", "street": "707 Portway Ave Ste 101"}, {"id": "aa8a1144-494e-4f48-8793-da510818686f", "name": "Phantom Ales", "brewery_type": "brewpub", "address_1": "1211 N Las Brisas St", "address_2": null, "address_3": null, "city": "Anaheim", "state_province": "California", "postal_code": "92806-1823", "country": "United States", "longitude": "-117.8667466", "latitude": "33.8540325", "phone": "7146309463", "website_url": "http://www.phantomales.com", "state": "California", "street": "1211 N Las Brisas St"}, {"id": "2b3ee6dd-fca7-4375-9d38-32fedfd00ada", "name": "Phantom Canyon Brewing Co", "brewery_type": "brewpub", "address_1": "2 E Pikes Peak Ave", "address_2": null, "address_3": null, "city": "Colorado Springs", "state_province": "Colorado", "postal_code": "80903-1504", "country": "United States", "longitude": "-104.8249314", "latitude": "38.83423935", "phone": "7196352800", "website_url": "http://www.phantomcanyon.com", "state": "Colorado", "street": "2 E Pikes Peak Ave"}, {"id": "adbc4ae2-16a5-4a7e-9303-c2c577021217", "name": "Phantom Carriage Brewery", "brewery_type": "brewpub", "address_1": "18525 S Main St", "address_2": null, "address_3": null, "city": "Gardena", "state_province": "California", "postal_code": "90248-4611", "country": "United States", "longitude": "-118.2760638", "latitude": "33.86203125", "phone": "3105385834", "website_url": "http://www.phantomcarriage.com", "state": "California", "street": "18525 S Main St"}, {"id": "07efdf5b-f8a3-4091-8777-9bc9cb85c92b", "name": "Phantom Horse Brewing", "brewery_type": "brewpub", "address_1": "56-A Fieldstone Village Dr", "address_2": null, "address_3": null, "city": "Rock Spring", "state_province": "Georgia", "postal_code": "30739", "country": "United States", "longitude": null, "latitude": null, "phone": "4233144978", "website_url": "http://www.phantomhorsebrewing.com", "state": "Georgia", "street": "56-A Fieldstone Village Dr"}, {"id": "aa245b87-5b85-4101-9dc1-6e3100d15f71", "name": "Phase 2 Brewing", "brewery_type": "brewpub", "address_1": "19382 Diamond Lake Drive", "address_2": null, "address_3": null, "city": "Lansdowne", "state_province": "Virginia", "postal_code": "20176", "country": "United States", "longitude": "-77.4939698", "latitude": "39.0808996", "phone": "5409870219", "website_url": "http://www.phase2brewing.com", "state": "Virginia", "street": "19382 Diamond Lake Drive"}, {"id": "d1646dcc-bbf1-4ffe-ac3f-47e3e7031bf1", "name": "Phat Fish Brewing", "brewery_type": "brewpub", "address_1": "1031 W Villard St", "address_2": null, "address_3": null, "city": "Dickinson", "state_province": "North Dakota", "postal_code": "58601-4845", "country": "United States", "longitude": "-102.8019477", "latitude": "46.88119882", "phone": "7017610170", "website_url": "http://www.phatfishbrewing.com", "state": "North Dakota", "street": "1031 W Villard St"}, {"id": "911d3c95-36af-45ad-b01e-8bf8e76e94be", "name": "Philadelphia Brewing Co", "brewery_type": "micro", "address_1": "2423 Amber St", "address_2": null, "address_3": null, "city": "Philadelphia", "state_province": "Pennsylvania", "postal_code": "19125-1606", "country": "United States", "longitude": "-75.12769991", "latitude": "39.98282736", "phone": "2154272739", "website_url": "http://www.philadelphiabrewing.com", "state": "Pennsylvania", "street": "2423 Amber St"}, {"id": "f66ca9a9-2128-41b0-ac3d-3b1805a91dd1", "name": "Philipsburg Brewing Co", "brewery_type": "micro", "address_1": "106 Brewery Road", "address_2": null, "address_3": null, "city": "Philipsburg", "state_province": "Montana", "postal_code": "59858", "country": "United States", "longitude": "-113.2871976", "latitude": "46.3299328", "phone": "4068592739", "website_url": null, "state": "Montana", "street": "106 Brewery Road"}, {"id": "8d111536-e72d-4f2e-86b6-f3c1585e21a4", "name": "Philipsburg Brewing Co", "brewery_type": "micro", "address_1": "101 W Broadway", "address_2": null, "address_3": null, "city": "Philipsburg", "state_province": "Montana", "postal_code": "59858", "country": "United States", "longitude": null, "latitude": null, "phone": "4068592739", "website_url": "http://www.philipsburgbrewingcompany.com", "state": "Montana", "street": "101 W Broadway"}, {"id": "75e58a42-3f5b-416e-b7e1-abd3f1207bd0", "name": "Picacho Peak Brewing Company", "brewery_type": "brewpub", "address_1": "3900 W Picacho Ave", "address_2": null, "address_3": null, "city": "Las Cruces", "state_province": "New Mexico", "postal_code": "88007", "country": "United States", "longitude": "-106.8024024", "latitude": "32.3118566", "phone": "5756806394", "website_url": "http://www.picachopeakbrewery.com", "state": "New Mexico", "street": "3900 W Picacho Ave"}, {"id": "7db7b882-21a1-47fa-a2a2-75449c83d328", "name": "Pie & Pints Restaurant & Brewery", "brewery_type": "contract", "address_1": null, "address_2": null, "address_3": null, "city": "Oxford", "state_province": "Connecticut", "postal_code": "06478", "country": "United States", "longitude": null, "latitude": null, "phone": "2035731743", "website_url": "http://www.piesandpints.biz", "state": "Connecticut", "street": null}, {"id": "48140e90-91e9-483e-b66f-99b99b1448e9", "name": "Piece Brewery", "brewery_type": "brewpub", "address_1": "1927 W North Ave", "address_2": null, "address_3": null, "city": "Chicago", "state_province": "Illinois", "postal_code": "60622-1316", "country": "United States", "longitude": "-87.6760621", "latitude": "41.9102937", "phone": "7737724422", "website_url": "http://www.piecechicago.com", "state": "Illinois", "street": "1927 W North Ave"}, {"id": "dd41a944-6c7c-4a68-9ca3-f584a5e4d545", "name": "Piedmont Brewery and Kitchen", "brewery_type": "brewpub", "address_1": "450-B Third Street", "address_2": null, "address_3": null, "city": "Macon", "state_province": "Georgia", "postal_code": "31201", "country": "United States", "longitude": null, "latitude": null, "phone": "4782542337", "website_url": "http://www.piedmontbrerwery.com", "state": "Georgia", "street": "450-B Third Street"}, {"id": "389ffa15-0ced-4099-b832-10da54e9add9", "name": "Pig Iron Brewing Co", "brewery_type": "brewpub", "address_1": "40 E Front St", "address_2": null, "address_3": null, "city": "Marietta", "state_province": "Pennsylvania", "postal_code": "17547-1538", "country": "United States", "longitude": "-76.55317283", "latitude": "40.05569372", "phone": "7176041161", "website_url": "http://www.pigironbrewingco.com", "state": "Pennsylvania", "street": "40 E Front St"}, {"id": "80f35301-8149-4307-affe-e6e4442b2df3", "name": "Pig Island Brewery", "brewery_type": "planning", "address_1": null, "address_2": null, "address_3": null, "city": "Bradford", "state_province": "Pennsylvania", "postal_code": "16701-1304", "country": "United States", "longitude": null, "latitude": null, "phone": "8143667612", "website_url": null, "state": "Pennsylvania", "street": null}, {"id": "c8d3c288-3993-4c62-8cf7-8d0a74af9350", "name": "Pig Minds Brewing Co", "brewery_type": "brewpub", "address_1": "4080 Steele Dr", "address_2": null, "address_3": null, "city": "Machesney Park", "state_province": "Illinois", "postal_code": "61115-8358", "country": "United States", "longitude": "-89.0232046", "latitude": "42.3692457", "phone": "8159687447", "website_url": "http://www.pigmindsbrewing.com", "state": "Illinois", "street": "4080 Steele Dr"}, {"id": "86e9610f-9d70-45d5-a43a-cdf824923728", "name": "Pig Pounder Brewery", "brewery_type": "micro", "address_1": "1107 Grecade St", "address_2": null, "address_3": null, "city": "Greensboro", "state_province": "North Carolina", "postal_code": "27408-8709", "country": "United States", "longitude": "-79.804196", "latitude": "36.084466", "phone": "3365531290", "website_url": "http://www.pigpounder.com", "state": "North Carolina", "street": "1107 Grecade St"}, {"id": "07fe858e-1a42-477e-ab51-dac36447ae8a", "name": "Pigeon Head Brewery", "brewery_type": "micro", "address_1": "840 E 5th St", "address_2": null, "address_3": null, "city": "Reno", "state_province": "Nevada", "postal_code": "89512-3508", "country": "United States", "longitude": "-119.802685", "latitude": "39.53337578", "phone": "7752766766", "website_url": "http://www.pigeonheadbrewery.com", "state": "Nevada", "street": "840 E 5th St"}, {"id": "88293b57-bdc4-4fb7-afb4-1de24a9e82e9", "name": "Pigeon Hill Brewery Production Facility", "brewery_type": "planning", "address_1": null, "address_2": null, "address_3": null, "city": "Muskegon", "state_province": "Michigan", "postal_code": "49440-1109", "country": "United States", "longitude": null, "latitude": null, "phone": null, "website_url": null, "state": "Michigan", "street": null}, {"id": "c7296318-3def-485e-9f58-b76d2db04b25", "name": "Pigeon Hill Brewing Co", "brewery_type": "micro", "address_1": "500 W Western Ave Ste 100", "address_2": null, "address_3": null, "city": "Muskegon", "state_province": "Michigan", "postal_code": "49440-1000", "country": "United States", "longitude": null, "latitude": null, "phone": "2313755184", "website_url": "http://www.pigeonhillbrew.com", "state": "Michigan", "street": "500 W Western Ave Ste 100"}, {"id": "adb1a784-30f8-4e7f-a43c-2759087c4dc7", "name": "Pigeon River Brewing", "brewery_type": "brewpub", "address_1": "1103 N Main St", "address_2": null, "address_3": null, "city": "Marion", "state_province": "Wisconsin", "postal_code": "54950-9182", "country": "United States", "longitude": "-88.88978978", "latitude": "44.67986485", "phone": "7152567721", "website_url": "http://www.pigeonriverbrewing.com", "state": "Wisconsin", "street": "1103 N Main St"}, {"id": "6f2798c9-c9ac-48bb-b220-d48bdc3bc5ae", "name": "Pigs Eye Pub", "brewery_type": "proprietor", "address_1": "10107 Bridgewater Pkwy", "address_2": null, "address_3": null, "city": "Woodbury", "state_province": "Minnesota", "postal_code": "55129-8587", "country": "United States", "longitude": "-92.90133962", "latitude": "44.92277843", "phone": "6517341661", "website_url": "http://www.pigseyebeer.com", "state": "Minnesota", "street": "10107 Bridgewater Pkwy"}, {"id": "4f4eb2c0-5053-4232-a3b4-eaa37434ef33", "name": "Pigskin Brewing Company", "brewery_type": "brewpub", "address_1": "81 Mill St Ste 150", "address_2": null, "address_3": null, "city": "Gahanna", "state_province": "Ohio", "postal_code": "43230-1718", "country": "United States", "longitude": null, "latitude": null, "phone": "6149449311", "website_url": null, "state": "Ohio", "street": "81 Mill St Ste 150"}, {"id": "a98948f7-7271-475a-b681-fb52c09d8506", "name": "Pike 51 Brewing", "brewery_type": "brewpub", "address_1": "3768 Chicago Dr", "address_2": null, "address_3": null, "city": "Hudsonville", "state_province": "Michigan", "postal_code": "49426-1637", "country": "United States", "longitude": "-85.87944718", "latitude": "42.8606644", "phone": "6166624589", "website_url": "http://www.hudsonvillewinery.com", "state": "Michigan", "street": "3768 Chicago Dr"}, {"id": "b8b7963b-ef34-4b45-b9e2-402504abfa23", "name": "Pike Brewing Co", "brewery_type": "micro", "address_1": "1415 1st Ave", "address_2": null, "address_3": null, "city": "Seattle", "state_province": "Washington", "postal_code": "98101-2017", "country": "United States", "longitude": "-122.3397179", "latitude": "47.6082151", "phone": "2066223373", "website_url": "http://www.pikebrewing.com", "state": "Washington", "street": "1415 1st Ave"}, {"id": "d99db2dc-a8fa-4027-8afd-4deae0112c88", "name": "Pikes Peak Brewing", "brewery_type": "micro", "address_1": "1756 Lake Woodmoor Dr", "address_2": null, "address_3": null, "city": "Monument", "state_province": "Colorado", "postal_code": "80132-9215", "country": "United States", "longitude": null, "latitude": null, "phone": "7192084098", "website_url": "http://www.pikespeakbrewing.com", "state": "Colorado", "street": "1756 Lake Woodmoor Dr"}, {"id": "9078765f-0ed2-4b9e-8ab4-108885f696df", "name": "Pileated Brewing Co", "brewery_type": "micro", "address_1": "2290 South Industrial Highway", "address_2": null, "address_3": null, "city": "Ann Arbor", "state_province": "Michigan", "postal_code": "48104", "country": "United States", "longitude": "-83.73385304", "latitude": "42.2528625", "phone": "7343696290", "website_url": "http://www.pileatedbrewing.com", "state": "Michigan", "street": "2290 South Industrial Highway"}, {"id": "e9841166-8a2c-481b-8fbf-0a8c50bc31b6", "name": "Pilot Brewing", "brewery_type": "planning", "address_1": null, "address_2": null, "address_3": null, "city": "Charlotte", "state_province": "North Carolina", "postal_code": "28205", "country": "United States", "longitude": null, "latitude": null, "phone": null, "website_url": null, "state": "North Carolina", "street": null}, {"id": "50368316-c57b-44d3-bfaa-b4d1c4cc9370", "name": "Pilothouse Brewing Company", "brewery_type": "micro", "address_1": "4233 S Buckley Rd", "address_2": null, "address_3": null, "city": "Aurora", "state_province": "Colorado", "postal_code": "80013-2947", "country": "United States", "longitude": "-104.7915508", "latitude": "39.63993222", "phone": "3039944971", "website_url": "http://www.pilothousebrewco.com", "state": "Colorado", "street": "4233 S Buckley Rd"}, {"id": "6040935f-f4dc-4318-b456-502caa825118", "name": "Pin-up Beers Ltd", "brewery_type": "micro", "address_1": "Manor Hall Road", "address_2": null, "address_3": null, "city": "Brighton", "state_province": "East Sussex", "postal_code": "BN42 4NH", "country": "England", "longitude": "-0.220415", "latitude": "50.835048", "phone": "1273411127", "website_url": "https://www.pinupbrewingco.com/", "state": "East Sussex", "street": "Manor Hall Road"}, {"id": "640a31f6-7697-4b49-a990-ff796588a283", "name": "Pine and Palm Brewing", "brewery_type": "micro", "address_1": "352 W Bedford Ave Ste 102", "address_2": null, "address_3": null, "city": "Fresno", "state_province": "California", "postal_code": "93711-6079", "country": "United States", "longitude": "-119.7978837", "latitude": "36.84630567", "phone": null, "website_url": "http://www.pineandpalmbrewing.com", "state": "California", "street": "352 W Bedford Ave Ste 102"}, {"id": "c94c18cf-8bb3-46d7-9703-1d72bb920feb", "name": "Pine Island Brewing", "brewery_type": "micro", "address_1": "682 County Route 1 Ste B", "address_2": null, "address_3": null, "city": "Pine Island", "state_province": "New York", "postal_code": "10969-1715", "country": "United States", "longitude": null, "latitude": null, "phone": "8452882646", "website_url": "http://www.pineislandbeer.com", "state": "New York", "street": "682 County Route 1 Ste B"}, {"id": "5dd40d8f-6b42-4f9c-9e8b-094a91c1e436", "name": "Pine Street Brewery", "brewery_type": "micro", "address_1": null, "address_2": null, "address_3": null, "city": "San Francisco", "state_province": "California", "postal_code": "94109-4929", "country": "United States", "longitude": "-122.4192363", "latitude": "37.7792808", "phone": "4157444062", "website_url": "http://www.pinestreetbrewery.com", "state": "California", "street": null}, {"id": "a418742c-1196-4602-8a28-6f4f4203d82b", "name": "Pinehurst Brewery", "brewery_type": "planning", "address_1": null, "address_2": null, "address_3": null, "city": "Pinehurst", "state_province": "North Carolina", "postal_code": "28374", "country": "United States", "longitude": null, "latitude": null, "phone": null, "website_url": null, "state": "North Carolina", "street": null}, {"id": "3882eece-5d4c-4783-89dc-03717599fcdd", "name": "Pinehurst Resort", "brewery_type": "planning", "address_1": null, "address_2": null, "address_3": null, "city": "Pinehurst", "state_province": "North Carolina", "postal_code": "28374", "country": "United States", "longitude": null, "latitude": null, "phone": "9102358703", "website_url": null, "state": "North Carolina", "street": null}, {"id": "d6ad6491-193e-48bb-b785-467752117b86", "name": "Pinelands Brewing", "brewery_type": "micro", "address_1": "140 7th Ave Unit 15", "address_2": null, "address_3": null, "city": "Little Egg Harbor Twp", "state_province": "New Jersey", "postal_code": "08087-4259", "country": "United States", "longitude": null, "latitude": null, "phone": "6092966169", "website_url": "http://www.pinelandsbrewing.com", "state": "New Jersey", "street": "140 7th Ave Unit 15"}, {"id": "1d263d88-3e19-4945-864d-fdd8dd5cb715", "name": "Pinellas Ale Works", "brewery_type": "micro", "address_1": "1962 1st Ave S", "address_2": null, "address_3": null, "city": "Saint Petersburg", "state_province": "Florida", "postal_code": "33712-1345", "country": "United States", "longitude": "-82.6597329", "latitude": "27.77012863", "phone": "7272350970", "website_url": "http://www.pawbeer.com", "state": "Florida", "street": "1962 1st Ave S"}, {"id": "d93bb3a9-c080-4c8a-8a4e-5181fc15b35a", "name": "Pinetop Brewing Company", "brewery_type": "brewpub", "address_1": "159 W White Mountain Blvd", "address_2": null, "address_3": null, "city": "Lakeside", "state_province": "Arizona", "postal_code": "85929-6527", "country": "United States", "longitude": "-109.9561769", "latitude": "34.14301231", "phone": "9283581971", "website_url": "http://www.pinetopbeer.com", "state": "Arizona", "street": "159 W White Mountain Blvd"}, {"id": "bfb0e8c9-fed1-4332-9fff-c4b45b49a7bf", "name": "Piney River Brewing Company", "brewery_type": "micro", "address_1": "15194 Walnut Grove Dr", "address_2": null, "address_3": null, "city": "Bucyrus", "state_province": "Missouri", "postal_code": "65444-9002", "country": "United States", "longitude": "-92.01768537", "latitude": "37.32148798", "phone": "4179674001", "website_url": "http://www.pineyriverbrewing.com", "state": "Missouri", "street": "15194 Walnut Grove Dr"}, {"id": "2c7c2d1e-c48c-4842-9753-a0bb88a605c7", "name": "Piney River Taproom", "brewery_type": "brewpub", "address_1": "326 US Rte 66 E", "address_2": null, "address_3": null, "city": "Waynesville", "state_province": "Missouri", "postal_code": "65583", "country": "United States", "longitude": "-92.193612", "latitude": "37.87597", "phone": "5734332739", "website_url": "http://www.pineyriverbrewing.com", "state": "Missouri", "street": "326 US Rte 66 E"}, {"id": "3802e9d2-1bbd-4a80-a045-ab7e15c28113", "name": "Pinglehead Brewery / Brewer's Pizza", "brewery_type": "brewpub", "address_1": "14B  Blanding Blvd Ste B", "address_2": null, "address_3": null, "city": "Orange Park", "state_province": "Florida", "postal_code": "32073-2232", "country": "United States", "longitude": null, "latitude": null, "phone": "9042765159", "website_url": "http://www.brewerspizza.com", "state": "Florida", "street": "14B  Blanding Blvd Ste B"}, {"id": "dd87a0e6-c13b-49ac-ad00-e4ee2ca428be", "name": "Pint", "brewery_type": "brewpub", "address_1": "332 Clay St", "address_2": null, "address_3": null, "city": "Kerrville", "state_province": "Texas", "postal_code": "78028-4502", "country": "United States", "longitude": "-99.141", "latitude": "30.0494005", "phone": "8303157468", "website_url": "http://www.pintandplow.com", "state": "Texas", "street": "332 Clay St"}, {"id": "9022e968-f018-46f2-8027-ad91feba9c22", "name": "Pint 9 Brewing Co", "brewery_type": "micro", "address_1": "10411 Portal Rd", "address_2": null, "address_3": null, "city": "La Vista", "state_province": "Nebraska", "postal_code": "68128", "country": "United States", "longitude": "-96.07590229", "latitude": "41.17191269", "phone": "4023591418", "website_url": "https://pintninebrewing.com", "state": "Nebraska", "street": "10411 Portal Rd"}, {"id": "590c1861-3175-4f4f-8b2d-051d2db81294", "name": "Pinthouse Pizza North", "brewery_type": "brewpub", "address_1": "4729 Burnet Rd", "address_2": null, "address_3": null, "city": "Austin", "state_province": "Texas", "postal_code": "78756-2826", "country": "United States", "longitude": "-97.7390631", "latitude": "30.3187523", "phone": null, "website_url": "http://www.pinthousepizza.com", "state": "Texas", "street": "4729 Burnet Rd"}, {"id": "6bf22b2c-4836-4d2f-8f0a-88c5f40a0a56", "name": "Pinthouse Pizza Round Rock", "brewery_type": "planning", "address_1": null, "address_2": null, "address_3": null, "city": "Round Rock", "state_province": "Texas", "postal_code": "78681", "country": "United States", "longitude": null, "latitude": null, "phone": null, "website_url": null, "state": "Texas", "street": null}, {"id": "9a8b0b19-2a32-4f4e-97c6-890cb9bf42b9", "name": "Pinthouse Pizza South", "brewery_type": "brewpub", "address_1": "4236 S Lamar Blvd", "address_2": null, "address_3": null, "city": "Austin", "state_province": "Texas", "postal_code": "78704-7905", "country": "United States", "longitude": "-97.7958917", "latitude": "30.2361072", "phone": "5125685300", "website_url": "http://www.pinthousepizza.com", "state": "Texas", "street": "4236 S Lamar Blvd"}, {"id": "b44103c8-48e8-4156-8367-4381e34d3f87", "name": "Pints Brewery and Sports Bar", "brewery_type": "brewpub", "address_1": "2100 S Casino Dr", "address_2": null, "address_3": null, "city": "Laughlin", "state_province": "Nevada", "postal_code": "89029", "country": "United States", "longitude": "-114.574559", "latitude": "35.157448", "phone": "7022984000", "website_url": "http://www.coloradobelle.com", "state": "Nevada", "street": "2100 S Casino Dr"}, {"id": "6ed57500-9e54-4468-bbc2-4b8b113c6ebe", "name": "PINTS Brewing Company and Urban Taproom", "brewery_type": "micro", "address_1": "412 NW 5th Ave Suite 200", "address_2": null, "address_3": null, "city": "Portland", "state_province": "Oregon", "postal_code": "97209-3893", "country": "United States", "longitude": "-122.6754225", "latitude": "45.5261944", "phone": "5035642739", "website_url": "http://www.pintsbrewing.com", "state": "Oregon", "street": "412 NW 5th Ave Suite 200"}, {"id": "26c5bf08-f1a2-4e4f-b092-e802ee69d039", "name": "Pints Pub Brewery and Freehouse", "brewery_type": "brewpub", "address_1": "221 W 13th Ave", "address_2": null, "address_3": null, "city": "Denver", "state_province": "Colorado", "postal_code": "80204-2711", "country": "United States", "longitude": "-104.9908538", "latitude": "39.737018", "phone": "3035347543", "website_url": "http://www.pintspub.com", "state": "Colorado", "street": "221 W 13th Ave"}, {"id": "b649ace0-0985-41c2-828e-807cbee21bcc", "name": "Pinups & Pints", "brewery_type": "micro", "address_1": "10963 Lower Valley Pike", "address_2": null, "address_3": null, "city": "Medway", "state_province": "Ohio", "postal_code": "45341-9706", "country": "United States", "longitude": "-84.045082", "latitude": "39.860912", "phone": "9378491400", "website_url": "http://www.pinupsandpints.com", "state": "Ohio", "street": "10963 Lower Valley Pike"}, {"id": "e61d8398-eb60-49f0-a3e2-92534c5bc02a", "name": "Pipe Dream Brewing", "brewery_type": "brewpub", "address_1": "49 Harvey Rd Unit 4", "address_2": null, "address_3": null, "city": "Londonderry", "state_province": "New Hampshire", "postal_code": "03053-7442", "country": "United States", "longitude": null, "latitude": null, "phone": "6034040751", "website_url": "http://www.pipedreambrewingnh.com", "state": "New Hampshire", "street": "49 Harvey Rd Unit 4"}, {"id": "e195223f-feb9-4782-9ce8-98a48b15ca2a", "name": "Pipeworks Brewing Co", "brewery_type": "micro", "address_1": "3912 W McLean Ave Ste B", "address_2": null, "address_3": null, "city": "Chicago", "state_province": "Illinois", "postal_code": "60647-5973", "country": "United States", "longitude": null, "latitude": null, "phone": "8479109493", "website_url": "http://pipeworksbrewing.com", "state": "Illinois", "street": "3912 W McLean Ave Ste B"}, {"id": "cf3bbe8d-9956-48c4-a576-9e691b26c50e", "name": "Pipeworks Brewing Co", "brewery_type": "micro", "address_1": null, "address_2": null, "address_3": null, "city": "Chicago", "state_province": "Illinois", "postal_code": "60647-5972", "country": "United States", "longitude": null, "latitude": null, "phone": "8479109493", "website_url": null, "state": "Illinois", "street": null}, {"id": "b9ffed7c-9569-4f18-82a6-b51b59dd5bb8", "name": "Pisgah Brewing Co", "brewery_type": "micro", "address_1": "150 Eastside Dr", "address_2": null, "address_3": null, "city": "Black Mountain", "state_province": "North Carolina", "postal_code": "28711-8208", "country": "United States", "longitude": "-82.35826", "latitude": "35.6079376", "phone": "8286690190", "website_url": "http://www.pisgahbrewing.com", "state": "North Carolina", "street": "150 Eastside Dr"}, {"id": "1b47f02a-b009-4856-8a94-1048e59ecc1e", "name": "Pismo Brewing Co", "brewery_type": "micro", "address_1": "500 Cypress St", "address_2": null, "address_3": null, "city": "Pismo Beach", "state_province": "California", "postal_code": "93449-2624", "country": "United States", "longitude": "-120.6409192", "latitude": "35.13908295", "phone": "8052956200", "website_url": "http://www.pismobrew.com", "state": "California", "street": "500 Cypress St"}, {"id": "1d26e5a5-2e88-45d7-94ef-0e10c85cecde", "name": "Pitchers Sports Restaurant and Brewery", "brewery_type": "brewpub", "address_1": "1100 W Drake Rd", "address_2": null, "address_3": null, "city": "Fort Collins", "state_province": "Colorado", "postal_code": "80526-6008", "country": "United States", "longitude": "-105.0973959", "latitude": "40.55306785", "phone": "9704935374", "website_url": "http://www.pitchersbrewery.com", "state": "Colorado", "street": "1100 W Drake Rd"}, {"id": "0c0c9b38-f4da-4862-8f13-838adfe16c7f", "name": "Pitchfork Brewing", "brewery_type": "micro", "address_1": "709 Rodeo Dr Ste 104", "address_2": null, "address_3": null, "city": "Hudson", "state_province": "Wisconsin", "postal_code": "54016-4700", "country": "United States", "longitude": "-92.68354304", "latitude": "44.9654252", "phone": "7152453675", "website_url": "http://www.pitchforkbrewing.com", "state": "Wisconsin", "street": "709 Rodeo Dr Ste 104"}, {"id": "5c29c1ec-f2dd-4b73-b9be-b89a91c94dae", "name": "Pitt Street Brewing Company", "brewery_type": "micro", "address_1": "630 S Pitt St", "address_2": null, "address_3": null, "city": "Greenville", "state_province": "North Carolina", "postal_code": "27834-3159", "country": "United States", "longitude": "-77.37694822", "latitude": "35.6095883", "phone": "2522274151", "website_url": "http://www.pittstreetbrewing.com", "state": "North Carolina", "street": "630 S Pitt St"}, {"id": "14e42687-7706-4eda-aec6-739577141d69", "name": "Pittsburgh Brewing Co", "brewery_type": "contract", "address_1": "3340 Liberty Ave", "address_2": null, "address_3": null, "city": "Pittsburgh", "state_province": "Pennsylvania", "postal_code": "15201-1394", "country": "United States", "longitude": "-79.96570261", "latitude": "40.46161288", "phone": "4126827400", "website_url": "http://www.pittsburghbrewing.com", "state": "Pennsylvania", "street": "3340 Liberty Ave"}, {"id": "f7860ee9-ed57-4b51-b919-5dd6a1e83b39", "name": "PIVO Brewery", "brewery_type": "micro", "address_1": "101 Huber Dr", "address_2": null, "address_3": null, "city": "Calmar", "state_province": "Iowa", "postal_code": "52132", "country": "United States", "longitude": "-91.871483", "latitude": "43.190941", "phone": "5635621053", "website_url": "http://www.pivoblepta.com", "state": "Iowa", "street": "101 Huber Dr"}, {"id": "cbc413e8-2e23-4d6e-8a3b-2540e40222e8", "name": "Pivot Brewing Company", "brewery_type": "micro", "address_1": "1400 Delaware Ave", "address_2": null, "address_3": null, "city": "Lexington", "state_province": "Kentucky", "postal_code": "40505", "country": "United States", "longitude": "-84.470627", "latitude": "38.038574", "phone": "8592856778", "website_url": "http://www.pivotbrewingcompany.com", "state": "Kentucky", "street": "1400 Delaware Ave"}, {"id": "190d46ba-0081-44f8-b7be-b08f374d44ff", "name": "Piwnica \u015awidnicka", "brewery_type": "brewpub", "address_1": "Rynek 50", "address_2": null, "address_3": null, "city": "Wroc\u0142aw", "state_province": "dolno\u015bl\u0105skie", "postal_code": "50-996", "country": "Poland", "longitude": "17.0320275", "latitude": "51.1095636", "phone": null, "website_url": null, "state": "dolno\u015bl\u0105skie", "street": "Rynek 50"}, {"id": "cf7d04c2-de19-4843-8e23-d58fe9a99720", "name": "Pixeled Brewing Company", "brewery_type": "micro", "address_1": "1100 NP Ave #101", "address_2": null, "address_3": null, "city": "Fargo", "state_province": "North Dakota", "postal_code": "58102-4794", "country": "United States", "longitude": "-96.79606487", "latitude": "46.87589876", "phone": "7015320915", "website_url": "http://pixeled.beer", "state": "North Dakota", "street": "1100 NP Ave #101"}, {"id": "7293e7d3-7f88-4641-aec9-a23ba475a31d", "name": "Pizza Beer Company", "brewery_type": "contract", "address_1": "5N404 Harvest Ln", "address_2": null, "address_3": null, "city": "Saint Charles", "state_province": "Illinois", "postal_code": "60175-8242", "country": "United States", "longitude": null, "latitude": null, "phone": "6303776888", "website_url": "http://www.pizzabeer.net", "state": "Illinois", "street": "5N404 Harvest Ln"}, {"id": "3b7c7089-8a91-4178-8e66-4438ff0d3e71", "name": "Pizza Boy Brewing Co", "brewery_type": "micro", "address_1": "2240 Millennium Way", "address_2": null, "address_3": null, "city": "Enola", "state_province": "Pennsylvania", "postal_code": "17025-1484", "country": "United States", "longitude": null, "latitude": null, "phone": "7177283840", "website_url": "http://www.pizzaboybrewing.com", "state": "Pennsylvania", "street": "2240 Millennium Way"}, {"id": "40ce948c-ae39-44d4-b738-340a336484a5", "name": "Pizza By Elizabeths", "brewery_type": "brewpub", "address_1": "3801 Kennett Pike", "address_2": null, "address_3": null, "city": "Greenville", "state_province": "Delaware", "postal_code": "19807-2321", "country": "United States", "longitude": "-75.59566848", "latitude": "39.77560249", "phone": "3026544478", "website_url": "http://www.pizzabyelizabeths.com", "state": "Delaware", "street": "3801 Kennett Pike"}, {"id": "ad83acf3-671c-404e-8b55-785f230286d7", "name": "Pizza Port - Bressi Ranch", "brewery_type": "regional", "address_1": "2730 Gateway Rd", "address_2": null, "address_3": null, "city": "Carlsbad", "state_province": "California", "postal_code": "92009-1730", "country": "United States", "longitude": "-117.2510773", "latitude": "33.12807761", "phone": "7607071655", "website_url": "http://www.pizzaport.com", "state": "California", "street": "2730 Gateway Rd"}, {"id": "7de092fc-38a2-438d-8f0e-8bd0101bfad1", "name": "Pizza Port Carlsbad", "brewery_type": "regional", "address_1": "571 Carlsbad Village Dr", "address_2": null, "address_3": null, "city": "Carlsbad", "state_province": "California", "postal_code": "92008-2304", "country": "United States", "longitude": "-117.3477152", "latitude": "33.1598703", "phone": "7607207007", "website_url": "http://www.pizzaport.com", "state": "California", "street": "571 Carlsbad Village Dr"}, {"id": "0f0b7b5b-b5ae-48f1-9339-5b363249da79", "name": "Pizza Port Ocean Beach", "brewery_type": "brewpub", "address_1": "1956 Bacon St", "address_2": null, "address_3": null, "city": "San Diego", "state_province": "California", "postal_code": "92107-2844", "country": "United States", "longitude": "-117.2503592", "latitude": "32.74799385", "phone": "6192244700", "website_url": "http://www.pizzaport.com", "state": "California", "street": "1956 Bacon St"}, {"id": "f80ad04c-4af6-4773-8a2b-499f1c57d4b5", "name": "Pizza Port San Clemente", "brewery_type": "brewpub", "address_1": "301 N El Camino Real", "address_2": null, "address_3": null, "city": "San Clemente", "state_province": "California", "postal_code": "92672-4716", "country": "United States", "longitude": "-117.613484", "latitude": "33.4288345", "phone": "9499400005", "website_url": "http://www.pizzaport.com", "state": "California", "street": "301 N El Camino Real"}, {"id": "d2da8c9e-ad96-42c6-9876-88a10677a8c9", "name": "Pizza Port Solana Beach", "brewery_type": "brewpub", "address_1": "135 N Highway 101", "address_2": null, "address_3": null, "city": "Solana Beach", "state_province": "California", "postal_code": "92075-1128", "country": "United States", "longitude": "-117.2737068", "latitude": "32.9977749", "phone": "8584817332", "website_url": "http://www.pizzaport.com", "state": "California", "street": "135 N Highway 101"}, {"id": "72641386-78bd-4ab2-b961-ce314019f2b7", "name": "Placerville Brewing Co", "brewery_type": "brewpub", "address_1": "155 Placerville Dr", "address_2": null, "address_3": null, "city": "Placerville", "state_province": "California", "postal_code": "95667-3909", "country": "United States", "longitude": "-120.8370686", "latitude": "38.7276787", "phone": "5302959166", "website_url": "http://www.placervillebrewing.com", "state": "California", "street": "155 Placerville Dr"}, {"id": "1ab227f5-0399-4f11-9af9-e5d90794a752", "name": "Plan 9 Alehouse", "brewery_type": "brewpub", "address_1": "155 E Grand Ave", "address_2": null, "address_3": null, "city": "Escondido", "state_province": "California", "postal_code": "92025-2701", "country": "United States", "longitude": "-117.0821707", "latitude": "33.12121471", "phone": "7604898817", "website_url": "http://www.plan9alehouse.com", "state": "California", "street": "155 E Grand Ave"}, {"id": "1be396ef-bd51-4cbd-985c-4618decd6732", "name": "Plan Bee Farm Brewery", "brewery_type": "micro", "address_1": "115 Underhill Rd", "address_2": null, "address_3": null, "city": "Poughkeepsie", "state_province": "New York", "postal_code": "12603-1045", "country": "United States", "longitude": "-73.88591274", "latitude": "41.71721405", "phone": "7653078589", "website_url": "http://www.planbeefarmbrewery.com", "state": "New York", "street": "115 Underhill Rd"}, {"id": "2eb9c869-f6e1-4e5b-9876-86c96f2c49ef", "name": "Planetary Brewing Company", "brewery_type": "micro", "address_1": "500 Polk St Ste 22", "address_2": null, "address_3": null, "city": "Greenwood", "state_province": "Indiana", "postal_code": "46143-1638", "country": "United States", "longitude": null, "latitude": null, "phone": "3172154941", "website_url": "http://www.planetarybrewing.com", "state": "Indiana", "street": "500 Polk St Ste 22"}, {"id": "0b10c02c-d787-402e-80b9-18c53977f62b", "name": "Plank Town Brewing", "brewery_type": "micro", "address_1": "346 Main St", "address_2": null, "address_3": null, "city": "Springfield", "state_province": "Oregon", "postal_code": "97477-5362", "country": "United States", "longitude": "-123.0214468", "latitude": "44.04627308", "phone": "4582017039", "website_url": "http://planktownbrewing.com", "state": "Oregon", "street": "346 Main St"}, {"id": "2cbfe2ea-677a-4c4d-95b1-349556953fa2", "name": "Platform Beer Co", "brewery_type": "regional", "address_1": "4125 Lorain Ave", "address_2": null, "address_3": null, "city": "Cleveland", "state_province": "Ohio", "postal_code": "44113-3718", "country": "United States", "longitude": "-81.7140045", "latitude": "41.4799605", "phone": "2162021386", "website_url": "http://platformbeer.co", "state": "Ohio", "street": "4125 Lorain Ave"}, {"id": "309b3fd3-b726-48a2-a141-5d1f3a71f493", "name": "Platform Beer Co - Production Facility", "brewery_type": "micro", "address_1": "3506 Vega Ave", "address_2": null, "address_3": null, "city": "Cleveland", "state_province": "Ohio", "postal_code": "44113-4900", "country": "United States", "longitude": "-81.70785488", "latitude": "41.47449194", "phone": null, "website_url": "http://www.platformbeer.co", "state": "Ohio", "street": "3506 Vega Ave"}, {"id": "442750a7-de36-4035-969e-e73915939443", "name": "Platform Beer Co Taproom", "brewery_type": "micro", "address_1": "408 N 6th St", "address_2": null, "address_3": null, "city": "Columbus", "state_province": "Ohio", "postal_code": "43215-2137", "country": "United States", "longitude": "-82.9949497", "latitude": "39.97173", "phone": "6148262285", "website_url": "http://www.platformbeer.co", "state": "Ohio", "street": "408 N 6th St"}, {"id": "3230d289-2e6c-456c-b9c4-256dc17f44f1", "name": "Platform Cincinnati", "brewery_type": "micro", "address_1": "916 Dalton Ave", "address_2": null, "address_3": null, "city": "Cincinnati", "state_province": "Ohio", "postal_code": "45203", "country": "United States", "longitude": "-84.5362431", "latitude": "39.10592991", "phone": "2162021386", "website_url": null, "state": "Ohio", "street": "916 Dalton Ave"}, {"id": "6225d756-4684-46ba-8ef4-de19e6fb0d8c", "name": "Platt Park Brewing Co.", "brewery_type": "micro", "address_1": "1875 S Pearl St", "address_2": null, "address_3": null, "city": "Denver", "state_province": "Colorado", "postal_code": "80210-3136", "country": "United States", "longitude": "-104.9805967", "latitude": "39.68267416", "phone": "3039686674", "website_url": "http://www.plattparkbrewing.com", "state": "Colorado", "street": "1875 S Pearl St"}, {"id": "9248a7e6-08a5-41c0-bdba-e1bc9066a2e6", "name": "Platte Creek Brewing Company", "brewery_type": "micro", "address_1": "311 Main St", "address_2": null, "address_3": null, "city": "Geddes", "state_province": "South Dakota", "postal_code": "57342-7706", "country": "United States", "longitude": "-98.68955885", "latitude": "43.26576978", "phone": "6053372994", "website_url": "http://www.plattecreekbrewingcompany.com", "state": "South Dakota", "street": "311 Main St"}, {"id": "bd03f69a-609b-4909-b616-2d1c4e3253ca", "name": "Plattsburgh Brewing Co", "brewery_type": "brewpub", "address_1": "411 Route 3", "address_2": null, "address_3": null, "city": "Plattsburgh", "state_province": "New York", "postal_code": "12901-6520", "country": "United States", "longitude": null, "latitude": null, "phone": "5183246680", "website_url": "http://www.plattsburghbrewingco.com", "state": "New York", "street": "411 Route 3"}, {"id": "e4d21ea4-1561-47b0-bb15-876ab5defcfd", "name": "Platypus Brewing", "brewery_type": "brewpub", "address_1": "1902 Washington Ave Ste E", "address_2": null, "address_3": null, "city": "Houston", "state_province": "Texas", "postal_code": "77007-6414", "country": "United States", "longitude": null, "latitude": null, "phone": "8329858007", "website_url": "http://www.platypusbrewing.com", "state": "Texas", "street": "1902 Washington Ave Ste E"}, {"id": "73d3ba34-6019-4f55-ac56-068d10796b70", "name": "Playalinda Brewing Company", "brewery_type": "micro", "address_1": "305 S Washington Ave", "address_2": null, "address_3": null, "city": "Titusville", "state_province": "Florida", "postal_code": "32796-3539", "country": "United States", "longitude": null, "latitude": null, "phone": "3212258978", "website_url": "http://www.playalindabrewingcompany.com", "state": "Florida", "street": "305 S Washington Ave"}, {"id": "c66dae41-8336-4879-af3a-190e804e6268", "name": "Playalinda Brewing Company -  Brix Project", "brewery_type": "brewpub", "address_1": "5220 S Washington Ave", "address_2": null, "address_3": null, "city": "Titusville", "state_province": "Florida", "postal_code": "32780-7316", "country": "United States", "longitude": null, "latitude": null, "phone": null, "website_url": "http://www.playalindabrewingcompany.com", "state": "Florida", "street": "5220 S Washington Ave"}, {"id": "1adb74d8-a66e-48f7-9bfa-7fdd76d4dcaa", "name": "Pleasure House Brewing", "brewery_type": "micro", "address_1": "3025 Shore Dr", "address_2": null, "address_3": null, "city": "Virginia Beach", "state_province": "Virginia", "postal_code": "23451-1247", "country": "United States", "longitude": "-76.079164", "latitude": "36.909938", "phone": "7574960916", "website_url": "http://www.pleasurehousebrewing.com", "state": "Virginia", "street": "3025 Shore Dr"}, {"id": "13a3a187-393c-4c75-b0ad-2d112106e627", "name": "Plow Brewing Company", "brewery_type": "micro", "address_1": "3334 Industrial Dr", "address_2": null, "address_3": null, "city": "Santa Rosa", "state_province": "California", "postal_code": "95403-2011", "country": "United States", "longitude": "-122.740072", "latitude": "38.47455222", "phone": "7078434583", "website_url": "http://www.sonomacounty.com/brewery/plow-brewing-company", "state": "California", "street": "3334 Industrial Dr"}, {"id": "0d206bbe-547d-4180-b0d4-2cdf05676971", "name": "Plymouth Beer Company / Dirty Water Distillery", "brewery_type": "micro", "address_1": "10 Water St", "address_2": null, "address_3": null, "city": "Plymouth", "state_province": "Massachusetts", "postal_code": "02360-3349", "country": "United States", "longitude": "-70.6620267", "latitude": "41.9549491", "phone": "5085910589", "website_url": "http://www.plymouthbeer.rocks", "state": "Massachusetts", "street": "10 Water St"}, {"id": "67291cf6-893e-4bcd-bb05-3900373b6aea", "name": "Plymouth Brewing Co", "brewery_type": "micro", "address_1": "222 E Mill St", "address_2": null, "address_3": null, "city": "Plymouth", "state_province": "Wisconsin", "postal_code": "53073-1706", "country": "United States", "longitude": "-87.9776737", "latitude": "43.7477014", "phone": "9208576083", "website_url": "http://www.plymouthbrewingcompany.com", "state": "Wisconsin", "street": "222 E Mill St"}, {"id": "ed20ba54-aead-449e-8a1f-1f3dc9a6a787", "name": "Po'Boy Brewing", "brewery_type": "micro", "address_1": "200 Wilson St Unit E3", "address_2": null, "address_3": null, "city": "Port Jefferson Station", "state_province": "New York", "postal_code": "11776-1145", "country": "United States", "longitude": null, "latitude": null, "phone": "6318281131", "website_url": "http://www.poboybrewery.com", "state": "New York", "street": "200 Wilson St Unit E3"}, {"id": "10803076-d2d0-45c1-8fbf-2b4158a08a7c", "name": "Pocock Brewing Company", "brewery_type": "micro", "address_1": "24907 Avenue Tibbitts Ste B", "address_2": null, "address_3": null, "city": "Santa Clarita", "state_province": "California", "postal_code": "91355-3487", "country": "United States", "longitude": "-118.571182", "latitude": "34.43079435", "phone": "6617754899", "website_url": "http://www.pocockbrewing.com", "state": "California", "street": "24907 Avenue Tibbitts Ste B"}, {"id": "1910b8fc-28c0-491b-a7fa-abf2973d9ce5", "name": "Pocono Brewery Company", "brewery_type": "brewpub", "address_1": "2092 Route 611", "address_2": null, "address_3": null, "city": "Swiftwater", "state_province": "Pennsylvania", "postal_code": "18370-7773", "country": "United States", "longitude": null, "latitude": null, "phone": "5708391500", "website_url": null, "state": "Pennsylvania", "street": "2092 Route 611"}, {"id": "8b639b0e-6598-469e-871f-940b1143a3ba", "name": "POG Brewing Company", "brewery_type": "brewpub", "address_1": "24524 S State State Rte D", "address_2": null, "address_3": null, "city": "Cleveland", "state_province": "Missouri", "postal_code": "64734", "country": "United States", "longitude": "-94.582691", "latitude": "38.701465", "phone": "8164064179", "website_url": "http://www.pogbrewing.com", "state": "Missouri", "street": "24524 S State State Rte D"}, {"id": "0342dc02-62b5-4f51-8667-46d98847bde8", "name": "Point Blank Brewing Company", "brewery_type": "brewpub", "address_1": "105 E Beaver St", "address_2": null, "address_3": null, "city": "Corydon", "state_province": "Indiana", "postal_code": "47112-1146", "country": "United States", "longitude": "-86.12616408", "latitude": "38.21111448", "phone": "8122255141", "website_url": "http://www.pointblankbrewing.com", "state": "Indiana", "street": "105 E Beaver St"}, {"id": "cdf91a93-80df-4940-af33-6a5562b7eef8", "name": "Point Breeze Brewing", "brewery_type": "micro", "address_1": "1225 S 28th St", "address_2": null, "address_3": null, "city": "Philadelphia", "state_province": "Pennsylvania", "postal_code": "19146-", "country": "United States", "longitude": "-75.1900898", "latitude": "39.9382866", "phone": null, "website_url": "http://www.pointbreezebrewing.com", "state": "Pennsylvania", "street": "1225 S 28th St"}, {"id": "d454edbb-ddb4-4aaa-a922-e6c7ad84c73b", "name": "Point Labaddie Brewery", "brewery_type": "micro", "address_1": "1029 Thiebes Rd", "address_2": null, "address_3": null, "city": "Labadie", "state_province": "Missouri", "postal_code": "63055-1712", "country": "United States", "longitude": "-90.80569", "latitude": "38.500563", "phone": "6367422861", "website_url": "http://www.pointlabaddiebrewery.com", "state": "Missouri", "street": "1029 Thiebes Rd"}, {"id": "db32cfd6-bffb-4f0e-9ed3-f71ab574c505", "name": "Point Ybel Brewing Company", "brewery_type": "micro", "address_1": "16120 San Carlos Blvd Ste 4", "address_2": null, "address_3": null, "city": "Fort Myers", "state_province": "Florida", "postal_code": "33908-3294", "country": "United States", "longitude": null, "latitude": null, "phone": "2396036535", "website_url": "http://www.pointybelbrew.com", "state": "Florida", "street": "16120 San Carlos Blvd Ste 4"}, {"id": "e0a4a050-03c1-422b-91e1-d0bb315d9752", "name": "Pointless Brewery", "brewery_type": "micro", "address_1": "3014 Packard St", "address_2": null, "address_3": null, "city": "Ann Arbor", "state_province": "Michigan", "postal_code": "48108-1935", "country": "United States", "longitude": "-83.7297662", "latitude": "42.260633", "phone": "9894554484", "website_url": "http://www.pointlessbrew.com", "state": "Michigan", "street": "3014 Packard St"}, {"id": "c6447b87-5325-42ff-9406-46484ce38d67", "name": "Poison Frog Brewing Company", "brewery_type": "brewpub", "address_1": "1908 Horton Rd", "address_2": null, "address_3": null, "city": "Jackson", "state_province": "Michigan", "postal_code": "49203-5520", "country": "United States", "longitude": "-84.4374522", "latitude": "42.20141178", "phone": "5177485997", "website_url": null, "state": "Michigan", "street": "1908 Horton Rd"}, {"id": "71adfacc-e332-40de-8fde-3a36caabd5ff", "name": "Pokro Brewing Company, The", "brewery_type": "micro", "address_1": "311 N Broad St", "address_2": null, "address_3": null, "city": "Griffith", "state_province": "Indiana", "postal_code": "46319-2222", "country": "United States", "longitude": "-87.42755733", "latitude": "41.5266943", "phone": "2199247950", "website_url": "http://www.pokrobrewing.com", "state": "Indiana", "street": "311 N Broad St"}, {"id": "f84fe98f-6767-4f6a-94cf-315a70d35dbf", "name": "Polarity Brewing Ltd", "brewery_type": "micro", "address_1": "Abbotts Close", "address_2": null, "address_3": null, "city": "Worthing", "state_province": "West Sussex", "postal_code": "BN11 1JB", "country": "England", "longitude": "-0.375446", "latitude": "50.814845", "phone": "7872105300", "website_url": "http://www.polaritybrewing.co.uk/", "state": "West Sussex", "street": "Abbotts Close"}, {"id": "d9b4198d-7fdb-4dde-a6c3-6195489e2ca3", "name": "Policy Kings Brewery LLC", "brewery_type": "micro", "address_1": "223 N 100 W", "address_2": null, "address_3": null, "city": "Cedar City", "state_province": "Utah", "postal_code": "84721", "country": "United States", "longitude": "-113.064003", "latitude": "37.681305", "phone": null, "website_url": "http://www.policykingsbrewery.com", "state": "Utah", "street": "223 N 100 W"}, {"id": "8beeebf7-5b40-4fa7-a085-b62b63740a31", "name": "Pollyanna Brewing Company", "brewery_type": "micro", "address_1": "431 Talcott Ave", "address_2": null, "address_3": null, "city": "Lemont", "state_province": "Illinois", "postal_code": "60439-3744", "country": "United States", "longitude": "-87.9978837", "latitude": "41.6759774", "phone": "6309145834", "website_url": "http://www.pollyannabrewing.com", "state": "Illinois", "street": "431 Talcott Ave"}, {"id": "90218961-385e-459f-b286-a1560ee423a8", "name": "Polyculture Brewing Company", "brewery_type": "micro", "address_1": "3 Camel Hump Rd", "address_2": null, "address_3": null, "city": "Croydon", "state_province": "New Hampshire", "postal_code": "03773", "country": "United States", "longitude": "-72.18685389", "latitude": "43.41054689", "phone": "7735471994", "website_url": "http://www.polyculturebrewing.com", "state": "New Hampshire", "street": "3 Camel Hump Rd"}]