[{"id": "4fe7c651-b3db-4d96-83fd-8d37e856c822", "name": "Nickel Beer Co", "brewery_type": "micro", "address_1": "1485 Hollow Glen Rd", "address_2": null, "address_3": null, "city": "Julian", "state_province": "California", "postal_code": "92036", "country": "United States", "longitude": "-116.5901544", "latitude": "33.07629942", "phone": "7607652337", "website_url": "http://www.nickelbeerco.com", "state": "California", "street": "1485 Hollow Glen Rd"}, {"id": "3bc90ba0-66f5-4728-a5b3-049e98d37a3c", "name": "Nickelpoint Brewing Co", "brewery_type": "micro", "address_1": "506 Pershing Rd", "address_2": null, "address_3": null, "city": "Raleigh", "state_province": "North Carolina", "postal_code": "27608-2624", "country": "United States", "longitude": "-78.63369468", "latitude": "35.8045808", "phone": "9199165961", "website_url": "http://www.nickelpointbrewing.com", "state": "North Carolina", "street": "506 Pershing Rd"}, {"id": "9cac1034-004e-42e5-803a-20051f1f79f3", "name": "Night Shift Brewing", "brewery_type": "planning", "address_1": null, "address_2": null, "address_3": null, "city": "Boston", "state_province": "Massachusetts", "postal_code": "02114", "country": "United States", "longitude": null, "latitude": null, "phone": null, "website_url": null, "state": "Massachusetts", "street": null}, {"id": "b5e1df63-f7fe-4350-b724-f55935e77638", "name": "Night Shift Brewing, Inc", "brewery_type": "regional", "address_1": "87 Santilli Hwy", "address_2": null, "address_3": null, "city": "Everett", "state_province": "Massachusetts", "postal_code": "02149-1906", "country": "United States", "longitude": "-71.0677001", "latitude": "42.4059393", "phone": "6172944233", "website_url": "http://www.nightshiftbrewing.com", "state": "Massachusetts", "street": "87 Santilli Hwy"}, {"id": "fc18188e-adce-4ed3-8c6d-35a746da8e86", "name": "NightLife Brewing Co", "brewery_type": "micro", "address_1": "1588 Nw 7th St", "address_2": null, "address_3": null, "city": "Miami", "state_province": "Florida", "postal_code": "33125", "country": "United States", "longitude": "-80.22131343", "latitude": "25.7800687", "phone": "7867872337", "website_url": "http://www.nightlifebrewingco.com", "state": "Florida", "street": "1588 Nw 7th St"}, {"id": "b0c7325d-5406-4b94-9a9b-9f951189a42c", "name": "Nimble Brewing", "brewery_type": "micro", "address_1": "1735 Oak St", "address_2": null, "address_3": null, "city": "Kansas City", "state_province": "Missouri", "postal_code": "64108", "country": "United States", "longitude": "-94.579238", "latitude": "39.095177", "phone": "8167871822", "website_url": "http://www.nimblebrewing.com", "state": "Missouri", "street": "1735 Oak St"}, {"id": "87c2dc5c-0a40-40ee-a689-acff555737b2", "name": "Nimble Hill Brewing Co", "brewery_type": "micro", "address_1": "3971 SR 6", "address_2": null, "address_3": null, "city": "Tunkhannock", "state_province": "Pennsylvania", "postal_code": "18657", "country": "United States", "longitude": null, "latitude": null, "phone": "5708369463", "website_url": "http://www.nimblehillbrewingcompany.com", "state": "Pennsylvania", "street": "3971 SR 6"}, {"id": "1f13514b-646f-4685-8e73-a3bdef8e651c", "name": "Nine Band Brewing Co.", "brewery_type": "micro", "address_1": "9 Prestige Cir", "address_2": null, "address_3": null, "city": "Allen", "state_province": "Texas", "postal_code": "75002-3419", "country": "United States", "longitude": "-96.67280786", "latitude": "33.0931001", "phone": "9726635707", "website_url": "http://www.ninebandbrewing.com", "state": "Texas", "street": "9 Prestige Cir"}, {"id": "66825536-6e93-4eed-aa6c-eba138076b0e", "name": "Nine Giant Brewing", "brewery_type": "brewpub", "address_1": "6095 Montgomery Rd", "address_2": null, "address_3": null, "city": "Cincinnati", "state_province": "Ohio", "postal_code": "45213-1617", "country": "United States", "longitude": "-84.4276285", "latitude": "39.1822755", "phone": "5133664550", "website_url": "http://www.ninegiant.com", "state": "Ohio", "street": "6095 Montgomery Rd"}, {"id": "9b678eac-c1d5-4ff7-beb9-60534f2346a7", "name": "Nine Maidens Brewing Company", "brewery_type": "micro", "address_1": "1344 University Ave", "address_2": "Suite 140", "address_3": null, "city": "Rochester", "state_province": "New York", "postal_code": "14607", "country": "United States", "longitude": "-77.56625665", "latitude": "43.15104753", "phone": "5854343030", "website_url": "https://ninemaidensbrewing.com", "state": "New York", "street": "1344 University Ave"}, {"id": "5cd23923-67b2-4443-b792-0f24872e6467", "name": "Nine Yards Brewing", "brewery_type": "closed", "address_1": "7324 NE 175th St Ste A", "address_2": null, "address_3": null, "city": "Kenmore", "state_province": "Washington", "postal_code": "98028-2500", "country": "United States", "longitude": "-122.2422906", "latitude": "47.75713837", "phone": "2066932333", "website_url": "http://www.nineyardsbrewing.com", "state": "Washington", "street": "7324 NE 175th St Ste A"}, {"id": "482a6631-2632-46e5-bea1-834d1d7474c4", "name": "Ninkasi Brewing Co", "brewery_type": "regional", "address_1": "155 Blair Blvd", "address_2": null, "address_3": null, "city": "Eugene", "state_province": "Oregon", "postal_code": "97402-4146", "country": "United States", "longitude": "-123.1108891", "latitude": "44.05734326", "phone": "5413442739", "website_url": "http://www.ninkasibrewing.com", "state": "Oregon", "street": "155 Blair Blvd"}, {"id": "8acc8ce7-11c0-43b3-913d-34e0830e03cf", "name": "Nisqually Valley Brewing", "brewery_type": "closed", "address_1": "704 W Yelm Ave", "address_2": null, "address_3": null, "city": "Yelm", "state_province": "Washington", "postal_code": "98597-7676", "country": "United States", "longitude": "-122.6146521", "latitude": "46.94649437", "phone": "4252328191", "website_url": null, "state": "Washington", "street": "704 W Yelm Ave"}, {"id": "5ac42050-fd76-4876-9391-6b7b84a7d845", "name": "Nivol Brewing", "brewery_type": "micro", "address_1": "483 N Richard Jackson Blvd", "address_2": null, "address_3": null, "city": "Panama City Beach", "state_province": "Florida", "postal_code": "32407-3647", "country": "United States", "longitude": null, "latitude": null, "phone": "8502491150", "website_url": "http://www.nivolbrewery.com", "state": "Florida", "street": "483 N Richard Jackson Blvd"}, {"id": "0eef4089-8abb-43aa-9bed-2845c549c737", "name": "NLand Brewing Company", "brewery_type": "micro", "address_1": "4836 Hwy 71 E", "address_2": null, "address_3": null, "city": "del Valle", "state_province": "Texas", "postal_code": "78617-3217", "country": "United States", "longitude": null, "latitude": null, "phone": "5128061900", "website_url": null, "state": "Texas", "street": "4836 Hwy 71 E"}, {"id": "4ef00f5d-4b35-499e-ba90-8485b4d7ad8d", "name": "No Boat Brewing Company", "brewery_type": "micro", "address_1": "35214 SE Center St # 2", "address_2": null, "address_3": null, "city": "Snoqualmie", "state_province": "Washington", "postal_code": "98065-9279", "country": "United States", "longitude": "-121.8721847", "latitude": "47.52917112", "phone": "2063995626", "website_url": "http://www.noboatbrewing.com", "state": "Washington", "street": "35214 SE Center St # 2"}, {"id": "bd119567-1524-49cd-a608-4b15f885a7f7", "name": "No Clue Craft Brewery", "brewery_type": "micro", "address_1": "9037 Arrow Rte Ste 170", "address_2": null, "address_3": null, "city": "Rancho Cucamonga", "state_province": "California", "postal_code": "91730-4433", "country": "United States", "longitude": "-117.5410707", "latitude": "34.0990988", "phone": "9099892394", "website_url": "http://www.nocluebrew.com", "state": "California", "street": "9037 Arrow Rte Ste 170"}, {"id": "993fa956-4a45-4a84-94c7-975cea6e9602", "name": "No Drought Brewing Co", "brewery_type": "micro", "address_1": "10604 E 16th Ave", "address_2": null, "address_3": null, "city": "Spokane Valley", "state_province": "Washington", "postal_code": "99206", "country": "United States", "longitude": "-117.2624031", "latitude": "47.64269047", "phone": "4257735309", "website_url": "https://nodroughtbrewing.com", "state": "Washington", "street": "10604 E 16th Ave"}, {"id": "ede002ca-e4fd-42ad-8f34-f355339bec32", "name": "No Label Brewing Co", "brewery_type": "micro", "address_1": "5351-A 1st St", "address_2": null, "address_3": null, "city": "Katy", "state_province": "Texas", "postal_code": "77493-2506", "country": "United States", "longitude": null, "latitude": null, "phone": "2816937545", "website_url": "http://www.nolabelbrew.com", "state": "Texas", "street": "5351-A 1st St"}, {"id": "ab6833ed-c009-48fc-9c28-66b346f3a66d", "name": "No Worries Brewing Company", "brewery_type": "micro", "address_1": "2520 State St", "address_2": null, "address_3": null, "city": "Hamden", "state_province": "Connecticut", "postal_code": "06517-3004", "country": "United States", "longitude": null, "latitude": null, "phone": "2036916662", "website_url": "http://www.noworriesbeer.com", "state": "Connecticut", "street": "2520 State St"}, {"id": "a2f1cd52-8d42-4763-935d-f6d3846e163b", "name": "No-Li Brewhouse", "brewery_type": "micro", "address_1": "1003 E Trent Ave Ste 170", "address_2": null, "address_3": null, "city": "Spokane", "state_province": "Washington", "postal_code": "99202-2185", "country": "United States", "longitude": "-117.3935426", "latitude": "47.6637169", "phone": "5093154061", "website_url": "http://www.nolibrewhouse.com", "state": "Washington", "street": "1003 E Trent Ave Ste 170"}, {"id": "365669a0-156f-4d7c-8f11-e50bf0b85c80", "name": "Noble Ale Works", "brewery_type": "micro", "address_1": "1621 S Sinclair St Ste B", "address_2": null, "address_3": null, "city": "Anaheim", "state_province": "California", "postal_code": "92806-5947", "country": "United States", "longitude": "-117.8826431", "latitude": "33.80875036", "phone": "7146342739", "website_url": "http://www.noblealeworks.com", "state": "California", "street": "1621 S Sinclair St Ste B"}, {"id": "cd6e88e8-4e7d-4c49-bffe-278c5e329313", "name": "Noble Beast Brewing Co.", "brewery_type": "brewpub", "address_1": "1470 Lakeside Ave E", "address_2": null, "address_3": null, "city": "Cleveland", "state_province": "Ohio", "postal_code": "44114-1137", "country": "United States", "longitude": "-81.68692334", "latitude": "41.50768107", "phone": "7175859216", "website_url": "http://noblebeastbeer.com", "state": "Ohio", "street": "1470 Lakeside Ave E"}, {"id": "35c24341-b1dd-4218-a209-a4b8e26b6d04", "name": "Noble Creature Cask House", "brewery_type": "brewpub", "address_1": "126 E Rayen Ave", "address_2": null, "address_3": null, "city": "Youngstown", "state_province": "Ohio", "postal_code": "44503-1619", "country": "United States", "longitude": "-80.64576162", "latitude": "41.1022793", "phone": "2347191827", "website_url": "http://www.noblecreaturebeer.com", "state": "Ohio", "street": "126 E Rayen Ave"}, {"id": "fb3382e7-dddc-4538-a920-8a73f8499fa0", "name": "Noble Order Brewing Company", "brewery_type": "brewpub", "address_1": "3407 National Rd W", "address_2": null, "address_3": null, "city": "Richmond", "state_province": "Indiana", "postal_code": "47374-4416", "country": "United States", "longitude": "-84.94882319", "latitude": "39.82198694", "phone": "7659659463", "website_url": "http://www.nobleorderbrewing.com", "state": "Indiana", "street": "3407 National Rd W"}, {"id": "27b8a5c5-c9b0-4379-92c5-b51227419527", "name": "Noble Rey Brewing Company", "brewery_type": "micro", "address_1": "2636 Farrington St", "address_2": null, "address_3": null, "city": "Dallas", "state_province": "Texas", "postal_code": "75207-5908", "country": "United States", "longitude": "-96.83952145", "latitude": "32.79998405", "phone": "9726777612", "website_url": "http://www.noblereybrewing.com", "state": "Texas", "street": "2636 Farrington St"}, {"id": "be4d1a52-2a5c-493b-9000-6e2d46ca6fed", "name": "Noble Roots Brewing", "brewery_type": "micro", "address_1": "2790 University Ave", "address_2": null, "address_3": null, "city": "Green Bay", "state_province": "Wisconsin", "postal_code": "54311-5856", "country": "United States", "longitude": "-87.996992", "latitude": "44.51462", "phone": null, "website_url": null, "state": "Wisconsin", "street": "2790 University Ave"}, {"id": "8ffc4efe-c037-4619-bbd5-6892acf73bc5", "name": "Noble Shepherd Craft Brewery", "brewery_type": "micro", "address_1": "7853 State Route 20a", "address_2": null, "address_3": null, "city": "Bloomfield", "state_province": "New York", "postal_code": "14469-9659", "country": "United States", "longitude": null, "latitude": null, "phone": "5852297661", "website_url": "http://www.nobleshepherdbrewery.com", "state": "New York", "street": "7853 State Route 20a"}, {"id": "5d6f03de-3d1e-4164-802f-df0ef0addb2b", "name": "Noble Stein Brewing Co.", "brewery_type": "micro", "address_1": "1170-G Wayne Avenue", "address_2": null, "address_3": null, "city": "Indiana", "state_province": "Pennsylvania", "postal_code": "15701", "country": "United States", "longitude": null, "latitude": null, "phone": "7248018087", "website_url": "http://www.noblesteinbeer.com", "state": "Pennsylvania", "street": "1170-G Wayne Avenue"}, {"id": "7a316e4c-43af-48c4-9dd7-238c29c9355e", "name": "NOBO Brewing Company", "brewery_type": "micro", "address_1": "2901 Commerce Park Dr", "address_2": null, "address_3": null, "city": "Boynton Beach", "state_province": "Florida", "postal_code": "33426-8728", "country": "United States", "longitude": null, "latitude": null, "phone": "5613201522", "website_url": "http://www.nobobrewing.com", "state": "Florida", "street": "2901 Commerce Park Dr"}, {"id": "0ef56b9f-5e22-4727-9507-4e81e18ec36c", "name": "NoCoast Beer Co", "brewery_type": "micro", "address_1": "1407 17th Ave E Ste B", "address_2": null, "address_3": null, "city": "Oskaloosa", "state_province": "Iowa", "postal_code": "52577-3563", "country": "United States", "longitude": "-92.629066", "latitude": "41.280628", "phone": "6416733481", "website_url": "http://www.nocoastbeer.co", "state": "Iowa", "street": "1407 17th Ave E Ste B"}, {"id": "32f14df7-72c2-4b46-be09-9c9c887a8cc1", "name": "Nocterra Brewing Co", "brewery_type": "micro", "address_1": "41 Depot St", "address_2": null, "address_3": null, "city": "Powell", "state_province": "Ohio", "postal_code": "43065", "country": "United States", "longitude": "-83.0784981", "latitude": "40.1596311", "phone": "614-896-8000", "website_url": "https://nocterrabrewing.com/", "state": "Ohio", "street": "41 Depot St"}, {"id": "23a3ecc4-0f48-46e5-8b7c-d72222af9d0f", "name": "Nod Hill Brewery", "brewery_type": "micro", "address_1": "137 Ethan Allen Hwy", "address_2": null, "address_3": null, "city": "Ridgefield", "state_province": "Connecticut", "postal_code": "06877-6238", "country": "United States", "longitude": "-73.44388491", "latitude": "41.27316148", "phone": "2036171191", "website_url": "http://www.nodhillbrewery.com", "state": "Connecticut", "street": "137 Ethan Allen Hwy"}, {"id": "34b3f37c-5c35-4afa-a10f-590b88a055f1", "name": "NoDa Brewing Co - NE", "brewery_type": "regional", "address_1": "2921 N Tryon St", "address_2": null, "address_3": null, "city": "Charlotte", "state_province": "North Carolina", "postal_code": "28206-2762", "country": "United States", "longitude": "-80.7190968", "latitude": "35.3342735", "phone": "7044511394", "website_url": "http://www.nodabrewing.com", "state": "North Carolina", "street": "2921 N Tryon St"}, {"id": "537b2caf-1ce6-4c4f-9e7c-618d3c0bf9c1", "name": "NoDa Brewing Co - OG", "brewery_type": "micro", "address_1": "2229 N Davidson St", "address_2": null, "address_3": null, "city": "Charlotte", "state_province": "North Carolina", "postal_code": "28205-1829", "country": "United States", "longitude": "-80.81513271", "latitude": "35.23971743", "phone": "7044511394", "website_url": null, "state": "North Carolina", "street": "2229 N Davidson St"}, {"id": "4898f503-7bb3-494f-98dc-921d032912ef", "name": "Nomadic Beerworks", "brewery_type": "micro", "address_1": "3804 Woodbury Dr Suita A", "address_2": null, "address_3": null, "city": "Austin", "state_province": "Texas", "postal_code": "78704", "country": "United States", "longitude": "-97.7627464", "latitude": "30.2244374", "phone": null, "website_url": "http://www.nomadicbeerworks.com", "state": "Texas", "street": "3804 Woodbury Dr Suita A"}, {"id": "5448b56f-2da6-4a53-a379-061c33b7b66c", "name": "Nonesuch River Brewing", "brewery_type": "brewpub", "address_1": "201 Gorham Rd", "address_2": null, "address_3": null, "city": "Scarborough", "state_province": "Maine", "postal_code": "04074-8970", "country": "United States", "longitude": null, "latitude": null, "phone": "2072198948", "website_url": "http://www.nonesuchriverbrewing.com", "state": "Maine", "street": "201 Gorham Rd"}, {"id": "b7b2b15a-641c-4ca0-9b04-b36d0a5bf3de", "name": "Noon Whistle Brewing Company", "brewery_type": "micro", "address_1": "800 E Roosevelt Rd Ste 3", "address_2": null, "address_3": null, "city": "Lombard", "state_province": "Illinois", "postal_code": "60148-4765", "country": "United States", "longitude": null, "latitude": null, "phone": "7089063625", "website_url": "http://www.noonwhistlebrewing.com", "state": "Illinois", "street": "800 E Roosevelt Rd Ste 3"}, {"id": "38ca86ea-1286-4668-ac55-b84aebc30c32", "name": "Norfork Brewing Company", "brewery_type": "micro", "address_1": "1237 River Ridge Rd", "address_2": null, "address_3": null, "city": "Norfork", "state_province": "Arkansas", "postal_code": "72658-9630", "country": "United States", "longitude": "-92.2711893", "latitude": "36.2245472", "phone": "9187066082", "website_url": "http://www.nfbrew.com", "state": "Arkansas", "street": "1237 River Ridge Rd"}, {"id": "d0829fa2-1489-43a5-9bbf-a89d51e8747a", "name": "Norris English Pub", "brewery_type": "brewpub", "address_1": "202 E Seminary St", "address_2": null, "address_3": null, "city": "Liberty", "state_province": "Indiana", "postal_code": "47353-1206", "country": "United States", "longitude": "-84.92508133", "latitude": "39.6344325", "phone": "7652232337", "website_url": "http://www.norrisenglishpub.com", "state": "Indiana", "street": "202 E Seminary St"}, {"id": "385aa942-7fc3-441b-90c5-7ad9410e2d03", "name": "Norsemen Brewing Co.", "brewery_type": "micro", "address_1": "830 N Kansas Ave", "address_2": null, "address_3": null, "city": "Topeka", "state_province": "Kansas", "postal_code": "66608-1211", "country": "United States", "longitude": "-95.6663742", "latitude": "39.06706165", "phone": "7856085065", "website_url": "http://www.norsemenbrewingco.com", "state": "Kansas", "street": "830 N Kansas Ave"}, {"id": "1c3768b5-cdcf-4b42-915a-0f99ad191b87", "name": "Nortada", "brewery_type": "brewpub", "address_1": "R. de S\u00e1 da Bandeira 210", "address_2": null, "address_3": null, "city": "Porto", "state_province": "Porto", "postal_code": "4000-427", "country": "Portugal", "longitude": "-8.608164266696724", "latitude": "41.148109589962274", "phone": "+351 22 018 1000", "website_url": "https://cervejanortada.pt", "state": "Porto", "street": "R. de S\u00e1 da Bandeira 210"}, {"id": "a10124cd-39fc-494b-8196-3b71410ba8ca", "name": "North 47 Brewing Co", "brewery_type": "micro", "address_1": "1000 Town Ctr NE Ste 160", "address_2": null, "address_3": null, "city": "Tacoma", "state_province": "Washington", "postal_code": "98422-1197", "country": "United States", "longitude": "-122.4354592", "latitude": "47.30149275", "phone": "2535179865", "website_url": "http://www.north47brewery.com", "state": "Washington", "street": "1000 Town Ctr NE Ste 160"}, {"id": "e8c22d10-8479-4770-917a-7d9788a8e515", "name": "North American Breweries", "brewery_type": "regional", "address_1": "445 Saint Paul St", "address_2": null, "address_3": null, "city": "Rochester", "state_province": "New York", "postal_code": "14605-1726", "country": "United States", "longitude": "-77.6143245", "latitude": "43.16481717", "phone": "5855461030", "website_url": null, "state": "New York", "street": "445 Saint Paul St"}, {"id": "8de15b68-c090-4116-9d26-e09a2c845c52", "name": "North Brewery", "brewery_type": "micro", "address_1": "110 Washington Ave", "address_2": null, "address_3": null, "city": "Endicott", "state_province": "New York", "postal_code": "13760-5307", "country": "United States", "longitude": "-76.04827802", "latitude": "42.102192", "phone": "6077850524", "website_url": "http://www.northbrewery.com", "state": "New York", "street": "110 Washington Ave"}, {"id": "a5719005-b4e5-49c8-95ed-47f6c6fcec05", "name": "North By Northwest Restaurant and Brewery - North Capital", "brewery_type": "brewpub", "address_1": "10010 N Capital of Texas Hwy", "address_2": null, "address_3": null, "city": "Austin", "state_province": "Texas", "postal_code": "78759-5837", "country": "United States", "longitude": null, "latitude": null, "phone": "5124676969", "website_url": "http://www.nxnwbrew.com", "state": "Texas", "street": "10010 N Capital of Texas Hwy"}, {"id": "6232a3d2-740c-4c51-b69f-234f44a6d003", "name": "North By Northwest Restaurant and Brewery - Slaughter", "brewery_type": "brewpub", "address_1": "5701 W Slaughter Ln Bld D", "address_2": null, "address_3": null, "city": "Austin", "state_province": "Texas", "postal_code": "78759-5837", "country": "United States", "longitude": null, "latitude": null, "phone": "5124676969", "website_url": null, "state": "Texas", "street": "5701 W Slaughter Ln Bld D"}, {"id": "2fe4a822-2435-4f5c-bebf-66a40909e8d4", "name": "North Center Brewing Co.", "brewery_type": "brewpub", "address_1": "410 N Center St", "address_2": null, "address_3": null, "city": "Northville", "state_province": "Michigan", "postal_code": "48167-1224", "country": "United States", "longitude": "-83.48311135", "latitude": "42.43412107", "phone": "2484447967", "website_url": "http://www.northcenterbrewing.com", "state": "Michigan", "street": "410 N Center St"}, {"id": "2983edd7-074e-4a0e-970f-6fc938c07e94", "name": "North Channel Brewing Co.", "brewery_type": "brewpub", "address_1": "86 Washington St", "address_2": null, "address_3": null, "city": "Manistee", "state_province": "Michigan", "postal_code": "49660-1231", "country": "United States", "longitude": "-86.32379888", "latitude": "44.24929388", "phone": "2312991020", "website_url": "http://www.NorthChannelBrewing.com", "state": "Michigan", "street": "86 Washington St"}, {"id": "8ded24ab-ee4b-4ae5-89aa-279f870c5f99", "name": "North Coast Brewing Co Inc.", "brewery_type": "regional", "address_1": "455 N Main St", "address_2": null, "address_3": null, "city": "Fort Bragg", "state_province": "California", "postal_code": "95437-3215", "country": "United States", "longitude": "-123.8057604", "latitude": "39.44618406", "phone": "7079642739", "website_url": "http://www.northcoastbrewing.com", "state": "California", "street": "455 N Main St"}, {"id": "315984bd-5e4e-4752-bfee-e91c5d77ae8f", "name": "North Country Brewing Co. LLC", "brewery_type": "micro", "address_1": "141 S Main St", "address_2": null, "address_3": null, "city": "Slippery Rock", "state_province": "Pennsylvania", "postal_code": "16057-1246", "country": "United States", "longitude": "-80.05566287", "latitude": "41.06345599", "phone": "7247942337", "website_url": "http://www.northcountrybrewing.com", "state": "Pennsylvania", "street": "141 S Main St"}, {"id": "d3d3ffc2-081b-4004-a9b9-b3471061dafc", "name": "North Country Canning Co", "brewery_type": "micro", "address_1": "111 Arrowhead Dr Ste B", "address_2": null, "address_3": null, "city": "Slippery Rock", "state_province": "Pennsylvania", "postal_code": "16057-2667", "country": "United States", "longitude": null, "latitude": null, "phone": "7247942337", "website_url": null, "state": "Pennsylvania", "street": "111 Arrowhead Dr Ste B"}, {"id": "ca5d6e06-3eb3-4a52-a827-5c237b414323", "name": "North End Tavern & Brewery", "brewery_type": "brewpub", "address_1": "3500 Emerson Ave", "address_2": null, "address_3": null, "city": "Parkersburg", "state_province": "West Virginia", "postal_code": "26104-1806", "country": "United States", "longitude": "-81.5330081", "latitude": "39.2874512", "phone": "3044285854", "website_url": "http://www.netbrewery.com", "state": "West Virginia", "street": "3500 Emerson Ave"}, {"id": "f8ecb4a2-5fb8-4b64-8723-2edc12a766a3", "name": "North Fork Brewing Co", "brewery_type": "brewpub", "address_1": "6186 Mt Baker Hwy", "address_2": null, "address_3": null, "city": "Deming", "state_province": "Washington", "postal_code": "98244-9501", "country": "United States", "longitude": "-122.243112", "latitude": "48.833032", "phone": "3605992337", "website_url": "http://www.northforkbrewery.com", "state": "Washington", "street": "6186 Mt Baker Hwy"}, {"id": "bae199e6-4672-41d7-9c0c-c3ecc42033da", "name": "North Fork Brewing Company", "brewery_type": "planning", "address_1": null, "address_2": null, "address_3": null, "city": "Riverhead", "state_province": "New York", "postal_code": "11901-4615", "country": "United States", "longitude": null, "latitude": null, "phone": null, "website_url": null, "state": "New York", "street": null}, {"id": "7cc5e4f3-1c61-42ce-a66b-eb5e18a011ba", "name": "North Forty Beer Company", "brewery_type": "micro", "address_1": "435 SE Jackson St", "address_2": null, "address_3": null, "city": "Roseburg", "state_province": "Oregon", "postal_code": "97470-4945", "country": "United States", "longitude": "-123.3429552", "latitude": "43.21021235", "phone": "5413216636", "website_url": "http://www.northfortybeer.com", "state": "Oregon", "street": "435 SE Jackson St"}, {"id": "453056a2-f7af-460b-81bc-d88e3e558889", "name": "North Haven Brewing Company", "brewery_type": "micro", "address_1": "2 Iron Point Rd # 2", "address_2": null, "address_3": null, "city": "North Haven", "state_province": "Maine", "postal_code": "04853", "country": "United States", "longitude": "-68.8719897", "latitude": "44.1280622", "phone": "2078672337", "website_url": "http://www.northhavenbrewing.com", "state": "Maine", "street": "2 Iron Point Rd # 2"}, {"id": "83737f10-3aa4-47c7-899d-d0eac85b098c", "name": "North High Brewing", "brewery_type": "micro", "address_1": "1125 Cleveland Ave", "address_2": null, "address_3": null, "city": "Columbus", "state_province": "Ohio", "postal_code": "43201-2900", "country": "United States", "longitude": "-82.982658", "latitude": "39.992787", "phone": "6142263244", "website_url": "http://www.northhighbrewing.com", "state": "Ohio", "street": "1125 Cleveland Ave"}, {"id": "b03278e4-ab18-489a-abdb-2dd1e3a8e487", "name": "North Idaho Mountain Brew / City Limits Pub", "brewery_type": "brewpub", "address_1": "108 Nine Mile Rd", "address_2": null, "address_3": null, "city": "Wallace", "state_province": "Idaho", "postal_code": "83873-5021", "country": "United States", "longitude": "-115.922925", "latitude": "47.475441", "phone": "2085561885", "website_url": "https://northidahomountainbrew.com", "state": "Idaho", "street": "108 Nine Mile Rd"}, {"id": "563b7a6a-3c59-4e52-9fa2-c7af3e1bfd18", "name": "North Jetty Brewing", "brewery_type": "micro", "address_1": "4200 Pacific Way", "address_2": null, "address_3": null, "city": "Seaview", "state_province": "Washington", "postal_code": "98644-4212", "country": "United States", "longitude": "-124.0545827", "latitude": "46.333147", "phone": "3606424234", "website_url": "http://www.northjettybrewing.com", "state": "Washington", "street": "4200 Pacific Way"}, {"id": "793264a4-d4b5-4aa2-8858-b7806e2fe00c", "name": "North Laine Brewhouse", "brewery_type": "brewpub", "address_1": "Gloucester Place", "address_2": null, "address_3": null, "city": "Brighton", "state_province": "East Sussex", "postal_code": "BN1 4AA", "country": "England", "longitude": "-0.13588", "latitude": "50.826276", "phone": "1273683666", "website_url": "https://www.northlaine.pub/", "state": "East Sussex", "street": "Gloucester Place"}, {"id": "c9891cfa-d6dd-4499-bad9-0fa9bfb39342", "name": "North Mountain Brewing Co", "brewery_type": "brewpub", "address_1": "522 E Dunlap Ave", "address_2": null, "address_3": null, "city": "Phoenix", "state_province": "Arizona", "postal_code": "85020-2916", "country": "United States", "longitude": "-112.0660919", "latitude": "33.56787865", "phone": "6028615999", "website_url": "http://www.northmountainbrewing.com", "state": "Arizona", "street": "522 E Dunlap Ave"}, {"id": "2a85f041-c3d9-4062-831a-9bf2eb9a9127", "name": "North Park Beer Co.", "brewery_type": "micro", "address_1": "3038 University Ave", "address_2": null, "address_3": null, "city": "San Diego", "state_province": "California", "postal_code": "92104-3002", "country": "United States", "longitude": "-117.129137", "latitude": "32.748724", "phone": "6192552946", "website_url": "http://www.northparkbeerco.com", "state": "California", "street": "3038 University Ave"}, {"id": "7bfc1562-4643-4470-9f03-caaabfb82e21", "name": "North Peak Brewing Co", "brewery_type": "brewpub", "address_1": "400 W Front St", "address_2": null, "address_3": null, "city": "Traverse City", "state_province": "Michigan", "postal_code": "49684-2800", "country": "United States", "longitude": "-85.6285431", "latitude": "44.7643155", "phone": "2319417325", "website_url": "http://www.northpeak.net", "state": "Michigan", "street": "400 W Front St"}, {"id": "8e765472-33c8-4e1d-8923-20973d75e6f4", "name": "North Pier Brewing", "brewery_type": "micro", "address_1": "670 N Shore Dr", "address_2": null, "address_3": null, "city": "Benton Harbor", "state_province": "Michigan", "postal_code": "49022-3646", "country": "United States", "longitude": "-86.45499315", "latitude": "42.12454349", "phone": "2697577163", "website_url": "http://www.northpierbrewing.com", "state": "Michigan", "street": "670 N Shore Dr"}, {"id": "d704deed-0ee2-43be-a3df-68c9c104e83c", "name": "North River Hops And Brewing", "brewery_type": "micro", "address_1": "1571 Route 9", "address_2": null, "address_3": null, "city": "Wappingers Falls", "state_province": "New York", "postal_code": "12590-2827", "country": "United States", "longitude": null, "latitude": null, "phone": "8452972190", "website_url": "http://www.northriverbrews.com", "state": "New York", "street": "1571 Route 9"}, {"id": "391dc957-781e-4669-9ff0-c76744652ef1", "name": "North Sound Brewing Co.", "brewery_type": "micro", "address_1": "17406 State Route 536 Unit A", "address_2": null, "address_3": null, "city": "Mount Vernon", "state_province": "Washington", "postal_code": "98273-8755", "country": "United States", "longitude": "-122.3701317", "latitude": "48.43222464", "phone": "3609822057", "website_url": "http://northsoundbrewing.com", "state": "Washington", "street": "17406 State Route 536 Unit A"}, {"id": "6fcab9b2-c9bf-40eb-a82e-53bc6a69e5e5", "name": "Northampton Brewery", "brewery_type": "brewpub", "address_1": "11 Brewster Ct", "address_2": null, "address_3": null, "city": "Northampton", "state_province": "Massachusetts", "postal_code": "01060-3801", "country": "United States", "longitude": "-72.6303406", "latitude": "42.317397", "phone": "4135849903", "website_url": "http://www.northamptonbrewery.com", "state": "Massachusetts", "street": "11 Brewster Ct"}, {"id": "83c8e63b-c302-46e3-bb2b-7f3ac12ba99b", "name": "Northbound Smokehouse Brewpub", "brewery_type": "brewpub", "address_1": "2716 E 38th St", "address_2": null, "address_3": null, "city": "Minneapolis", "state_province": "Minnesota", "postal_code": "55406-3004", "country": "United States", "longitude": "-93.2323804", "latitude": "44.9342257", "phone": "6122081450", "website_url": "http://www.smokehousebrewpub.com", "state": "Minnesota", "street": "2716 E 38th St"}, {"id": "0e834e30-1b30-4a68-81d2-10665c6af1df", "name": "Northern Ales", "brewery_type": "brewpub", "address_1": "325 W 3rd Ave", "address_2": null, "address_3": null, "city": "Kettle Falls", "state_province": "Washington", "postal_code": "99141-0993", "country": "United States", "longitude": "-118.0651843", "latitude": "48.60979793", "phone": "5097387382", "website_url": "http://northernales.com", "state": "Washington", "street": "325 W 3rd Ave"}, {"id": "6873097b-bd2b-464f-84c1-3f88e07c63d1", "name": "Northern Harvest Brewing Company", "brewery_type": "planning", "address_1": null, "address_2": null, "address_3": null, "city": "Moriah", "state_province": "New York", "postal_code": "12960-2306", "country": "United States", "longitude": null, "latitude": null, "phone": "5184682337", "website_url": "http://www.northernharvest.beer", "state": "New York", "street": null}, {"id": "16b64ce9-966d-4ef8-be16-2fd585f45b9b", "name": "Northern Maine Brewing Co", "brewery_type": "brewpub", "address_1": "22 Main St", "address_2": null, "address_3": null, "city": "Caribou", "state_province": "Maine", "postal_code": "04736-4163", "country": "United States", "longitude": "-67.99670995", "latitude": "46.81407692", "phone": "2074922185", "website_url": null, "state": "Maine", "street": "22 Main St"}, {"id": "a4e574c0-4323-43ac-bb45-475c32413d06", "name": "Northern Oak Brewery", "brewery_type": "brewpub", "address_1": "806 N Saginaw St", "address_2": null, "address_3": null, "city": "Holly", "state_province": "Michigan", "postal_code": "48442-1347", "country": "United States", "longitude": "-83.62737964", "latitude": "42.80026273", "phone": "2486347515", "website_url": "http://www.northernoakbrewery.com", "state": "Michigan", "street": "806 N Saginaw St"}, {"id": "b66534e0-f458-43b0-b9b4-e72487d9414e", "name": "Northern Outer Banks Brewing Company", "brewery_type": "micro", "address_1": "520 Old Stoney Rd", "address_2": null, "address_3": null, "city": "Corolla", "state_province": "North Carolina", "postal_code": "27927", "country": "United States", "longitude": null, "latitude": null, "phone": "2522071890", "website_url": "http://www.northernobxbrewing.com", "state": "North Carolina", "street": "520 Old Stoney Rd"}, {"id": "a5ccfdc3-051a-444c-b51b-0091d9a799e0", "name": "Northern Pine Brewing", "brewery_type": "micro", "address_1": "326 N Horne St", "address_2": null, "address_3": null, "city": "Oceanside", "state_province": "California", "postal_code": "92054-2810", "country": "United States", "longitude": "-117.376798", "latitude": "33.199836", "phone": "7607541434", "website_url": "http://www.northernpinebrewing.com", "state": "California", "street": "326 N Horne St"}, {"id": "cb19bf9b-71b5-444c-a8a5-00a4fadf1d7b", "name": "Northern Row Brewery & Distillery", "brewery_type": "micro", "address_1": "111 W McMicken Ave", "address_2": null, "address_3": null, "city": "Cincinnati", "state_province": "Ohio", "postal_code": "45202-4915", "country": "United States", "longitude": "-84.51924466", "latitude": "39.11836855", "phone": "5136736689", "website_url": "http://www.northernrow.com", "state": "Ohio", "street": "111 W McMicken Ave"}, {"id": "f82ff275-dad6-45be-ada4-0f572743461b", "name": "Northish Beer Company", "brewery_type": "micro", "address_1": null, "address_2": null, "address_3": null, "city": "Tacoma", "state_province": "Washington", "postal_code": "98444", "country": "United States", "longitude": null, "latitude": null, "phone": "2537786106", "website_url": null, "state": "Washington", "street": null}, {"id": "479157a8-7e68-4983-91a5-9b6b2a5ee470", "name": "Northshire Brewery, Inc", "brewery_type": "micro", "address_1": "108 County St", "address_2": null, "address_3": null, "city": "Bennington", "state_province": "Vermont", "postal_code": "05201-1807", "country": "United States", "longitude": "-73.20053877", "latitude": "42.88457164", "phone": "8026810201", "website_url": "http://www.northshirebrewery.com", "state": "Vermont", "street": "108 County St"}, {"id": "e19854be-9a28-4587-b055-90e13fcbd7fb", "name": "Northville Winery and Brewery", "brewery_type": "micro", "address_1": "630 Old Baseline Rd", "address_2": null, "address_3": null, "city": "Northville", "state_province": "Michigan", "postal_code": "48167", "country": "United States", "longitude": null, "latitude": null, "phone": "2483206507", "website_url": null, "state": "Michigan", "street": "630 Old Baseline Rd"}, {"id": "2be1334f-d077-4164-807b-33d967296185", "name": "Northwest Brewing Company", "brewery_type": "closed", "address_1": "1091 Valentine Ave SE", "address_2": null, "address_3": null, "city": "Pacific", "state_province": "Washington", "postal_code": "98047-2127", "country": "United States", "longitude": "-122.2488484", "latitude": "47.2501336", "phone": "2539875680", "website_url": "http://www.nwbrewingcompany.com", "state": "Washington", "street": "1091 Valentine Ave SE"}, {"id": "7da574f0-1e97-4f39-81a4-7737b440d445", "name": "Northwest Passage Craft Brewery", "brewery_type": "micro", "address_1": null, "address_2": null, "address_3": null, "city": "Vancouver", "state_province": "Washington", "postal_code": "98661", "country": "United States", "longitude": null, "latitude": null, "phone": "3605212417", "website_url": null, "state": "Washington", "street": null}, {"id": "d93d3629-6694-437e-89bd-dcc748c72316", "name": "Northwest Peaks Brewery", "brewery_type": "micro", "address_1": "5718 Rainier Ave S", "address_2": null, "address_3": null, "city": "Seattle", "state_province": "Washington", "postal_code": "98118-2704", "country": "United States", "longitude": "-122.2774364", "latitude": "47.55099169", "phone": "2067252337", "website_url": "http://www.nwpeaksbrewery.com", "state": "Washington", "street": "5718 Rainier Ave S"}, {"id": "fdad47c3-6aa5-48d5-902f-25cfadcb46ed", "name": "Northwood Public House & Brewery", "brewery_type": "brewpub", "address_1": "1401 SE Rasmussen Blvd", "address_2": null, "address_3": null, "city": "Battle Ground", "state_province": "Washington", "postal_code": "98604-8620", "country": "United States", "longitude": "-122.5232786", "latitude": "45.77521745", "phone": "3607230937", "website_url": "http://www.northwoodpublichouse.com", "state": "Washington", "street": "1401 SE Rasmussen Blvd"}, {"id": "762d6bfd-e2ba-469e-b3f5-05817d0a2d96", "name": "Northwoods Brewing Co", "brewery_type": "planning", "address_1": null, "address_2": null, "address_3": null, "city": "Northwood", "state_province": "New Hampshire", "postal_code": "03261", "country": "United States", "longitude": null, "latitude": null, "phone": "2073516983", "website_url": null, "state": "New Hampshire", "street": null}, {"id": "10e225f0-d48e-40c8-8d58-1393404ff7a2", "name": "Northwoods Brewpub and Grill", "brewery_type": "brewpub", "address_1": "50918 West Street", "address_2": null, "address_3": null, "city": "Osseo", "state_province": "Wisconsin", "postal_code": "54758", "country": "United States", "longitude": "-91.22665123", "latitude": "44.58270666", "phone": "7155520510", "website_url": "http://www.northwoodsbrewpub.com", "state": "Wisconsin", "street": "50918 West Street"}, {"id": "2486587b-e54e-48e4-842e-f35d9111767c", "name": "Nortons Brewing Co.", "brewery_type": "brewpub", "address_1": "125 N Saint Francis St", "address_2": null, "address_3": null, "city": "Wichita", "state_province": "Kansas", "postal_code": "67202-2607", "country": "United States", "longitude": "-97.331744", "latitude": "37.68657784", "phone": "3166446067", "website_url": "http://www.nortonsbrewing.com", "state": "Kansas", "street": "125 N Saint Francis St"}, {"id": "439343a8-59c1-4823-9bf6-ea0c831d9db5", "name": "Norway Brewing Company", "brewery_type": "brewpub", "address_1": "237 Main St", "address_2": null, "address_3": null, "city": "Norway", "state_province": "Maine", "postal_code": "04268-5913", "country": "United States", "longitude": "-70.5268344", "latitude": "44.1973621", "phone": "2077392126", "website_url": "http://www.norwaybrewing.com", "state": "Maine", "street": "237 Main St"}, {"id": "dab6bfc2-f4ba-4545-b06d-06d9d429f4d6", "name": "Nosdunk Brewing Company", "brewery_type": "closed", "address_1": null, "address_2": null, "address_3": null, "city": "Walla Walla", "state_province": "Washington", "postal_code": "99362-9311", "country": "United States", "longitude": null, "latitude": null, "phone": "5095408784", "website_url": "http://www.nosdunkbrewing.com", "state": "Washington", "street": null}, {"id": "b4be3337-2dfa-44af-affb-9f65903a61c8", "name": "Nostrum Brewing", "brewery_type": "planning", "address_1": null, "address_2": null, "address_3": null, "city": "Alexandria", "state_province": "Virginia", "postal_code": "22303-2214", "country": "United States", "longitude": null, "latitude": null, "phone": null, "website_url": null, "state": "Virginia", "street": null}, {"id": "cfaff05e-fab7-4530-b84e-bf10f5d439b7", "name": "Notch Brewing", "brewery_type": "micro", "address_1": "283R Derby St", "address_2": null, "address_3": null, "city": "Salem", "state_province": "Massachusetts", "postal_code": "01970-", "country": "United States", "longitude": "-70.8898969", "latitude": "42.52062541", "phone": "9782389060", "website_url": "http://www.notchbrewing.com", "state": "Massachusetts", "street": "283R Derby St"}, {"id": "d32244a7-1996-4dd3-b2b4-490dde9a5c39", "name": "Nothing's Left Brewing Co.", "brewery_type": "contract", "address_1": "1502 E 6th St", "address_2": null, "address_3": null, "city": "Tulsa", "state_province": "Oklahoma", "postal_code": "74120-4026", "country": "United States", "longitude": "-95.99253596", "latitude": "36.14047292", "phone": "9186061902", "website_url": "http://www.nothingsleftbrew.co", "state": "Oklahoma", "street": "1502 E 6th St"}, {"id": "db05a3a2-1c2e-4c9f-a5f2-c364db13586e", "name": "Nova Brewing Co", "brewery_type": "micro", "address_1": "1580 W San Bernardino Rd Ste H", "address_2": null, "address_3": null, "city": "Covina", "state_province": "California", "postal_code": "91722-3457", "country": "United States", "longitude": "-117.9230666", "latitude": "34.08867414", "phone": "6263889949", "website_url": "http://www.novabrewingco.com", "state": "California", "street": "1580 W San Bernardino Rd Ste H"}, {"id": "8343a7db-e614-456d-8e96-6ea87da3c942", "name": "Novel Brewing Company", "brewery_type": "micro", "address_1": "6510 San Pablo Ave", "address_2": null, "address_3": null, "city": "Oakland", "state_province": "California", "postal_code": "94608-1236", "country": "United States", "longitude": "-122.282003", "latitude": "37.837819", "phone": "5109229974", "website_url": "http://novelbrewing.com", "state": "California", "street": "6510 San Pablo Ave"}, {"id": "7a2b157a-7973-4e45-aacf-c3401a4cf6ac", "name": "Novel Strand Brewing", "brewery_type": "micro", "address_1": "305 W 1st Ave", "address_2": null, "address_3": null, "city": "Denver", "state_province": "Colorado", "postal_code": "80223-1509", "country": "United States", "longitude": "-104.9923182", "latitude": "39.718471", "phone": "5189613217", "website_url": null, "state": "Colorado", "street": "305 W 1st Ave"}, {"id": "6024f8b3-c827-42a8-9ad9-d58b79e1916c", "name": "Novo Brazil Brewing Company", "brewery_type": "micro", "address_1": "901 Lane Ave # 100", "address_2": null, "address_3": null, "city": "Chula Vista", "state_province": "California", "postal_code": "91914-3501", "country": "United States", "longitude": "-116.9613594", "latitude": "32.6518762", "phone": "6198694274", "website_url": "http://www.novobrazilbrewing.com", "state": "California", "street": "901 Lane Ave # 100"}, {"id": "44e8dfa5-7682-466d-9fcb-7ab1c42ca7bf", "name": "Nowhere In Particular Brewing Company", "brewery_type": "proprietor", "address_1": "6826 Loop Rd", "address_2": null, "address_3": null, "city": "Dayton", "state_province": "Ohio", "postal_code": "45459-2159", "country": "United States", "longitude": null, "latitude": null, "phone": "5133487282", "website_url": "http://www.nipbrewco.com", "state": "Ohio", "street": "6826 Loop Rd"}, {"id": "ff1c4781-8052-4cb7-bbc5-510de9df420a", "name": "Numbers Brewing Company", "brewery_type": "brewpub", "address_1": "127 N Beaver St", "address_2": null, "address_3": null, "city": "Lisbon", "state_province": "Ohio", "postal_code": "44432-1121", "country": "United States", "longitude": "-80.76970138", "latitude": "40.77253357", "phone": "3308705305", "website_url": null, "state": "Ohio", "street": "127 N Beaver St"}, {"id": "d519f6e4-88be-44b6-948e-ddbd4bf0966b", "name": "Nun Chuck's Brewing Co", "brewery_type": "micro", "address_1": "18609 76th Avenue West Suite #C", "address_2": null, "address_3": null, "city": "Lynnwood", "state_province": "Washington", "postal_code": "98037", "country": "United States", "longitude": "-122.3373596", "latitude": "47.82993093", "phone": "2066361105", "website_url": "https://nunchucksbrewing.com", "state": "Washington", "street": "18609 76th Avenue West Suite #C"}, {"id": "f9c62e1c-dd1a-4e87-b3b7-c70f941976b9", "name": "Nutmeg Brewhouse", "brewery_type": "brewpub", "address_1": "1905 County Road 42 W", "address_2": null, "address_3": null, "city": "Burnsville", "state_province": "Minnesota", "postal_code": "55306-6211", "country": "United States", "longitude": "-93.30547377", "latitude": "44.74636346", "phone": "9528921438", "website_url": "http://www.nutmegbrewhouse.com", "state": "Minnesota", "street": "1905 County Road 42 W"}, {"id": "370c64be-4eac-4b7b-b0d0-a40c69290320", "name": "Nuts and Bolts Brewing", "brewery_type": "micro", "address_1": "10 Westpoint Ln Bldg 10 Ste 204", "address_2": null, "address_3": null, "city": "Biddeford", "state_province": "Maine", "postal_code": "04005", "country": "United States", "longitude": null, "latitude": null, "phone": "2074681538", "website_url": "http://www.nutsnboltsbeer.com", "state": "Maine", "street": "10 Westpoint Ln Bldg 10 Ste 204"}, {"id": "7585139f-7a98-4552-862c-388de1fe1d59", "name": "O Brother Brewing", "brewery_type": "micro", "address_1": "G3", "address_2": "Network Enterprise Park", "address_3": null, "city": "Kilcool", "state_province": "Wicklow", "postal_code": "A63 DX47", "country": "Ireland", "longitude": "-6.0642913", "latitude": "53.0986762", "phone": "353872028465", "website_url": "https://www.obrotherbrewing.com/", "state": "Wicklow", "street": "G3"}, {"id": "5a27af9d-5a16-408e-b9c3-525ff59636c3", "name": "O.H.S.O. Brewery", "brewery_type": "brewpub", "address_1": "10810 N Tatum Blvd Ste 126", "address_2": null, "address_3": null, "city": "Phoenix", "state_province": "Arizona", "postal_code": "85028-6057", "country": "United States", "longitude": null, "latitude": null, "phone": "6029009003", "website_url": "http://www.ohsobrewery.com", "state": "Arizona", "street": "10810 N Tatum Blvd Ste 126"}, {"id": "9848a316-3ec6-415c-bca6-a6a8514decf6", "name": "O.H.S.O. Brewery - Gilbert", "brewery_type": "brewpub", "address_1": "335 N Gilbert Rd", "address_2": null, "address_3": null, "city": "Gilbert", "state_province": "Arizona", "postal_code": "85234-5766", "country": "United States", "longitude": "-111.7896117", "latitude": "33.3508552", "phone": "6029009004", "website_url": null, "state": "Arizona", "street": "335 N Gilbert Rd"}, {"id": "02affaa6-de24-4d80-ba61-889f9c5752d9", "name": "O.H.S.O. Eatery + NanoBrewery", "brewery_type": "brewpub", "address_1": "4900 E Indian School Rd", "address_2": null, "address_3": null, "city": "Phoenix", "state_province": "Arizona", "postal_code": "85018-5554", "country": "United States", "longitude": "-111.975831", "latitude": "33.49501715", "phone": "6029550358", "website_url": "http://www.ohsobrewery.com", "state": "Arizona", "street": "4900 E Indian School Rd"}, {"id": "4214d4f6-75da-4830-b0b5-c643f8ec76ac", "name": "O'Connor Brewing Co", "brewery_type": "micro", "address_1": "211 W 24th St", "address_2": null, "address_3": null, "city": "Norfolk", "state_province": "Virginia", "postal_code": "23517-1303", "country": "United States", "longitude": "-76.28625088", "latitude": "36.8697822", "phone": "7576520059", "website_url": "http://www.oconnorbrewing.com", "state": "Virginia", "street": "211 W 24th St"}, {"id": "201c624e-15c6-46ac-93ff-3ec93543d17e", "name": "O'Dempsey's Brewing Co", "brewery_type": "contract", "address_1": "205 Grosvenor Place, Nw", "address_2": null, "address_3": null, "city": "Atlanta", "state_province": "Georgia", "postal_code": "30328", "country": "United States", "longitude": null, "latitude": null, "phone": "4048450059", "website_url": "http://www.odempseys.com", "state": "Georgia", "street": "205 Grosvenor Place, Nw"}, {"id": "79ed4f4a-a470-42c2-af50-955633f757b7", "name": "O'Fallon Brewery", "brewery_type": "micro", "address_1": "45 Progress Pkwy", "address_2": null, "address_3": null, "city": "Maryland Heights", "state_province": "Missouri", "postal_code": "63043-3701", "country": "United States", "longitude": "-90.44580667", "latitude": "38.71250421", "phone": "6364742337", "website_url": "http://www.ofallonbrewery.com", "state": "Missouri", "street": "45 Progress Pkwy"}, {"id": "a4e0521d-ddd8-4991-9d19-456b3455ecd8", "name": "O'Griffs Grill & Brewhouse", "brewery_type": "brewpub", "address_1": "415 Hampshire St", "address_2": null, "address_3": null, "city": "Quincy", "state_province": "Illinois", "postal_code": "62301-2931", "country": "United States", "longitude": "-91.40876529", "latitude": "39.93330414", "phone": "2172242002", "website_url": null, "state": "Illinois", "street": "415 Hampshire St"}, {"id": "f7121060-48a5-4779-b6bd-57a1a7642c62", "name": "O'Meara Bros. Brewing Company", "brewery_type": "brewpub", "address_1": "901 Bevins St", "address_2": null, "address_3": null, "city": "Lakeport", "state_province": "California", "postal_code": "95453-8778", "country": "United States", "longitude": "-122.9245547", "latitude": "39.04005267", "phone": "7072621234", "website_url": "http://www.omearabros.com", "state": "California", "street": "901 Bevins St"}, {"id": "eabf7b18-6513-4c95-bfac-ef15d532a21a", "name": "O'Neil & Sons Brewing Company", "brewery_type": "micro", "address_1": "502 Half League Rd Unit A", "address_2": null, "address_3": null, "city": "Port Lavaca", "state_province": "Texas", "postal_code": "77979-", "country": "United States", "longitude": null, "latitude": null, "phone": "3616766023", "website_url": "http://www.oneilandsons.com/home", "state": "Texas", "street": "502 Half League Rd Unit A"}, {"id": "0464077b-c2c4-4bf1-b777-b26ec800b7ea", "name": "O'so Brewing", "brewery_type": "micro", "address_1": "3028 Village Park Dr", "address_2": null, "address_3": null, "city": "Plover", "state_province": "Wisconsin", "postal_code": "54467-4300", "country": "United States", "longitude": "-89.52343053", "latitude": "44.45340044", "phone": "7152542163", "website_url": "http://www.osobrewing.com", "state": "Wisconsin", "street": "3028 Village Park Dr"}, {"id": "47226f07-fbbd-4f97-88b9-e8a7a6e0f5a8", "name": "Oak & Iron Brewing Co", "brewery_type": "brewpub", "address_1": "18 Red Spring Rd", "address_2": null, "address_3": null, "city": "Andover", "state_province": "Massachusetts", "postal_code": "01810-3448", "country": "United States", "longitude": "-71.14788579", "latitude": "42.65614908", "phone": "9784754077", "website_url": "http://www.oakandironbrewing.com", "state": "Massachusetts", "street": "18 Red Spring Rd"}, {"id": "ce6318f1-dd45-402a-849d-43548e7b8e6a", "name": "Oak and Dagger Public House", "brewery_type": "brewpub", "address_1": "18 Seaboard Ave Ste 150", "address_2": null, "address_3": null, "city": "Raleigh", "state_province": "North Carolina", "postal_code": "27604-8010", "country": "United States", "longitude": null, "latitude": null, "phone": "9199459382", "website_url": "http://www.oakanddagger.beer", "state": "North Carolina", "street": "18 Seaboard Ave Ste 150"}, {"id": "e5b56c80-41a9-4101-aeec-ffb683617611", "name": "Oak Cliff Brewing Co", "brewery_type": "planning", "address_1": null, "address_2": null, "address_3": null, "city": "Dallas", "state_province": "Texas", "postal_code": "75224-1305", "country": "United States", "longitude": null, "latitude": null, "phone": null, "website_url": null, "state": "Texas", "street": null}, {"id": "9fd8f231-917e-4a85-9511-0c7eda622d18", "name": "Oak Creek Brewery & Grill", "brewery_type": "brewpub", "address_1": "336 State Route 179 Ste D201", "address_2": null, "address_3": null, "city": "Sedona", "state_province": "Arizona", "postal_code": "86336-6183", "country": "United States", "longitude": null, "latitude": null, "phone": "9282823300", "website_url": null, "state": "Arizona", "street": "336 State Route 179 Ste D201"}, {"id": "1e6a90d9-5819-4bf8-90b9-5099daa6f16f", "name": "Oak Creek Brewing Co", "brewery_type": "brewpub", "address_1": "2050 Yavapai Dr Ste 2C", "address_2": null, "address_3": null, "city": "Sedona", "state_province": "Arizona", "postal_code": "86336-4559", "country": "United States", "longitude": null, "latitude": null, "phone": "9282039441", "website_url": "http://www.oakcreekbrew.com", "state": "Arizona", "street": "2050 Yavapai Dr Ste 2C"}, {"id": "8b3d8e4c-661d-446b-bc66-b1b738feca80", "name": "Oak Grove Brewing Company", "brewery_type": "planning", "address_1": null, "address_2": null, "address_3": null, "city": "Glendale", "state_province": "California", "postal_code": "91208-1836", "country": "United States", "longitude": "-118.2462486", "latitude": "34.192912", "phone": "8183199577", "website_url": "http://Www.oakgrovebrewingcompany.com", "state": "California", "street": null}, {"id": "7f1f3bd0-82cd-46a7-99b0-0fded816d380", "name": "Oak Highlands Brewery", "brewery_type": "micro", "address_1": "10484 Brockwood Rd", "address_2": null, "address_3": null, "city": "Dallas", "state_province": "Texas", "postal_code": "75238-1640", "country": "United States", "longitude": null, "latitude": null, "phone": "4698029455", "website_url": "http://www.ohbrewery.com", "state": "Texas", "street": "10484 Brockwood Rd"}, {"id": "782d72e8-ff4a-449e-a2c0-76a5d4ae3903", "name": "Oak Hills Brewing", "brewery_type": "micro", "address_1": "12221 Poplar St Ste 3", "address_2": null, "address_3": null, "city": "Hesperia", "state_province": "California", "postal_code": "92344-9287", "country": "United States", "longitude": "-117.3969876", "latitude": "34.4156358", "phone": "7602448278", "website_url": "http://www.oakhillsbrewing.com", "state": "California", "street": "12221 Poplar St Ste 3"}, {"id": "4922f203-3290-4063-a879-0009376395bc", "name": "Oak Park Brewing Co", "brewery_type": "brewpub", "address_1": "3514 Broadway", "address_2": null, "address_3": null, "city": "Sacramento", "state_province": "California", "postal_code": "95817-2825", "country": "United States", "longitude": "-121.4681046", "latitude": "38.55062715", "phone": "9166602723", "website_url": "http://www.opbrewco.com", "state": "California", "street": "3514 Broadway"}, {"id": "63c296f9-29e3-4b2e-9f52-2064578114ee", "name": "Oak Park Brewing Company", "brewery_type": "brewpub", "address_1": "155 S Oak Park Ave", "address_2": null, "address_3": null, "city": "Oak Park", "state_province": "Illinois", "postal_code": "60302-2901", "country": "United States", "longitude": "-87.79456064", "latitude": "41.886465", "phone": "8475425523", "website_url": "http://www.oakparkbeer.com", "state": "Illinois", "street": "155 S Oak Park Ave"}, {"id": "36159780-2e66-42c6-92ca-54b98c9d9b56", "name": "Oak Pond Brewing Co", "brewery_type": "micro", "address_1": "101 Oak Pond Rd", "address_2": null, "address_3": null, "city": "Skowhegan", "state_province": "Maine", "postal_code": "04976-4602", "country": "United States", "longitude": null, "latitude": null, "phone": "2074743233", "website_url": "http://www.oakpondbrewery.com", "state": "Maine", "street": "101 Oak Pond Rd"}, {"id": "b4089ac0-ba23-40c3-91c5-7d7f3f2aec1d", "name": "Oak Road Brewery", "brewery_type": "micro", "address_1": "108 E 3rd North St Ste C", "address_2": null, "address_3": null, "city": "Summerville", "state_province": "South Carolina", "postal_code": "29483-6810", "country": "United States", "longitude": null, "latitude": null, "phone": "8436959886", "website_url": "http://www.oakroadbrewery.com", "state": "South Carolina", "street": "108 E 3rd North St Ste C"}, {"id": "f7977b5d-4e21-4f63-aede-1c5ca36e519a", "name": "Oakbrook Brewing Company", "brewery_type": "brewpub", "address_1": "628 Park Ave", "address_2": null, "address_3": null, "city": "Reading", "state_province": "Pennsylvania", "postal_code": "19611-1926", "country": "United States", "longitude": "-75.93478919", "latitude": "40.31684944", "phone": "4847555289", "website_url": "http://www.oakbrookbrew.com", "state": "Pennsylvania", "street": "628 Park Ave"}, {"id": "024ae123-c899-413e-8964-801b01d74d6e", "name": "Oaken Barrel Brewing Co", "brewery_type": "brewpub", "address_1": "50 Airport Pkwy Ste L", "address_2": null, "address_3": null, "city": "Greenwood", "state_province": "Indiana", "postal_code": "46143-1438", "country": "United States", "longitude": null, "latitude": null, "phone": "3178872287", "website_url": "http://www.oakenbarrel.com", "state": "Indiana", "street": "50 Airport Pkwy Ste L"}, {"id": "4d8ee740-1b56-49f1-bb3f-ba452fc28401", "name": "Oakenbrau", "brewery_type": "planning", "address_1": null, "address_2": null, "address_3": null, "city": "Milwaukie", "state_province": "Oregon", "postal_code": "97267-3838", "country": "United States", "longitude": null, "latitude": null, "phone": "9715063126", "website_url": "http://www.oakenbrau.com", "state": "Oregon", "street": null}, {"id": "d57fb73d-3582-4f8d-8b86-8daea30c36f2", "name": "Oakland United Beerworks", "brewery_type": "micro", "address_1": "3775 Alameda Ave Ste G", "address_2": null, "address_3": null, "city": "Oakland", "state_province": "California", "postal_code": "94601-3920", "country": "United States", "longitude": "-122.2720141", "latitude": "37.79470818", "phone": "5102518898", "website_url": "http://www.oaklandunitedbeerworks.com", "state": "California", "street": "3775 Alameda Ave Ste G"}, {"id": "25beda23-8920-4a0a-a7a7-fd8b972ac1cd", "name": "Oaklyn Springs Brewery", "brewery_type": "planning", "address_1": null, "address_2": null, "address_3": null, "city": "Fuquay Varina", "state_province": "North Carolina", "postal_code": "27526-5499", "country": "United States", "longitude": null, "latitude": null, "phone": "9192800046", "website_url": "http://www.oaklynspringsbrewery.com", "state": "North Carolina", "street": null}, {"id": "ffd62db7-780c-4b0d-9f42-812ddefb2305", "name": "Oakshire Brewing", "brewery_type": "micro", "address_1": "1055 Madera St", "address_2": null, "address_3": null, "city": "Eugene", "state_province": "Oregon", "postal_code": "97402-2019", "country": "United States", "longitude": "-123.1410241", "latitude": "44.07299355", "phone": "5416884555", "website_url": "http://www.oakbrew.com", "state": "Oregon", "street": "1055 Madera St"}, {"id": "11e18963-8156-4941-b7e6-457b01b6d19f", "name": "Oasis Brewery", "brewery_type": "micro", "address_1": "3257 N Lowell Blvd", "address_2": null, "address_3": null, "city": "Denver", "state_province": "Colorado", "postal_code": "80211", "country": "United States", "longitude": null, "latitude": null, "phone": "3033174369", "website_url": "http://www.oasisbeer.com", "state": "Colorado", "street": "3257 N Lowell Blvd"}, {"id": "5398673e-abb7-4855-ab70-276b95e0147f", "name": "Oasis Texas Brewing Company", "brewery_type": "micro", "address_1": "6548 Comanche Trl Ste 301", "address_2": null, "address_3": null, "city": "Austin", "state_province": "Texas", "postal_code": "78732-1210", "country": "United States", "longitude": "-98.151206", "latitude": "30.043267", "phone": "5122849407", "website_url": "http://www.otxbc.com", "state": "Texas", "street": "6548 Comanche Trl Ste 301"}, {"id": "58bc0ff5-5ada-4b37-a5c0-325746773116", "name": "Oban Bay", "brewery_type": "micro", "address_1": "60 George Street", "address_2": null, "address_3": null, "city": "Oban", "state_province": "Argyll", "postal_code": "PA34 5SD", "country": "Scotland", "longitude": "-5.4725942", "latitude": "56.4146637", "phone": "1631564492", "website_url": "http://obanbaybrewery.co.uk/", "state": "Argyll", "street": "60 George Street"}, {"id": "3d4c07b2-bb81-4da0-b01c-3dbb529792ff", "name": "Obec Brewing", "brewery_type": "micro", "address_1": "1144 NW 52nd St", "address_2": null, "address_3": null, "city": "Seattle", "state_province": "Washington", "postal_code": "98107-5129", "country": "United States", "longitude": "-122.3725178", "latitude": "47.6666586", "phone": "2066590082", "website_url": "http://www.obecbrewing.com", "state": "Washington", "street": "1144 NW 52nd St"}, {"id": "29534279-4d68-4740-98b0-c02948f24fcc", "name": "Obed & Isaac's", "brewery_type": "micro", "address_1": "500 S 6th St", "address_2": null, "address_3": null, "city": "Springfield", "state_province": "Illinois", "postal_code": "62701-1810", "country": "United States", "longitude": "-89.647885", "latitude": "39.797079", "phone": "2176700627", "website_url": "http://www.connhospitalitygroup.com", "state": "Illinois", "street": "500 S 6th St"}, {"id": "10b8d072-1ccc-45ab-93e4-08cfd8134d67", "name": "Obed & Isaac's Microbrewery and Eatery - Peoria", "brewery_type": "brewpub", "address_1": "321 NE Madison Ave", "address_2": null, "address_3": null, "city": "Peoria", "state_province": "Illinois", "postal_code": "61603", "country": "United States", "longitude": "-89.58865914", "latitude": "40.69577241", "phone": "3093060190", "website_url": null, "state": "Illinois", "street": "321 NE Madison Ave"}, {"id": "59312c81-d887-4e24-a35b-a9d04075d490", "name": "Ober Brewing, LLC.", "brewery_type": "micro", "address_1": "1443 Lakeside Cir", "address_2": null, "address_3": null, "city": "Salem", "state_province": "Virginia", "postal_code": "24153-4144", "country": "United States", "longitude": "-80.03027545", "latitude": "37.30474414", "phone": "5403925418", "website_url": "http://www.oberbrewing.com", "state": "Virginia", "street": "1443 Lakeside Cir"}, {"id": "d24860e3-dfb2-4a38-b861-8a472326e7ac", "name": "Oblivion Brewing Co", "brewery_type": "micro", "address_1": "63027 Plateau Dr Ste 4", "address_2": null, "address_3": null, "city": "Bend", "state_province": "Oregon", "postal_code": "97701-3855", "country": "United States", "longitude": "-121.2933829", "latitude": "44.08881821", "phone": "5417283509", "website_url": "http://www.oblivionbrewingco.com", "state": "Oregon", "street": "63027 Plateau Dr Ste 4"}, {"id": "1f49e95a-580d-4f3c-896d-d1ad0e3691e1", "name": "Obscurity", "brewery_type": "planning", "address_1": null, "address_2": null, "address_3": null, "city": "Elburn", "state_province": "Illinois", "postal_code": "60119-7012", "country": "United States", "longitude": null, "latitude": null, "phone": null, "website_url": "http://www.drinkobscurity.com", "state": "Illinois", "street": null}, {"id": "c1385831-5303-4caf-bd9f-1ecd253e6936", "name": "Occidental Brewing", "brewery_type": "brewpub", "address_1": "865 S Rock Blvd", "address_2": null, "address_3": null, "city": "Sparks", "state_province": "Nevada", "postal_code": "89431", "country": "United States", "longitude": "-119.7600161", "latitude": "39.50114854", "phone": "7753984200", "website_url": null, "state": "Nevada", "street": "865 S Rock Blvd"}, {"id": "7277f89e-0dc3-45a8-b943-a1decdf91a9e", "name": "Occidental Brewing", "brewery_type": "micro", "address_1": "6635 N Baltimore Ave Ste 100", "address_2": null, "address_3": null, "city": "Portland", "state_province": "Oregon", "postal_code": "97203-5465", "country": "United States", "longitude": "-122.760861", "latitude": "45.588728", "phone": "5037197102", "website_url": "http://www.occidentalbrewing.com", "state": "Oregon", "street": "6635 N Baltimore Ave Ste 100"}, {"id": "11f1fe94-506f-4117-b2b7-47346d9f094d", "name": "Ocean Beach Brewery", "brewery_type": "brewpub", "address_1": "5041 Newport Ave", "address_2": null, "address_3": null, "city": "San Diego", "state_province": "California", "postal_code": "92107-3009", "country": "United States", "longitude": "-117.252024", "latitude": "32.747109", "phone": "6199558053", "website_url": null, "state": "California", "street": "5041 Newport Ave"}, {"id": "9d9fecf0-04a2-4fdb-bb1f-3d50e8a79427", "name": "Ocean City Brewing Company", "brewery_type": "brewpub", "address_1": "5509 Coastal Hwy", "address_2": null, "address_3": null, "city": "Ocean City", "state_province": "Maryland", "postal_code": "21842-3144", "country": "United States", "longitude": "-75.06838761", "latitude": "38.37965759", "phone": "4436646842", "website_url": "http://www.ocbrewingcompany.com", "state": "Maryland", "street": "5509 Coastal Hwy"}, {"id": "872b17f6-785d-4116-93af-a1144865ed17", "name": "Ocean Sun Brewing", "brewery_type": "micro", "address_1": "3030 Curry Ford Road", "address_2": null, "address_3": null, "city": "Orlando", "state_province": "Florida", "postal_code": "32806-3376", "country": "United States", "longitude": "-81.3249533", "latitude": "28.5243367", "phone": "4077455551", "website_url": null, "state": "Florida", "street": "3030 Curry Ford Road"}, {"id": "b891398a-d135-40b8-a824-58dcaa31048d", "name": "Ocean View Community Brewing Co.", "brewery_type": "planning", "address_1": null, "address_2": null, "address_3": null, "city": "Norfolk", "state_province": "Virginia", "postal_code": "23503-4838", "country": "United States", "longitude": null, "latitude": null, "phone": "7576514170", "website_url": null, "state": "Virginia", "street": null}, {"id": "673bb920-1816-468a-a4dc-1d869a7adb69", "name": "Oceanside Ale Works", "brewery_type": "micro", "address_1": "1800 Ord Way", "address_2": null, "address_3": null, "city": "Oceanside", "state_province": "California", "postal_code": "92056-1502", "country": "United States", "longitude": "-117.2727432", "latitude": "33.21200937", "phone": "7607214253", "website_url": "http://www.oceansidealeworks.net", "state": "California", "street": "1800 Ord Way"}, {"id": "64f90c02-c3f8-4dec-a7c1-ea176b161d88", "name": "Oceanside Brewing Company", "brewery_type": "micro", "address_1": "312 Via Del Norte", "address_2": null, "address_3": null, "city": "Oceanside", "state_province": "California", "postal_code": "92058-1232", "country": "United States", "longitude": "-117.3529573", "latitude": "33.21369735", "phone": "7604537900", "website_url": "http://www.oceansidebrewingco.com", "state": "California", "street": "312 Via Del Norte"}, {"id": "197b6b80-0643-419f-a39e-6b70b0113f40", "name": "Ocelot Brewing Co", "brewery_type": "micro", "address_1": "23600 Overland Dr Ste 180", "address_2": null, "address_3": null, "city": "Dulles", "state_province": "Virginia", "postal_code": "20166-4441", "country": "United States", "longitude": null, "latitude": null, "phone": "7036652146", "website_url": "http://www.ocelotbrewing.com", "state": "Virginia", "street": "23600 Overland Dr Ste 180"}, {"id": "74626ac8-014e-43ff-948d-32bea22ed086", "name": "Ochoco Brewing Co", "brewery_type": "micro", "address_1": "380 N Main St", "address_2": null, "address_3": null, "city": "Prineville", "state_province": "Oregon", "postal_code": "97754-1852", "country": "United States", "longitude": "-120.8469675", "latitude": "44.30359041", "phone": "5412330883", "website_url": "http://www.ochocobrewing.com", "state": "Oregon", "street": "380 N Main St"}, {"id": "7028c787-cdf8-4eea-8d31-a7481eacd912", "name": "Ocmulgee Brewpub", "brewery_type": "brewpub", "address_1": "484 2nd St", "address_2": null, "address_3": null, "city": "Macon", "state_province": "Georgia", "postal_code": "31201-2734", "country": "United States", "longitude": "-83.62932833", "latitude": "32.8360763", "phone": "4782542848", "website_url": "http://www.ocmulgeebrewpub.com", "state": "Georgia", "street": "484 2nd St"}, {"id": "93d43473-5c16-454b-ba92-4586a4e22abc", "name": "Oconee Brewing Company", "brewery_type": "micro", "address_1": "202 N West St", "address_2": null, "address_3": null, "city": "Greensboro", "state_province": "Georgia", "postal_code": "30642-1124", "country": "United States", "longitude": null, "latitude": null, "phone": "7069201177", "website_url": "http://www.oconeebrewingco.com", "state": "Georgia", "street": "202 N West St"}]