[{"id": "6e967aa2-6e2b-4396-ac4e-d4cd8119cbb3", "name": "Bull Durham Beer Co", "brewery_type": "micro", "address_1": "409 Blackwell St", "address_2": null, "address_3": null, "city": "Durham", "state_province": "North Carolina", "postal_code": "27701-3972", "country": "United States", "longitude": "-78.90481568", "latitude": "35.9915653", "phone": "9197443568", "website_url": "http://www.bulldurhambeer.com", "state": "North Carolina", "street": "409 Blackwell St"}, {"id": "553af7a3-d288-43f0-b635-aee72520cf49", "name": "Bull Falls Brewery LLC", "brewery_type": "micro", "address_1": "901 E Thomas St", "address_2": null, "address_3": null, "city": "Wausau", "state_province": "Wisconsin", "postal_code": "54403-6450", "country": "United States", "longitude": "-89.6174386", "latitude": "44.951511", "phone": "715842", "website_url": "http://www.bullfallsbrewery.com", "state": "Wisconsin", "street": "901 E Thomas St"}, {"id": "1f031549-a4ca-4e92-99ff-f1f75118edd0", "name": "Bull Island Brewing Company", "brewery_type": "brewpub", "address_1": "758 Settlers Landing Rd", "address_2": null, "address_3": null, "city": "Hampton", "state_province": "Virginia", "postal_code": "23669-4035", "country": "United States", "longitude": "-76.34206545", "latitude": "37.02487345", "phone": "7577889489", "website_url": "http://www.bullislandbrewing.com", "state": "Virginia", "street": "758 Settlers Landing Rd"}, {"id": "4ce7444f-655c-4a51-9dc6-47406b1896ca", "name": "Bulldog Brewing", "brewery_type": "brewpub", "address_1": "1409 119th St", "address_2": null, "address_3": null, "city": "Whiting", "state_province": "Indiana", "postal_code": "46394-1714", "country": "United States", "longitude": "-87.4951351", "latitude": "41.679491", "phone": "2196555284", "website_url": "http://www.bulldogbrewingco.com", "state": "Indiana", "street": "1409 119th St"}, {"id": "b495c351-4df5-430d-9776-fc48d062b311", "name": "Bullfrog Brewery", "brewery_type": "brewpub", "address_1": "229 W 4th St", "address_2": null, "address_3": null, "city": "Williamsport", "state_province": "Pennsylvania", "postal_code": "17701-6112", "country": "United States", "longitude": "-77.051529", "latitude": "41.2399548", "phone": "5703264700", "website_url": "http://www.bullfrogbrewery.com", "state": "Pennsylvania", "street": "229 W 4th St"}, {"id": "eb1f4dd4-a8f7-44ea-8bbe-958893a45b22", "name": "Bullfrog Brewery - Production Only", "brewery_type": "micro", "address_1": "229 W 4th St", "address_2": null, "address_3": null, "city": "Williamsport", "state_province": "Pennsylvania", "postal_code": "17701-6112", "country": "United States", "longitude": "-77.051529", "latitude": "41.2399548", "phone": "5703264700", "website_url": null, "state": "Pennsylvania", "street": "229 W 4th St"}, {"id": "5aeae53c-94dd-42aa-9bf0-bbd23df9b767", "name": "Bullfrog Creek Brewing Company", "brewery_type": "micro", "address_1": "3632 Lithia Pinecrest Rd", "address_2": null, "address_3": null, "city": "Valrico", "state_province": "Florida", "postal_code": "33596-6305", "country": "United States", "longitude": "-82.2695872", "latitude": "27.9229731", "phone": "8137038835", "website_url": "http://www.bullfrogcreekbrewing.com", "state": "Florida", "street": "3632 Lithia Pinecrest Rd"}, {"id": "68e24159-8a63-4f9e-9230-4fb8f629668a", "name": "Bullquarian Brewhouse, LLC", "brewery_type": "brewpub", "address_1": "1128 17th Ave", "address_2": null, "address_3": null, "city": "Monroe", "state_province": "Wisconsin", "postal_code": "53566-2007", "country": "United States", "longitude": "-89.6383093", "latitude": "42.60032375", "phone": "6084266720", "website_url": null, "state": "Wisconsin", "street": "1128 17th Ave"}, {"id": "140ab37b-0136-42c2-99f6-f8b4c2c48b59", "name": "Bullthistle Brewing Co.", "brewery_type": "brewpub", "address_1": "45 S Main St", "address_2": null, "address_3": null, "city": "Sherburne", "state_province": "New York", "postal_code": "13460-9202", "country": "United States", "longitude": "-75.49576861", "latitude": "42.67156527", "phone": "6076742337", "website_url": null, "state": "New York", "street": "45 S Main St"}, {"id": "7669b9ef-f467-4bc6-a8c2-95be8ed156a9", "name": "Bunker Brewing Co", "brewery_type": "micro", "address_1": "17 Westfield St Unit D", "address_2": null, "address_3": null, "city": "Portland", "state_province": "Maine", "postal_code": "04102-2730", "country": "United States", "longitude": null, "latitude": null, "phone": "2074505014", "website_url": "http://www.bunkerbrewingco.com", "state": "Maine", "street": "17 Westfield St Unit D"}, {"id": "3cb1a817-c050-4afc-af5e-40d83e9e2e84", "name": "Bunsenbrewer", "brewery_type": "brewpub", "address_1": "16506 362nd Dr", "address_2": null, "address_3": null, "city": "Sandy", "state_province": "Oregon", "postal_code": "97055-9279", "country": "United States", "longitude": "-122.2904067", "latitude": "45.4042245", "phone": "5033083150", "website_url": "http://www.bunsenbrewer.com", "state": "Oregon", "street": "16506 362nd Dr"}, {"id": "604378f2-9c18-4ac2-bd4b-206f4423d9ea", "name": "Cane River Brewing Co., L.L.C", "brewery_type": "planning", "address_1": null, "address_2": null, "address_3": null, "city": "Natchitoches", "state_province": "Louisiana", "postal_code": "71457", "country": "United States", "longitude": null, "latitude": null, "phone": "3184719115", "website_url": "http://www.caneriverbrewing.com", "state": "Louisiana", "street": null}, {"id": "fdec8f24-19f5-4415-b7a0-b029db48735f", "name": "Buon Appetito Ristorante", "brewery_type": "brewpub", "address_1": "6147 York Rd", "address_2": null, "address_3": null, "city": "Spring Grove", "state_province": "Pennsylvania", "postal_code": "17362-9120", "country": "United States", "longitude": null, "latitude": null, "phone": "7172250666", "website_url": "http://www.buon-appetito-ristorante.com", "state": "Pennsylvania", "street": "6147 York Rd"}, {"id": "43cc17d8-347f-4d72-9a2c-fdc75e562b77", "name": "Buoy Beer Company", "brewery_type": "micro", "address_1": "1 8th St", "address_2": null, "address_3": null, "city": "Astoria", "state_province": "Oregon", "postal_code": "97103-4506", "country": "United States", "longitude": "-123.835151", "latitude": "46.1913235", "phone": "5033254540", "website_url": "http://www.buoybeer.com", "state": "Oregon", "street": "1 8th St"}, {"id": "e08ccb72-2e87-42f2-92d8-e5987c724b02", "name": "Bur Oak Brewing Company", "brewery_type": "micro", "address_1": "8250 E Trade Center Dr", "address_2": null, "address_3": null, "city": "Columbia", "state_province": "Missouri", "postal_code": "65201-7635", "country": "United States", "longitude": "-92.210993", "latitude": "38.954686", "phone": "5738142178", "website_url": "http://www.buroakbeer.com", "state": "Missouri", "street": "8250 E Trade Center Dr"}, {"id": "b340b266-417c-42f7-8344-1545ced2ee6c", "name": "Burdick Brewery", "brewery_type": "closed", "address_1": "8520 14th Ave S", "address_2": null, "address_3": null, "city": "Seattle", "state_province": "Washington", "postal_code": "98108-4803", "country": "United States", "longitude": "-122.3145617", "latitude": "47.5267286", "phone": "2069099632", "website_url": "http://www.burdickbrewery.com", "state": "Washington", "street": "8520 14th Ave S"}, {"id": "89440fb9-0739-4f65-adc1-591bf30c62ff", "name": "Burgeon Beer Company", "brewery_type": "micro", "address_1": "6350 Yarrow Dr Ste C", "address_2": null, "address_3": null, "city": "Carlsbad", "state_province": "California", "postal_code": "92011-1544", "country": "United States", "longitude": "-117.2732302", "latitude": "33.11992082", "phone": "7608142548", "website_url": "http://www.burgeonbeer.com", "state": "California", "street": "6350 Yarrow Dr Ste C"}, {"id": "358b70d1-d86d-4001-9a3f-2acf644cc88b", "name": "Burgh\u00e2\u0080\u0099ers Brewing", "brewery_type": "micro", "address_1": "22410 Perry Hwy Ste 410E", "address_2": null, "address_3": null, "city": "Zelienople", "state_province": "Pennsylvania", "postal_code": "16063-2935", "country": "United States", "longitude": null, "latitude": null, "phone": "4129739628", "website_url": "http://Burgherspgh.com", "state": "Pennsylvania", "street": "22410 Perry Hwy Ste 410E"}, {"id": "7bdc2c91-ce80-4fb3-b2a2-bb9f7c8ab5bf", "name": "Burgundian Brewing Co.", "brewery_type": "micro", "address_1": "4725 Lipan St", "address_2": null, "address_3": null, "city": "Denver", "state_province": "Colorado", "postal_code": "80211-2334", "country": "United States", "longitude": "-105.0024095", "latitude": "39.7825168", "phone": "4704400420", "website_url": "http://www.facebook.com/BurgundianBrewing", "state": "Colorado", "street": "4725 Lipan St"}, {"id": "b571a872-4317-48e2-a0a2-18607eedb6e7", "name": "Burial Beer Co", "brewery_type": "micro", "address_1": "40 Collier Ave", "address_2": null, "address_3": null, "city": "Asheville", "state_province": "North Carolina", "postal_code": "28801-4024", "country": "United States", "longitude": "-82.55379062", "latitude": "35.5879562", "phone": null, "website_url": "http://www.burialbeer.com", "state": "North Carolina", "street": "40 Collier Ave"}, {"id": "854f374d-ad3e-4b8a-b1e5-b780eba1918a", "name": "Burial Beer Co Forestry Camp", "brewery_type": "micro", "address_1": null, "address_2": null, "address_3": null, "city": "Asheville", "state_province": "North Carolina", "postal_code": "28803-2719", "country": "United States", "longitude": null, "latitude": null, "phone": null, "website_url": null, "state": "North Carolina", "street": null}, {"id": "7a574a98-f92d-4d8e-9cdb-20a3facda0a0", "name": "Buried Acorn Brewing Company", "brewery_type": "planning", "address_1": null, "address_2": null, "address_3": null, "city": "Syracuse", "state_province": "New York", "postal_code": "13204-1156", "country": "United States", "longitude": null, "latitude": null, "phone": "3155521499", "website_url": "http://www.buriedacorn.com", "state": "New York", "street": null}, {"id": "a743ab27-0175-4ef3-b65f-1d5e67af200a", "name": "Burke-Gilman Brewing", "brewery_type": "micro", "address_1": "3626 NE 45th St Ste 102", "address_2": null, "address_3": null, "city": "Seattle", "state_province": "Washington", "postal_code": "98105-5652", "country": "United States", "longitude": "-122.2880715", "latitude": "47.66183205", "phone": "2062680220", "website_url": "http://www.burkegilmanbrewing.com/", "state": "Washington", "street": "3626 NE 45th St Ste 102"}, {"id": "e098a1d2-6efb-4aff-854f-4013ba2b9e57", "name": "Burke's Alewerks", "brewery_type": "micro", "address_1": "200 Webster St Ste 3", "address_2": null, "address_3": null, "city": "Hanover", "state_province": "Massachusetts", "postal_code": "02339-1230", "country": "United States", "longitude": null, "latitude": null, "phone": "7813128207", "website_url": "http://www.burkesalewerks.com", "state": "Massachusetts", "street": "200 Webster St Ste 3"}, {"id": "90e8f363-3b72-4ca9-bef8-b3a2ab6008df", "name": "Burley Oak Craft Brewery", "brewery_type": "micro", "address_1": "10016 Old Ocean City Blvd", "address_2": null, "address_3": null, "city": "Berlin", "state_province": "Maryland", "postal_code": "21811-1145", "country": "United States", "longitude": "-75.2169864", "latitude": "38.3336448", "phone": "4104228887", "website_url": "http://www.burleyoak.com", "state": "Maryland", "street": "10016 Old Ocean City Blvd"}, {"id": "bc2ab74e-761e-45de-91ae-00deb4e0dd9b", "name": "Burlington Beer Company", "brewery_type": "micro", "address_1": "25 Omega Dr Ste 150", "address_2": null, "address_3": null, "city": "Williston", "state_province": "Vermont", "postal_code": "05495-7334", "country": "United States", "longitude": null, "latitude": null, "phone": "8028632337", "website_url": "http://www.burlingtonbeercompany.com", "state": "Vermont", "street": "25 Omega Dr Ste 150"}, {"id": "793cbd77-2732-4885-b54b-4731b9cb226c", "name": "Burly Brewing Company, LLC", "brewery_type": "micro", "address_1": "680 Atchison Way Ste 700-800", "address_2": null, "address_3": null, "city": "Castle Rock", "state_province": "Colorado", "postal_code": "80109-3106", "country": "United States", "longitude": null, "latitude": null, "phone": null, "website_url": "http://www.burlybrewing.com", "state": "Colorado", "street": "680 Atchison Way Ste 700-800"}, {"id": "c0c4af99-eb53-4114-b976-de76d111596f", "name": "Burn'Em Brewing", "brewery_type": "brewpub", "address_1": "718 Freyer Rd", "address_2": null, "address_3": null, "city": "Michigan City", "state_province": "Indiana", "postal_code": "46360-1911", "country": "United States", "longitude": "-86.82979191", "latitude": "41.73849717", "phone": "2193938606", "website_url": "http://www.burnembrewing.com", "state": "Indiana", "street": "718 Freyer Rd"}, {"id": "d6ca5aa0-a5de-454f-8cf6-66b68310f73f", "name": "Burnin Daylight Brewing Company", "brewery_type": "planning", "address_1": null, "address_2": null, "address_3": null, "city": "Lomita", "state_province": "California", "postal_code": "90717", "country": "United States", "longitude": "-118.3195014", "latitude": "33.8036545", "phone": "3107417621", "website_url": null, "state": "California", "street": null}, {"id": "af0aba6a-a22a-43eb-8f5c-3097f38f156f", "name": "Burning Beard Brewing", "brewery_type": "micro", "address_1": "785 Vernon Way", "address_2": null, "address_3": null, "city": "El Cajon", "state_province": "California", "postal_code": "92020-1938", "country": "United States", "longitude": "-116.9717836", "latitude": "32.81201287", "phone": "6194569185", "website_url": "http://www.burningbeardbrewing.com", "state": "California", "street": "785 Vernon Way"}, {"id": "80003377-c4c9-4ab6-83e2-11046a1a287a", "name": "Burning Brothers Brewing", "brewery_type": "micro", "address_1": "1750 Thomas Ave Ste 2", "address_2": null, "address_3": null, "city": "Saint Paul", "state_province": "Minnesota", "postal_code": "55104-2918", "country": "United States", "longitude": null, "latitude": null, "phone": "6514448882", "website_url": "http://burnbrosbrew.com", "state": "Minnesota", "street": "1750 Thomas Ave Ste 2"}, {"id": "46cf9ab8-ae15-4f2f-9ad6-50b200e8ba94", "name": "Burning Bush Brewery", "brewery_type": "planning", "address_1": null, "address_2": null, "address_3": null, "city": "Wilmette", "state_province": "Illinois", "postal_code": "60091-2703", "country": "United States", "longitude": null, "latitude": null, "phone": null, "website_url": null, "state": "Illinois", "street": null}, {"id": "1b59fbb0-0fd2-4daa-9041-5799da9320db", "name": "Burning Sky Brewery Ltd", "brewery_type": "micro", "address_1": "Place Barn", "address_2": null, "address_3": null, "city": "Lewes", "state_province": "East Sussex", "postal_code": "BN8 6LP", "country": "England", "longitude": "0.087961", "latitude": "50.844723", "phone": "1273858080", "website_url": "https://www.burningskybeer.com/", "state": "East Sussex", "street": "Place Barn"}, {"id": "8475bb73-3d83-4191-9b9f-ecd918b1ec0f", "name": "Burns Family Artisan Ales", "brewery_type": "planning", "address_1": null, "address_2": null, "address_3": null, "city": "Denver", "state_province": "Colorado", "postal_code": "80219-1655", "country": "United States", "longitude": null, "latitude": null, "phone": "2482242697", "website_url": null, "state": "Colorado", "street": null}, {"id": "94570768-e3ca-4d69-a292-35dea27a24c9", "name": "Burnside Brewing Co", "brewery_type": "micro", "address_1": "701 E Burnside St", "address_2": null, "address_3": null, "city": "Portland", "state_province": "Oregon", "postal_code": "97214-1218", "country": "United States", "longitude": "-122.6584695", "latitude": "45.5233261", "phone": "5032083476", "website_url": "http://www.burnsidebrewco.com", "state": "Oregon", "street": "701 E Burnside St"}, {"id": "a4aa30b0-6073-4a0b-b9ca-c8669fa9f816", "name": "Burnt City Brewing", "brewery_type": "micro", "address_1": "2747 N Lincoln Ave", "address_2": null, "address_3": null, "city": "Chicago", "state_province": "Illinois", "postal_code": "60614-1320", "country": "United States", "longitude": "-87.65722732", "latitude": "41.93185255", "phone": "7732951270", "website_url": "http://www.burntcitybrewing.com", "state": "Illinois", "street": "2747 N Lincoln Ave"}, {"id": "179ddd44-f2d8-4a98-ab38-ceeca78c11ad", "name": "Burnt Hickory Brewery", "brewery_type": "micro", "address_1": "2260 Moon Station Ct NW Ste 210", "address_2": null, "address_3": null, "city": "Kennesaw", "state_province": "Georgia", "postal_code": "30144-5653", "country": "United States", "longitude": null, "latitude": null, "phone": "7705148812", "website_url": "http://www.burnthickorybrewery.com", "state": "Georgia", "street": "2260 Moon Station Ct NW Ste 210"}, {"id": "e528714d-4002-4d80-8415-a8cf895ed4ab", "name": "Burnt Timber Brewing", "brewery_type": "brewpub", "address_1": "96 Lehner St", "address_2": null, "address_3": null, "city": "Wolfeboro", "state_province": "New Hampshire", "postal_code": "03894", "country": "United States", "longitude": "-71.20968924", "latitude": "43.58632316", "phone": "6036303605", "website_url": "http://www.burnttimbertavern.com", "state": "New Hampshire", "street": "96 Lehner St"}, {"id": "5215f56d-865c-4e1a-ac01-6588a2bf05cc", "name": "Burren Brewery", "brewery_type": "brewpub", "address_1": "Kincora Rd", "address_2": "Rathbaun", "address_3": null, "city": "Lisdoonvarna", "state_province": "Clare", "postal_code": "V95 T85K", "country": "Ireland", "longitude": "-9.2928309", "latitude": "53.0283605", "phone": "353899816801", "website_url": "http://www.roadsidetavern.ie/roadside/?q=burren-storehouse", "state": "Clare", "street": "Kincora Rd"}, {"id": "53d04d81-f93b-44ce-83aa-f2b0baa852ed", "name": "Burt Lake Brewery / Seasons of the North Winery", "brewery_type": "micro", "address_1": "9090 W M-68 Hwy", "address_2": null, "address_3": null, "city": "Alanson", "state_province": "Michigan", "postal_code": "49706", "country": "United States", "longitude": null, "latitude": null, "phone": "2315481280", "website_url": "http://www.burtlakebrewery.com", "state": "Michigan", "street": "9090 W M-68 Hwy"}, {"id": "3b6721e6-29b6-4eeb-81e5-a105fa4178d4", "name": "Burwood Brewing Company", "brewery_type": "micro", "address_1": "1120 E St", "address_2": null, "address_3": null, "city": "Walla Walla", "state_province": "Washington", "postal_code": "99362-9505", "country": "United States", "longitude": "-118.2653286", "latitude": "46.0940928", "phone": "5098766220", "website_url": "http://www.burwoodbrewing.com", "state": "Washington", "street": "1120 E St"}, {"id": "2403a143-2664-4c84-a0c3-a97aa99f71de", "name": "Bury Me Brewing Company", "brewery_type": "micro", "address_1": "4224 Cleveland Ave Ste 7", "address_2": null, "address_3": null, "city": "Fort Myers", "state_province": "Florida", "postal_code": "33901-9051", "country": "United States", "longitude": null, "latitude": null, "phone": "2393322337", "website_url": "http://www.burymebrewing.com", "state": "Florida", "street": "4224 Cleveland Ave Ste 7"}, {"id": "86531644-17de-4385-af71-82574666baa6", "name": "Bushy\u2019s Brewery Ltd", "brewery_type": "micro", "address_1": "Mount Murray", "address_2": null, "address_3": null, "city": "Braddan", "state_province": "Middle", "postal_code": "IM4 1JE", "country": "Isle of Man", "longitude": "-4.55793831939852", "latitude": "54.1361028652688", "phone": "+441624611101", "website_url": "https://www.bushys.com/", "state": "Middle", "street": "Mount Murray"}, {"id": "0e5a4e78-b806-4b0c-a267-3b237a270ce1", "name": "Busted Knuckle Brewery", "brewery_type": "micro", "address_1": "303 1st Ave S", "address_2": null, "address_3": null, "city": "Glasgow", "state_province": "Montana", "postal_code": "59230-2308", "country": "United States", "longitude": "-106.6335464", "latitude": "48.1938472", "phone": "4062282277", "website_url": null, "state": "Montana", "street": "303 1st Ave S"}, {"id": "678c1f63-2b15-4900-84bd-c11c47dcf26a", "name": "Busted Knuckle Brewery", "brewery_type": "micro", "address_1": "213 11th St W", "address_2": null, "address_3": null, "city": "Williston", "state_province": "North Dakota", "postal_code": "58801-5125", "country": "United States", "longitude": "-103.6271886", "latitude": "48.15635372", "phone": "7015772277", "website_url": "http://bkbwilliston.com", "state": "North Dakota", "street": "213 11th St W"}, {"id": "31492f5d-c872-461c-b6c5-752ced93759a", "name": "Busted Sandal Brewing Company", "brewery_type": "micro", "address_1": "7114 Oaklawn Dr", "address_2": null, "address_3": null, "city": "San Antonio", "state_province": "Texas", "postal_code": "78229-3021", "country": "United States", "longitude": null, "latitude": null, "phone": "2108721486", "website_url": "http://www.bustedsandalbrewing.com", "state": "Texas", "street": "7114 Oaklawn Dr"}, {"id": "bd51516b-caf1-46ea-9695-a330004f6d78", "name": "Buster's Brew Pub", "brewery_type": "brewpub", "address_1": "Euphrates River Valley Road Bldg P-4350", "address_2": null, "address_3": null, "city": "Fort Drum", "state_province": "New York", "postal_code": "13602", "country": "United States", "longitude": null, "latitude": null, "phone": "3157721900", "website_url": "http://www.drummwr.com", "state": "New York", "street": "Euphrates River Valley Road Bldg P-4350"}, {"id": "76428248-05e8-4db4-a1d8-5b561571973f", "name": "Butcherknife Brewing Company", "brewery_type": "micro", "address_1": "2875 Elk River Rd", "address_2": null, "address_3": null, "city": "Steamboat Springs", "state_province": "Colorado", "postal_code": "80487-5076", "country": "United States", "longitude": "-106.857763", "latitude": "40.510887", "phone": "9708792337", "website_url": "http://www.butcherknifebrewing.com", "state": "Colorado", "street": "2875 Elk River Rd"}, {"id": "f4df6f7e-2332-45e8-98c2-0e917a2177ad", "name": "Bute Brew Co", "brewery_type": "closed", "address_1": "15-17 Columshill Street", "address_2": "Rothesay", "address_3": null, "city": "Isle of Bute", "state_province": "Bute", "postal_code": "PA20 0DN", "country": "Scotland", "longitude": "-5.058482", "latitude": "55.835396", "phone": "1700504206", "website_url": "http://butebrewco.co.uk/", "state": "Bute", "street": "15-17 Columshill Street"}, {"id": "29444b11-30a1-4b43-9b9f-541ea67afc94", "name": "Butler Brew Works", "brewery_type": "brewpub", "address_1": "101 S Main St", "address_2": null, "address_3": null, "city": "Butler", "state_province": "Pennsylvania", "postal_code": "16001-5907", "country": "United States", "longitude": "-79.895238", "latitude": "40.860914", "phone": "7242645347", "website_url": "http://www.butlerbrewworks.com", "state": "Pennsylvania", "street": "101 S Main St"}, {"id": "bc64b49f-5c63-4298-b87a-f6dd657dd7c8", "name": "Butte Brewing Co", "brewery_type": "micro", "address_1": "465 E Galena St", "address_2": null, "address_3": null, "city": "Butte", "state_province": "Montana", "postal_code": "59701-1928", "country": "United States", "longitude": "-112.5259197", "latitude": "46.01246804", "phone": "4062993953", "website_url": "http://www.buttebrewing.com", "state": "Montana", "street": "465 E Galena St"}, {"id": "1f5f4ff1-493b-474f-b705-06619a6fa4b7", "name": "Butternuts Beer", "brewery_type": "micro", "address_1": "4021 State Highway 51", "address_2": null, "address_3": null, "city": "Garrattsville", "state_province": "New York", "postal_code": "13342-1705", "country": "United States", "longitude": "-75.1914973", "latitude": "42.62396243", "phone": "6072635070", "website_url": "http://www.butternutsbeer.com", "state": "New York", "street": "4021 State Highway 51"}, {"id": "8626498b-4e07-433b-92ac-41a27a0676f3", "name": "Button Brew House, LLC", "brewery_type": "micro", "address_1": "6800 N Camino Martin Ste 160", "address_2": null, "address_3": null, "city": "Tucson", "state_province": "Arizona", "postal_code": "85741-2395", "country": "United States", "longitude": null, "latitude": null, "phone": "5202688543", "website_url": "http://www.button.beer", "state": "Arizona", "street": "6800 N Camino Martin Ste 160"}, {"id": "7499d5f1-3dee-4207-a073-aea0d069ea6b", "name": "Buttonwoods Brewery", "brewery_type": "micro", "address_1": "530 Wellington Ave Ste 22", "address_2": null, "address_3": null, "city": "Cranston", "state_province": "Rhode Island", "postal_code": "02910-2997", "country": "United States", "longitude": "-71.4263784", "latitude": "41.7731564", "phone": "4014612337", "website_url": "http://www.buttonwoodsbrewery.com", "state": "Rhode Island", "street": "530 Wellington Ave Ste 22"}, {"id": "047e6c05-5c5f-4eee-b953-0a7c796404c3", "name": "Buzz Bomb Brewing Co", "brewery_type": "micro", "address_1": "406 E Adams St", "address_2": null, "address_3": null, "city": "Springfield", "state_province": "Illinois", "postal_code": "62701", "country": "United States", "longitude": "-89.65050394", "latitude": "39.8005279", "phone": "2176794157", "website_url": "http://www.buzzbombbrewingco.com", "state": "Illinois", "street": "406 E Adams St"}, {"id": "3fba5b89-2f49-4d45-8cf6-efc97bea8933", "name": "Buzzards Bay Brewing Co", "brewery_type": "micro", "address_1": "98 Horseneck Rd", "address_2": null, "address_3": null, "city": "Westport", "state_province": "Massachusetts", "postal_code": "02790-1399", "country": "United States", "longitude": "-71.04970461", "latitude": "41.55207456", "phone": "5086362288", "website_url": "http://www.buzzardsbrew.com", "state": "Massachusetts", "street": "98 Horseneck Rd"}, {"id": "47b3c151-04cb-47bb-8b74-f46bd3ee1fc3", "name": "BW Farm, LLC", "brewery_type": "planning", "address_1": null, "address_2": null, "address_3": null, "city": "Owings", "state_province": "Maryland", "postal_code": "20736-9109", "country": "United States", "longitude": null, "latitude": null, "phone": "2406727995", "website_url": null, "state": "Maryland", "street": null}, {"id": "24ed88ac-5267-4d15-be7a-c6fa35befd1f", "name": "Byers Brewing Company", "brewery_type": "planning", "address_1": null, "address_2": null, "address_3": null, "city": "DeKalb", "state_province": "Illinois", "postal_code": "60115-4661", "country": "United States", "longitude": null, "latitude": null, "phone": "8159705318", "website_url": null, "state": "Illinois", "street": null}, {"id": "72a548d0-8bed-4ab0-ac92-467a4cf5546e", "name": "Byway Brewing Company", "brewery_type": "brewpub", "address_1": "2825 Carlson Dr", "address_2": null, "address_3": null, "city": "Hammond", "state_province": "Indiana", "postal_code": "46323-1183", "country": "United States", "longitude": null, "latitude": null, "phone": "2198445458", "website_url": "http://www.bywaybrewing.beer", "state": "Indiana", "street": "2825 Carlson Dr"}, {"id": "4d071d65-60eb-4e9a-9efa-9a65bf811cd3", "name": "C.B. and Potts/Big Horn Brewery - Englewood", "brewery_type": "brewpub", "address_1": "6575 Greenwood Plaza Blvd", "address_2": null, "address_3": null, "city": "Englewood", "state_province": "Colorado", "postal_code": "80111-4933", "country": "United States", "longitude": null, "latitude": null, "phone": "3037701982", "website_url": "http://www.cbpotts.com", "state": "Colorado", "street": "6575 Greenwood Plaza Blvd"}, {"id": "0ba6de0f-d84b-4e89-a608-8a5d70a7d612", "name": "C.B. and Potts/Big Horn Brewery - Highlands Ranch", "brewery_type": "brewpub", "address_1": "43 W Centennial Blvd", "address_2": null, "address_3": null, "city": "Highlands Ranch", "state_province": "Colorado", "postal_code": "80129-2323", "country": "United States", "longitude": "-104.9887246", "latitude": "39.56211674", "phone": "7203441200", "website_url": "http://www.cbpotts.com", "state": "Colorado", "street": "43 W Centennial Blvd"}, {"id": "cfacd093-a793-4110-b337-ba26fa5f0d3e", "name": "C.B. and Potts/Big Horn Brewery - Westminster", "brewery_type": "brewpub", "address_1": "1257 W 120th Ave", "address_2": null, "address_3": null, "city": "Westminster", "state_province": "Colorado", "postal_code": "80234-2725", "country": "United States", "longitude": "-105.0040899", "latitude": "39.91376115", "phone": "3034515767", "website_url": "http://www.cbpotts.com", "state": "Colorado", "street": "1257 W 120th Ave"}, {"id": "ef9d5ee5-045d-4d41-92f9-2d518fa0cc7a", "name": "Cabarrus Brewing Company", "brewery_type": "micro", "address_1": "329 McGill Ave NW", "address_2": null, "address_3": null, "city": "Concord", "state_province": "North Carolina", "postal_code": "28027-6149", "country": "United States", "longitude": "-80.60600028", "latitude": "35.41573578", "phone": "7044904487", "website_url": "http://www.cabarrusbrewing.com", "state": "North Carolina", "street": "329 McGill Ave NW"}, {"id": "06b8b131-a227-414a-ac7f-fd63c63828b9", "name": "Cabin Boys Brewery", "brewery_type": "micro", "address_1": "1717 E. 7th Steeet", "address_2": null, "address_3": null, "city": "Tulsa", "state_province": "Oklahoma", "postal_code": "74104", "country": "United States", "longitude": "-95.966947", "latitude": "36.1515468", "phone": "9189334033", "website_url": "http://www.cabinboysbrewery.com", "state": "Oklahoma", "street": "1717 E. 7th Steeet"}, {"id": "847fc182-b1fd-4e3a-bf42-a4aab6d5a0e6", "name": "Cabinet Mountain Brewing Co", "brewery_type": "brewpub", "address_1": "206 Mineral Ave", "address_2": null, "address_3": null, "city": "Libby", "state_province": "Montana", "postal_code": "59923-1952", "country": "United States", "longitude": "-115.5506412", "latitude": "48.3936508", "phone": "4062932739", "website_url": "http://www.cabinetmountainbrewing.com", "state": "Montana", "street": "206 Mineral Ave"}, {"id": "1bb1a62c-5339-4a44-acf7-5a960fbb39b1", "name": "Caboose Brewing Co.", "brewery_type": "brewpub", "address_1": "520 Mill St NE", "address_2": null, "address_3": null, "city": "Vienna", "state_province": "Virginia", "postal_code": "22180-4526", "country": "United States", "longitude": "-77.2705542", "latitude": "38.9077525", "phone": "7034734870", "website_url": "http://caboosebrewing.com", "state": "Virginia", "street": "520 Mill St NE"}, {"id": "1a4ac5aa-6d2f-41ef-80b5-b4b11db57b9a", "name": "Cactus Land Brewing Company", "brewery_type": "micro", "address_1": "368 County Road 325", "address_2": null, "address_3": null, "city": "Adkins", "state_province": "Texas", "postal_code": "78101-2812", "country": "United States", "longitude": null, "latitude": null, "phone": "2104142776", "website_url": "http://www.cactuslandbrewing.com", "state": "Texas", "street": "368 County Road 325"}, {"id": "c0c8f2f1-ec01-4d3e-8faf-b05f3f18f945", "name": "Cafe Karibo", "brewery_type": "brewpub", "address_1": "27 N 3rd St", "address_2": null, "address_3": null, "city": "Fernandina Beach", "state_province": "Florida", "postal_code": "32034-4111", "country": "United States", "longitude": "-81.46300291", "latitude": "30.6716253", "phone": "9042775269", "website_url": "http://www.cafekaribo.com", "state": "Florida", "street": "27 N 3rd St"}, {"id": "b04c9621-bb87-439d-a499-94cb432bde90", "name": "Cafe Luis", "brewery_type": "bar", "address_1": "Weizberg 7", "address_2": null, "address_3": null, "city": "Weiz", "state_province": "Steiermark", "postal_code": "8160", "country": "Austria", "longitude": "15.6358280445545", "latitude": "47.22378922896473", "phone": "+4331723924", "website_url": null, "state": "Steiermark", "street": "Weizberg 7"}, {"id": "9355bc7c-bdc7-40c3-8932-e840c996ed86", "name": "Caf\ufffd Okei", "brewery_type": "bar", "address_1": "Feldkirchenstra\ufffde 40", "address_2": null, "address_3": null, "city": "Kalsdorf bei Graz", "state_province": "Steiermark", "postal_code": "8401", "country": "Austria", "longitude": "15.4604202756149", "latitude": "46.97131912786789", "phone": "+43313557156", "website_url": "https://okei.at", "state": "Steiermark", "street": "Feldkirchenstra\ufffde 40"}, {"id": "07abdcde-be13-49ed-9000-409d7d3d1975", "name": "Cage Brewing", "brewery_type": "micro", "address_1": "2001 1st Ave S", "address_2": null, "address_3": null, "city": "Saint Petersburg", "state_province": "Florida", "postal_code": "33712-1201", "country": "United States", "longitude": "-82.660409", "latitude": "27.770292", "phone": "7272014278", "website_url": null, "state": "Florida", "street": "2001 1st Ave S"}, {"id": "a476acbb-451e-4eb5-a250-55c9216ea153", "name": "Cahaba Brewing Co", "brewery_type": "micro", "address_1": "4500 5th Ave S Ste C", "address_2": null, "address_3": null, "city": "Birmingham", "state_province": "Alabama", "postal_code": "35222-2911", "country": "United States", "longitude": null, "latitude": null, "phone": "2059669444", "website_url": "http://www.cahababrewing.com", "state": "Alabama", "street": "4500 5th Ave S Ste C"}, {"id": "0254d394-bf18-4793-900b-7320ae176e3c", "name": "Cairn Brewing", "brewery_type": "micro", "address_1": "7204 NE 175th St", "address_2": null, "address_3": null, "city": "Kenmore", "state_province": "Washington", "postal_code": "98028-3561", "country": "United States", "longitude": "-122.2440866", "latitude": "47.7571424", "phone": "4259495295", "website_url": "http://www.cairnbrewing.com", "state": "Washington", "street": "7204 NE 175th St"}, {"id": "6265172a-55a2-405b-8a59-efbd4de3adfd", "name": "Cajun Brewing", "brewery_type": "micro", "address_1": "206 Rayburn St", "address_2": null, "address_3": null, "city": "Lafayette", "state_province": "Louisiana", "postal_code": "70506-4130", "country": "United States", "longitude": "-92.04978922", "latitude": "30.21549043", "phone": "3378069196", "website_url": "http://www.cajunbrewing.com", "state": "Louisiana", "street": "206 Rayburn St"}, {"id": "756d4443-74b5-423d-b0a7-a7731e7f7883", "name": "Calapooia Brewing Co / Siletz Ales", "brewery_type": "micro", "address_1": "140 NE Hill St", "address_2": null, "address_3": null, "city": "Albany", "state_province": "Oregon", "postal_code": "97321-3002", "country": "United States", "longitude": "-123.0937773", "latitude": "44.6394668", "phone": "5419281931", "website_url": "http://www.calapooiabrewing.com", "state": "Oregon", "street": "140 NE Hill St"}, {"id": "914b9f4c-d6eb-45cc-aa64-f93a41958c35", "name": "Caldera Brewing Co", "brewery_type": "micro", "address_1": "590 Clover Ln", "address_2": null, "address_3": null, "city": "Ashland", "state_province": "Oregon", "postal_code": "97520-3709", "country": "United States", "longitude": "-122.6633744", "latitude": "42.18373846", "phone": "5414824677", "website_url": "http://www.calderabrewing.com", "state": "Oregon", "street": "590 Clover Ln"}, {"id": "87f356ba-1eee-4480-96a9-5877cc669edb", "name": "Caledonia Brewing", "brewery_type": "micro", "address_1": "587 Main St", "address_2": null, "address_3": null, "city": "Dunedin", "state_province": "Florida", "postal_code": "34698-4998", "country": "United States", "longitude": "-82.7840735", "latitude": "28.01394225", "phone": "7273515105", "website_url": "http://www.caledoniabrewing.com", "state": "Florida", "street": "587 Main St"}, {"id": "c3aa08ce-050b-440d-a8c1-0b45cbceedd5", "name": "Calfkiller Brewing Co", "brewery_type": "micro", "address_1": "1839 Blue Springs Rd", "address_2": null, "address_3": null, "city": "Sparta", "state_province": "Tennessee", "postal_code": "38583-2714", "country": "United States", "longitude": "-85.42206083", "latitude": "35.94460668", "phone": "9317392337", "website_url": "http://www.calfkillerbeer.com", "state": "Tennessee", "street": "1839 Blue Springs Rd"}, {"id": "2a7ed844-ea02-4a69-a41c-1fc7c476dd16", "name": "Calibration Brewery", "brewery_type": "brewpub", "address_1": "119 Armour Rd", "address_2": null, "address_3": null, "city": "Kansas City", "state_province": "Missouri", "postal_code": "64116-3502", "country": "United States", "longitude": "-94.578762", "latitude": "39.141723", "phone": "8169948277", "website_url": "http://www.calibrationbrewery.com", "state": "Missouri", "street": "119 Armour Rd"}, {"id": "b6618fdf-562c-47d8-8f99-da37d0ed00fb", "name": "Calicraft Brewing Co", "brewery_type": "micro", "address_1": "2700 Mitchell Dr Bldg 2", "address_2": null, "address_3": null, "city": "Walnut Creek", "state_province": "California", "postal_code": "94598-1602", "country": "United States", "longitude": "-122.0257068", "latitude": "37.93059284", "phone": null, "website_url": null, "state": "California", "street": "2700 Mitchell Dr Bldg 2"}, {"id": "bcea0930-14a2-4b22-898c-729ea6abe693", "name": "California Cider Co.", "brewery_type": "planning", "address_1": null, "address_2": null, "address_3": null, "city": "Sebastopol", "state_province": "California", "postal_code": "95472", "country": "United States", "longitude": "-122.8332502", "latitude": "38.3845125", "phone": "7078291101", "website_url": "http://www.acecider.com", "state": "California", "street": null}, {"id": "23905042-9078-410a-a3f5-0ede37924815", "name": "California Wild Ales", "brewery_type": "contract", "address_1": "4204 Sorrento Valley Blvd", "address_2": null, "address_3": null, "city": "San Diego", "state_province": "California", "postal_code": "92121-1446", "country": "United States", "longitude": "-117.2146488", "latitude": "32.905002", "phone": null, "website_url": null, "state": "California", "street": "4204 Sorrento Valley Blvd"}, {"id": "5494f614-38f1-4c0d-822d-58977264bb89", "name": "Call To Arms Brewing Company", "brewery_type": "micro", "address_1": "4526 Tennyson St", "address_2": null, "address_3": null, "city": "Denver", "state_province": "Colorado", "postal_code": "80212-2527", "country": "United States", "longitude": "-105.0435373", "latitude": "39.7788541", "phone": null, "website_url": "http://www.facebook.com/calltoarmsbrewing", "state": "Colorado", "street": "4526 Tennyson St"}, {"id": "06f89ef6-e14a-4642-9609-46c6aad9813f", "name": "Callahan West Brewery", "brewery_type": "micro", "address_1": "20 Main St", "address_2": null, "address_3": null, "city": "Mosquero", "state_province": "New Mexico", "postal_code": "87733", "country": "United States", "longitude": "-103.9581938", "latitude": "35.77706974", "phone": null, "website_url": null, "state": "New Mexico", "street": "20 Main St"}, {"id": "2b34e802-aa74-4ab7-baf3-3de5c82bd751", "name": "Callsign Brewing", "brewery_type": "micro", "address_1": "1447 Gentry St", "address_2": null, "address_3": null, "city": "North Kansas City", "state_province": "Missouri", "postal_code": "64116", "country": "United States", "longitude": "-94.574428", "latitude": "39.138525", "phone": "8162552320", "website_url": "http://www.callsignbrewing.com", "state": "Missouri", "street": "1447 Gentry St"}, {"id": "40a385d5-25cb-4bf4-9b04-fd1501f8b8fb", "name": "Calusa Brewing Company", "brewery_type": "micro", "address_1": "5701 Derek Ave", "address_2": null, "address_3": null, "city": "Sarasota", "state_province": "Florida", "postal_code": "34233-2413", "country": "United States", "longitude": "-82.483799", "latitude": "27.269363", "phone": "9419228150", "website_url": "http://www.calusabrewing.com", "state": "Florida", "street": "5701 Derek Ave"}, {"id": "66830819-c0ed-462b-b7c6-5b6006fa7df0", "name": "Calvert Brewing Co", "brewery_type": "micro", "address_1": "150 Adelina Rd", "address_2": null, "address_3": null, "city": "Prince Frederick", "state_province": "Maryland", "postal_code": "20678-3709", "country": "United States", "longitude": null, "latitude": null, "phone": "4104148486", "website_url": "http://www.calvertbrewingcompany.com", "state": "Maryland", "street": "150 Adelina Rd"}, {"id": "a440c125-f424-4b18-9adc-27c2965ce6ac", "name": "Calvert Brewing Co", "brewery_type": "micro", "address_1": "15850 Commerce Ct", "address_2": null, "address_3": null, "city": "Upper Marlboro", "state_province": "Maryland", "postal_code": "20774-7437", "country": "United States", "longitude": null, "latitude": null, "phone": "2402454609", "website_url": "http://calvertbrewingcompany.com", "state": "Maryland", "street": "15850 Commerce Ct"}, {"id": "a4979f24-580a-467a-8cb3-5ce9df1d30b4", "name": "Cambridge Brewing Co", "brewery_type": "brewpub", "address_1": "1 Kendall Sq Ste B1102", "address_2": null, "address_3": null, "city": "Cambridge", "state_province": "Massachusetts", "postal_code": "02139-1592", "country": "United States", "longitude": null, "latitude": null, "phone": "6174941994", "website_url": "http://www.cambridgebrewingcompany.com", "state": "Massachusetts", "street": "1 Kendall Sq Ste B1102"}, {"id": "ad254a69-0bd9-491e-be5b-0a35d174fb4e", "name": "Cambridge House Brew Pub - Granby", "brewery_type": "brewpub", "address_1": "357 Salmon Brook St", "address_2": null, "address_3": null, "city": "Granby", "state_province": "Connecticut", "postal_code": "06035-0438", "country": "United States", "longitude": "-72.79259539", "latitude": "41.96631414", "phone": "8606532739", "website_url": "http://www.cbh.beer", "state": "Connecticut", "street": "357 Salmon Brook St"}, {"id": "73852083-1f03-41da-bc57-e471e315cbb2", "name": "Camino Brewing Co LLC", "brewery_type": "micro", "address_1": "718 S 1st St", "address_2": null, "address_3": null, "city": "San Jose", "state_province": "California", "postal_code": "95113", "country": "United States", "longitude": "-121.8823478", "latitude": "37.32530178", "phone": null, "website_url": "http://www.caminobrewing.com", "state": "California", "street": "718 S 1st St"}, {"id": "4a928417-cd54-4806-9085-98b4d47f8e81", "name": "Camp Colvos Brewing", "brewery_type": "micro", "address_1": "17636 Vashon Hwy SW", "address_2": null, "address_3": null, "city": "Vashon", "state_province": "Washington", "postal_code": "98070-6052", "country": "United States", "longitude": "-122.4602697", "latitude": "47.44701386", "phone": "2069473527", "website_url": "http://www.campcolvos.com", "state": "Washington", "street": "17636 Vashon Hwy SW"}, {"id": "ca9d8589-4cf5-400e-b1df-7df7eb5d28c0", "name": "Campbell Brewing Co", "brewery_type": "micro", "address_1": "200 E Campbell Ave", "address_2": null, "address_3": null, "city": "Campbell", "state_province": "California", "postal_code": "95008-2010", "country": "United States", "longitude": "-121.9332743", "latitude": "37.2870748", "phone": "4088662699", "website_url": null, "state": "California", "street": "200 E Campbell Ave"}, {"id": "33615ed7-57bb-4d02-84d6-d24e02a6cf1f", "name": "Can Of Worms Brewing", "brewery_type": "planning", "address_1": null, "address_2": null, "address_3": null, "city": "Glendale", "state_province": "California", "postal_code": "91214-1713", "country": "United States", "longitude": "-118.2462486", "latitude": "34.192912", "phone": "8187975520", "website_url": "http://www.canofwormsbrewing.com", "state": "California", "street": null}, {"id": "ea9cb09f-6a1f-4635-b3d8-4817e75571ea", "name": "Canal Park Brewery", "brewery_type": "brewpub", "address_1": "300 Canal Park Dr", "address_2": null, "address_3": null, "city": "Duluth", "state_province": "Minnesota", "postal_code": "55802-2316", "country": "United States", "longitude": null, "latitude": null, "phone": "2184644790", "website_url": "http://www.canalparkbrewery.com", "state": "Minnesota", "street": "300 Canal Park Dr"}, {"id": "e431db8a-9c36-46c0-90e0-05644f37a056", "name": "Candia Road Brewing / Nepenthe Ale House", "brewery_type": "micro", "address_1": "840 Candia Rd", "address_2": null, "address_3": null, "city": "Manchester", "state_province": "New Hampshire", "postal_code": "03109-5201", "country": "United States", "longitude": "-71.41301096", "latitude": "42.9849563", "phone": "6039358123", "website_url": "http://www.candiaroad.com", "state": "New Hampshire", "street": "840 Candia Rd"}, {"id": "45e03113-32c2-44db-be6c-6955633fba06", "name": "Cannon Ball Brewing Company", "brewery_type": "brewpub", "address_1": "1702 Bellefontaine St", "address_2": null, "address_3": null, "city": "Indianapolis", "state_province": "Indiana", "postal_code": "46202-1813", "country": "United States", "longitude": "-86.14245603", "latitude": "39.79046798", "phone": "3174265978", "website_url": "http://www.cannonballbrewingindy.com", "state": "Indiana", "street": "1702 Bellefontaine St"}, {"id": "cf741ae8-b09e-40af-9ea7-065f0736a458", "name": "Cannon Brewpub", "brewery_type": "brewpub", "address_1": "1041 Broadway", "address_2": null, "address_3": null, "city": "Columbus", "state_province": "Georgia", "postal_code": "31901-5256", "country": "United States", "longitude": null, "latitude": null, "phone": "7066532337", "website_url": null, "state": "Georgia", "street": "1041 Broadway"}, {"id": "e5b709a1-dce7-4271-9057-e56ceea26b83", "name": "Cannonball Creek Brewing Co", "brewery_type": "micro", "address_1": "393 Washington Ave Unit A", "address_2": null, "address_3": null, "city": "Golden", "state_province": "Colorado", "postal_code": "80403-1889", "country": "United States", "longitude": null, "latitude": null, "phone": "3032780111", "website_url": "http://www.cannonballcreekbrewing.com", "state": "Colorado", "street": "393 Washington Ave Unit A"}, {"id": "72935233-3b46-42b0-901e-3548937da57e", "name": "Canon & Draw Brewing Company", "brewery_type": "micro", "address_1": "1527 W Main St", "address_2": null, "address_3": null, "city": "Richmond", "state_province": "Virginia", "postal_code": "23220", "country": "United States", "longitude": "-77.46012854", "latitude": "37.54707897", "phone": "8043530536", "website_url": "http://www.canonanddraw.beer", "state": "Virginia", "street": "1527 W Main St"}, {"id": "14f8c0f8-5f24-4eb8-865a-437cd5ec28dc", "name": "Canteen Brewhouse", "brewery_type": "micro", "address_1": "2381 Aztec Rd NE", "address_2": null, "address_3": null, "city": "Albuquerque", "state_province": "New Mexico", "postal_code": "87107-4207", "country": "United States", "longitude": "-106.617653", "latitude": "35.12025411", "phone": "5058304629", "website_url": "http://www.canteenbrewhouse.com", "state": "New Mexico", "street": "2381 Aztec Rd NE"}, {"id": "2fc0714f-eec5-4451-9b6f-aa19f58efac5", "name": "Canterbury Aleworks", "brewery_type": "micro", "address_1": "305 Baptist Hill Rd", "address_2": null, "address_3": null, "city": "Canterbury", "state_province": "New Hampshire", "postal_code": "03224-2509", "country": "United States", "longitude": "-71.51484346", "latitude": "43.38577573", "phone": "6034914539", "website_url": "http://www.canterburyaleworks.com", "state": "New Hampshire", "street": "305 Baptist Hill Rd"}, {"id": "1b4e8f0d-b445-4221-a357-975287794915", "name": "Canton Brew Works, LLC", "brewery_type": "micro", "address_1": "8521 N Lilley Rd", "address_2": null, "address_3": null, "city": "Canton", "state_province": "Michigan", "postal_code": "48187-2091", "country": "United States", "longitude": "-83.4586331", "latitude": "42.3224786", "phone": "7349277081", "website_url": "http://www.cantonbrewworks.com", "state": "Michigan", "street": "8521 N Lilley Rd"}, {"id": "c7cedf0a-db47-42a9-8642-dda456d33f52", "name": "Canton Brewing Company", "brewery_type": "brewpub", "address_1": "120 3rd St NW", "address_2": null, "address_3": null, "city": "Canton", "state_province": "Ohio", "postal_code": "44702", "country": "United States", "longitude": "-81.37453867", "latitude": "40.7998289", "phone": null, "website_url": "http://www.drinkcantonbeer.com", "state": "Ohio", "street": "120 3rd St NW"}, {"id": "235b3275-293e-45e5-8b6f-0bfbaac4e016", "name": "Canvas Brewery", "brewery_type": "micro", "address_1": "Fortmoy Aglish", "address_2": null, "address_3": null, "city": "Roscrea", "state_province": "Tipperary", "postal_code": "E53 D822", "country": "Ireland", "longitude": "-8.116511364", "latitude": "53.0479286", "phone": "353871268539", "website_url": "https://www.canvasbrewery.com/", "state": "Tipperary", "street": "Fortmoy Aglish"}, {"id": "8aeaf9bc-b9a0-4278-ad0a-bf13f936269e", "name": "Canyon Club Brewery", "brewery_type": "planning", "address_1": null, "address_2": null, "address_3": null, "city": "Moraga", "state_province": "California", "postal_code": "94556", "country": "United States", "longitude": "-122.12883", "latitude": "37.834897", "phone": "8087992005", "website_url": "http://www.canyonclub.works", "state": "California", "street": null}, {"id": "d423e8d9-731a-4f9a-a8a9-939d21a2419a", "name": "Canyon Creek Brewing", "brewery_type": "micro", "address_1": "3060 Gabel Rd", "address_2": null, "address_3": null, "city": "Billings", "state_province": "Montana", "postal_code": "59102-7336", "country": "United States", "longitude": "-108.5916752", "latitude": "45.74436502", "phone": "4066562528", "website_url": "http://www.canyoncreekbrewing.com", "state": "Montana", "street": "3060 Gabel Rd"}, {"id": "5d70e9c5-09dd-4ab7-9efe-bb064ddf705c", "name": "Canyon Lakes Golf Course & Brewery", "brewery_type": "brewpub", "address_1": "640 Bollinger Canyon Way", "address_2": null, "address_3": null, "city": "San Ramon", "state_province": "California", "postal_code": "94582-4971", "country": "United States", "longitude": "-121.94788", "latitude": "37.77114856", "phone": null, "website_url": "http://www.canyonlakesgolfbrew.com", "state": "California", "street": "640 Bollinger Canyon Way"}, {"id": "9749c8f4-5273-449f-9563-0dcd12a14e42", "name": "Cape Ann Brewing Co", "brewery_type": "brewpub", "address_1": "11 Rogers St", "address_2": null, "address_3": null, "city": "Gloucester", "state_province": "Massachusetts", "postal_code": "01930-5014", "country": "United States", "longitude": "-70.66509344", "latitude": "42.61161602", "phone": "9782827399", "website_url": null, "state": "Massachusetts", "street": "11 Rogers St"}, {"id": "7e1b62e7-054d-4dc9-8359-da4c874cc154", "name": "Cape Ann Lanes", "brewery_type": "planning", "address_1": null, "address_2": null, "address_3": null, "city": "Gloucester", "state_province": "Massachusetts", "postal_code": "01930-2256", "country": "United States", "longitude": null, "latitude": null, "phone": "9788799714", "website_url": null, "state": "Massachusetts", "street": null}, {"id": "c179ca31-f60a-4726-9ca8-96774c426f00", "name": "Cape Charles Brewing Company", "brewery_type": "brewpub", "address_1": "2198 Stone Rd", "address_2": null, "address_3": null, "city": "Cape Charles", "state_province": "Virginia", "postal_code": "23310-2706", "country": "United States", "longitude": "-75.992111", "latitude": "37.269795", "phone": "7574494839", "website_url": "http://www.capecharlesbrewing.com", "state": "Virginia", "street": "2198 Stone Rd"}, {"id": "972823fa-5950-4bba-94e7-9a959b09a2bf", "name": "Cape Cod Beer", "brewery_type": "micro", "address_1": "1336 Phinneys Ln Ste 2-2", "address_2": null, "address_3": null, "city": "Hyannis", "state_province": "Massachusetts", "postal_code": "02601-1875", "country": "United States", "longitude": null, "latitude": null, "phone": "5087904200", "website_url": "http://www.capecodbeer.com", "state": "Massachusetts", "street": "1336 Phinneys Ln Ste 2-2"}, {"id": "ed03dc32-f0b3-4466-a9ec-069e31f25ba0", "name": "Cape May Brewing Company", "brewery_type": "micro", "address_1": "409 Breakwater Rd", "address_2": null, "address_3": null, "city": "Cape May", "state_province": "New Jersey", "postal_code": "08204-4537", "country": "United States", "longitude": "-74.91285755", "latitude": "39.00066318", "phone": "6098499933", "website_url": "http://www.capemaybrewery.com", "state": "New Jersey", "street": "409 Breakwater Rd"}, {"id": "984c0f6a-3f2d-4ca2-9462-1a7c637e363e", "name": "Cape May Brewing Company - Rio Grande", "brewery_type": "micro", "address_1": "1288 Hornet Rd", "address_2": null, "address_3": null, "city": "Rio Grande", "state_province": "New Jersey", "postal_code": "08242-2210", "country": "United States", "longitude": null, "latitude": null, "phone": "6098499933", "website_url": "http://www.capemaybrewery.com", "state": "New Jersey", "street": "1288 Hornet Rd"}, {"id": "b6ea2f3b-b21b-43f8-8696-c182d8ed087f", "name": "Cape Vincent Brewing Co", "brewery_type": "micro", "address_1": "296 Broadway St", "address_2": null, "address_3": null, "city": "Cape Vincent", "state_province": "New York", "postal_code": "13618", "country": "United States", "longitude": "-76.33484565", "latitude": "44.12823687", "phone": null, "website_url": "http://www.capevincentbrewing.com", "state": "New York", "street": "296 Broadway St"}, {"id": "e07b6621-ed3a-4aaf-ad46-81b0f4d44fee", "name": "Capital Brewery Co Inc", "brewery_type": "regional", "address_1": "7734 Terrace Ave", "address_2": null, "address_3": null, "city": "Middleton", "state_province": "Wisconsin", "postal_code": "53562-3163", "country": "United States", "longitude": "-89.51657978", "latitude": "43.09489645", "phone": "6088367100", "website_url": "http://www.capitalbrewery.com", "state": "Wisconsin", "street": "7734 Terrace Ave"}, {"id": "2682641e-3fa6-4700-b9ed-87ded91e1ca5", "name": "Capitol City Brewing Co", "brewery_type": "contract", "address_1": "2 Massachusetts Ave NE", "address_2": null, "address_3": null, "city": "Washington", "state_province": "District of Columbia", "postal_code": "20002-4945", "country": "United States", "longitude": "-77.0082686", "latitude": "38.8979293", "phone": "2028422337", "website_url": "http://www.capcitybrew.com", "state": "District of Columbia", "street": "2 Massachusetts Ave NE"}, {"id": "dea46586-2772-4573-a964-f9a1d1bbc902", "name": "Capitol Creek Brewery", "brewery_type": "brewpub", "address_1": "371 Market St", "address_2": null, "address_3": null, "city": "Basalt", "state_province": "Colorado", "postal_code": "81621-7409", "country": "United States", "longitude": null, "latitude": null, "phone": "8704043657", "website_url": "http://www.capitolcreekbrewery.com", "state": "Colorado", "street": "371 Market St"}, {"id": "42a358b3-4457-4f5a-8914-6b22352d9aed", "name": "Capstan Bar Brewing Company", "brewery_type": "micro", "address_1": "2036 Exploration Way", "address_2": null, "address_3": null, "city": "Hampton", "state_province": "Virginia", "postal_code": "23666-6260", "country": "United States", "longitude": "-76.3994756", "latitude": "37.082339", "phone": "7577887276", "website_url": "http://www.capstanbarbrewing.com", "state": "Virginia", "street": "2036 Exploration Way"}, {"id": "dd562978-8660-491c-b8ac-515a8fc975be", "name": "Captain Fatty's", "brewery_type": "micro", "address_1": "6483 Calle Real Ste D", "address_2": null, "address_3": null, "city": "Goleta", "state_province": "California", "postal_code": "93117-1541", "country": "United States", "longitude": "-119.8524005", "latitude": "34.4394769", "phone": null, "website_url": "http://www.captainfattys.com", "state": "California", "street": "6483 Calle Real Ste D"}, {"id": "38973645-52f6-4b59-9f8b-8b88730e3ff9", "name": "Captain Lawrence Brewing Co", "brewery_type": "regional", "address_1": "444 Saw Mill River Rd Ste 100", "address_2": null, "address_3": null, "city": "Elmsford", "state_province": "New York", "postal_code": "10523-1031", "country": "United States", "longitude": "-73.839113", "latitude": "41.03486", "phone": "9147412337", "website_url": "http://www.captainlawrencebrewing.com", "state": "New York", "street": "444 Saw Mill River Rd Ste 100"}, {"id": "8c73e22d-9012-4515-b769-94cd608c90a5", "name": "Captains Brewing Company", "brewery_type": "micro", "address_1": null, "address_2": null, "address_3": null, "city": "Ridgefield", "state_province": "Washington", "postal_code": "98642", "country": "United States", "longitude": null, "latitude": null, "phone": "3609218275", "website_url": "https://www.facebook.com/captainsbrewingcompany/", "state": "Washington", "street": null}, {"id": "f99f9f8d-d2e0-4f23-9644-c95ff543e235", "name": "Caracara Brewing Company", "brewery_type": "micro", "address_1": "100 E Market St", "address_2": null, "address_3": null, "city": "Lockhart", "state_province": "Texas", "postal_code": "78644-2747", "country": "United States", "longitude": "-97.672065", "latitude": "29.883798", "phone": null, "website_url": "http://www.caracarabrewingcompany.com", "state": "Texas", "street": "100 E Market St"}, {"id": "0ea0d27c-ea9a-4f75-91c2-4009c12b6c45", "name": "Carbon Brewing Company", "brewery_type": "planning", "address_1": null, "address_2": null, "address_3": null, "city": "Brazil", "state_province": "Indiana", "postal_code": "47834-7046", "country": "United States", "longitude": null, "latitude": null, "phone": null, "website_url": "http://www.carbonbrewing.com", "state": "Indiana", "street": null}, {"id": "f12deb0c-12ed-42e3-8706-d9cb1cb6a52a", "name": "Carbondale Beer Works", "brewery_type": "brewpub", "address_1": "647 Main St", "address_2": null, "address_3": null, "city": "Carbondale", "state_province": "Colorado", "postal_code": "81623-1934", "country": "United States", "longitude": "-107.2134909", "latitude": "39.40060712", "phone": null, "website_url": "http://www.carbondalebeerworks.com", "state": "Colorado", "street": "647 Main St"}, {"id": "846e6b9a-e4ea-46ae-9597-fbdcdc4568c7", "name": "Cardinal Craft Brewing Academy/ Skagit Valley College", "brewery_type": "micro", "address_1": "15579 Peterson Rd", "address_2": null, "address_3": null, "city": "Burlington", "state_province": "Washington", "postal_code": "98233-3625", "country": "United States", "longitude": "-122.3533958", "latitude": "48.4719343", "phone": "3604162537", "website_url": "http://www.skagit.edu", "state": "Washington", "street": "15579 Peterson Rd"}, {"id": "79c363c6-1f8d-4714-be5c-ba9095d427d2", "name": "Carey's Brew House", "brewery_type": "brewpub", "address_1": "58 Bridge St", "address_2": null, "address_3": null, "city": "Corning", "state_province": "New York", "postal_code": "14830-2239", "country": "United States", "longitude": "-77.06089704", "latitude": "42.15025771", "phone": "6073775651", "website_url": "http://www.careysbrewhouse.com", "state": "New York", "street": "58 Bridge St"}, {"id": "aee2380a-6178-4db4-9688-7559cc0f8c43", "name": "Carillon Brewing Company", "brewery_type": "brewpub", "address_1": "1000 Carillon Blvd", "address_2": null, "address_3": null, "city": "Dayton", "state_province": "Ohio", "postal_code": "45409-2023", "country": "United States", "longitude": "-84.20121", "latitude": "39.730102", "phone": "9372932841", "website_url": "http://www.carillonbrewingco.org", "state": "Ohio", "street": "1000 Carillon Blvd"}, {"id": "4d29ef0e-2d79-4adf-a613-32de90d16705", "name": "Carlingford Brewing Company", "brewery_type": "micro", "address_1": "The Old Mill, , Riverstown, Co. Louth", "address_2": "Dundalk Road", "address_3": "Riverstown", "city": "Carlingford", "state_province": "Louth", "postal_code": "A91 D850", "country": "Ireland", "longitude": "-6.2239907", "latitude": "53.994002", "phone": "353429397519", "website_url": "http://carlingfordbrewing.ie/", "state": "Louth", "street": "The Old Mill, , Riverstown, Co. Louth"}, {"id": "6ddc96ca-73d4-420f-a4f1-9139120a9f1d", "name": "Carlow Brewing Company", "brewery_type": "micro", "address_1": "Muine Bheag Business Park", "address_2": "Royal Oak Rd", "address_3": "Moneybeg", "city": "Bagenalstown", "state_province": "Carlow", "postal_code": "R21 DR77", "country": "Ireland", "longitude": "-6.9783782", "latitude": "52.6965818", "phone": "353599720509", "website_url": "http://www.carlowbrewing.com/", "state": "Carlow", "street": "Muine Bheag Business Park"}, {"id": "e5c79228-a725-4fb7-a853-5b0a43590466", "name": "Carlyle Brewing Co", "brewery_type": "brewpub", "address_1": "215 E State St", "address_2": null, "address_3": null, "city": "Rockford", "state_province": "Illinois", "postal_code": "61104-1010", "country": "United States", "longitude": "-89.09053", "latitude": "42.2689989", "phone": "8159632739", "website_url": "http://www.carlylebrewing.com", "state": "Illinois", "street": "215 E State St"}, {"id": "6d4e169d-8a90-46c3-9960-e1001ac18dcd", "name": "Carmody Irish Pub & Brewing", "brewery_type": "brewpub", "address_1": "308 E Superior St", "address_2": null, "address_3": null, "city": "Duluth", "state_province": "Minnesota", "postal_code": "55802-2120", "country": "United States", "longitude": "-92.09418809", "latitude": "46.78986799", "phone": "2187404747", "website_url": "http://www.carmodyirishpub.com", "state": "Minnesota", "street": "308 E Superior St"}, {"id": "44e4fb51-0d59-4164-9c60-c74b19f7c20e", "name": "Carolina Bauernhaus Ales", "brewery_type": "brewpub", "address_1": "115 Federal St", "address_2": null, "address_3": null, "city": "Anderson", "state_province": "South Carolina", "postal_code": "29625-4364", "country": "United States", "longitude": null, "latitude": null, "phone": "8644018167", "website_url": "http://carolinabauernhaus.com", "state": "South Carolina", "street": "115 Federal St"}, {"id": "737792a8-6c59-4e95-82cf-7cdc6cb079c1", "name": "Carolina Brewery - Chapel Hill", "brewery_type": "brewpub", "address_1": "460 W Franklin St", "address_2": null, "address_3": null, "city": "Chapel Hill", "state_province": "North Carolina", "postal_code": "27516", "country": "United States", "longitude": "-79.0627304", "latitude": "35.9106269", "phone": "9199421800", "website_url": "http://www.carolinabrewery.com", "state": "North Carolina", "street": "460 W Franklin St"}, {"id": "68d63e28-2666-47f4-9d74-daf21aa85e80", "name": "Carolina Brewery - Pittsboro", "brewery_type": "micro", "address_1": "120 Lowes Dr Ste 100", "address_2": null, "address_3": null, "city": "Pittsboro", "state_province": "North Carolina", "postal_code": "27312-8872", "country": "United States", "longitude": "-79.1652429", "latitude": "35.7438093", "phone": "9195452337", "website_url": "http://www.carolinabrewery.com", "state": "North Carolina", "street": "120 Lowes Dr Ste 100"}, {"id": "76d1605e-55fc-4c6b-8ba2-7a8d30eac9f6", "name": "Carolina Brewing Co", "brewery_type": "micro", "address_1": "140 Thomas Mill Rd", "address_2": null, "address_3": null, "city": "Holly Springs", "state_province": "North Carolina", "postal_code": "27540-9372", "country": "United States", "longitude": "-78.85444105", "latitude": "35.6561051", "phone": "9195572337", "website_url": "http://www.carolinabrew.com", "state": "North Carolina", "street": "140 Thomas Mill Rd"}, {"id": "e86edb51-0915-4c48-af9a-db55ae5156ff", "name": "Carroll Brewing Co.", "brewery_type": "micro", "address_1": "226 E 5th St", "address_2": null, "address_3": null, "city": "Carroll", "state_province": "Iowa", "postal_code": "51401-2743", "country": "United States", "longitude": "-94.86534008", "latitude": "42.06385868", "phone": "5157090030", "website_url": "http://www.carrollbrewing.com", "state": "Iowa", "street": "226 E 5th St"}, {"id": "d8ec5a8b-a005-492b-aa90-87aad31fe060", "name": "Carson's Brewery", "brewery_type": "micro", "address_1": "2404 Lynch Rd", "address_2": null, "address_3": null, "city": "Evansville", "state_province": "Indiana", "postal_code": "47711-2953", "country": "United States", "longitude": null, "latitude": null, "phone": "8127598229", "website_url": "http://www.carsonsbrewery.com", "state": "Indiana", "street": "2404 Lynch Rd"}, {"id": "808baca1-ffa2-4ee5-8810-77e1b058f0be", "name": "Carters Brewing", "brewery_type": "micro", "address_1": "2526 Montana Ave", "address_2": null, "address_3": null, "city": "Billings", "state_province": "Montana", "postal_code": "59101-2313", "country": "United States", "longitude": "-108.5016538", "latitude": "45.78291334", "phone": "4068617712", "website_url": "http://www.cartersbrewing.com", "state": "Montana", "street": "2526 Montana Ave"}, {"id": "58bf2433-166c-4880-9f9f-aed22abb8d4a", "name": "Carton Brewing Co", "brewery_type": "micro", "address_1": "6 E Washington Ave", "address_2": null, "address_3": null, "city": "Atlantic Highlands", "state_province": "New Jersey", "postal_code": "07716-1230", "country": "United States", "longitude": "-74.0381651", "latitude": "40.4117685", "phone": "7326542337", "website_url": "http://www.cartonbrewing.com", "state": "New Jersey", "street": "6 E Washington Ave"}, {"id": "8b44ff77-fb30-4b24-afa6-844d9af5c8af", "name": "Carver Brewing Co", "brewery_type": "brewpub", "address_1": "1022 Main Ave", "address_2": null, "address_3": null, "city": "Durango", "state_province": "Colorado", "postal_code": "81301-5124", "country": "United States", "longitude": "-107.8800415", "latitude": "37.2748415", "phone": "9702592545", "website_url": "http://carverbrewing.com", "state": "Colorado", "street": "1022 Main Ave"}, {"id": "acdc94d7-84a9-49d4-b604-cdb737ca2834", "name": "Cary Ale House", "brewery_type": "brewpub", "address_1": "208 W Main St Lowr 1", "address_2": null, "address_3": null, "city": "Cary", "state_province": "Illinois", "postal_code": "60013-2786", "country": "United States", "longitude": null, "latitude": null, "phone": "8476397244", "website_url": "http://caryalehousebrewing.com", "state": "Illinois", "street": "208 W Main St Lowr 1"}, {"id": "e35cdda6-f0be-4e2a-890c-bdb6659f581e", "name": "Casa Agria Specialty Ales", "brewery_type": "proprietor", "address_1": "701 del Norte Blvd Ste 310", "address_2": null, "address_3": null, "city": "Oxnard", "state_province": "California", "postal_code": "93030-7980", "country": "United States", "longitude": "-119.1276491", "latitude": "34.20845783", "phone": "8054851454", "website_url": null, "state": "California", "street": "701 del Norte Blvd Ste 310"}, {"id": "a38bc569-6c71-4356-8456-e3a7bf13eab9", "name": "Casa Vieja LLC", "brewery_type": "planning", "address_1": null, "address_2": null, "address_3": null, "city": "Corrales", "state_province": "New Mexico", "postal_code": "87048-8616", "country": "United States", "longitude": null, "latitude": null, "phone": "5052691919", "website_url": "http://www.casaviejaevents.com", "state": "New Mexico", "street": null}, {"id": "e3e0de2f-3ec3-4143-a278-efa284b6835c", "name": "Cascade Brewing", "brewery_type": "brewpub", "address_1": "7424 SW Beaverton Hillsdale Hwy", "address_2": null, "address_3": null, "city": "Portland", "state_province": "Oregon", "postal_code": "97225-2149", "country": "United States", "longitude": "-122.699417", "latitude": "45.478513", "phone": "5032960110", "website_url": "http://www.cascadebrewing.com", "state": "Oregon", "street": "7424 SW Beaverton Hillsdale Hwy"}, {"id": "dd09fff1-43e0-42e7-b9c6-88e804053082", "name": "Cascade Brewing Barrel House", "brewery_type": "micro", "address_1": "939 SE Belmont St", "address_2": null, "address_3": null, "city": "Portland", "state_province": "Oregon", "postal_code": "97214-2519", "country": "United States", "longitude": "-122.6560057", "latitude": "45.5167536", "phone": "5032658603", "website_url": "http://www.cascadebrewing.com", "state": "Oregon", "street": "939 SE Belmont St"}, {"id": "972e11db-ca46-4a75-bef1-24c596036a66", "name": "Cascade Brewing Blending House", "brewery_type": "micro", "address_1": "6770 SW 111th Ave", "address_2": null, "address_3": null, "city": "Beaverton", "state_province": "Oregon", "postal_code": "97008-5336", "country": "United States", "longitude": "-122.7900557", "latitude": "45.4709556", "phone": "5033660730", "website_url": "http://www.cascadebrewing.com", "state": "Oregon", "street": "6770 SW 111th Ave"}, {"id": "977d5b69-e92b-4f9b-8c1d-67f9e481365c", "name": "Cascade Lakes Brewing Co", "brewery_type": "micro", "address_1": "2141 SW 1st St", "address_2": null, "address_3": null, "city": "Redmond", "state_province": "Oregon", "postal_code": "97756-7131", "country": "United States", "longitude": "-121.1700542", "latitude": "44.26491002", "phone": "5419233110", "website_url": "http://www.cascadelakes.com", "state": "Oregon", "street": "2141 SW 1st St"}, {"id": "2e7ae73a-42cf-4e35-89c2-41d5557727eb", "name": "Cascadia Brewing Co.", "brewery_type": "closed", "address_1": "211 4th Ave E", "address_2": null, "address_3": null, "city": "Olympia", "state_province": "Washington", "postal_code": "98501-1104", "country": "United States", "longitude": "-122.900174", "latitude": "47.04491273", "phone": "3609432337", "website_url": "http://www.cascadiahomebrew.com", "state": "Washington", "street": "211 4th Ave E"}, {"id": "180883d5-ee43-4a24-b7b8-b385358eddd1", "name": "Casey Brewing and Blending", "brewery_type": "micro", "address_1": "3421 Grand Ave Ste 4D", "address_2": null, "address_3": null, "city": "Glenwood Springs", "state_province": "Colorado", "postal_code": "81601-4493", "country": "United States", "longitude": null, "latitude": null, "phone": "9702309691", "website_url": "http://www.caseybrewing.com", "state": "Colorado", "street": "3421 Grand Ave Ste 4D"}]