[{"id": "39a858eb-c5a5-4945-833f-94e0275e79b5", "name": "St Arnulf Alery", "brewery_type": "micro", "address_1": "3152 Kings Chapel Rd", "address_2": null, "address_3": null, "city": "Cadiz", "state_province": "Kentucky", "postal_code": "42211-0000", "country": "United States", "longitude": null, "latitude": null, "phone": "5023094703", "website_url": null, "state": "Kentucky", "street": "3152 Kings Chapel Rd"}, {"id": "54b60883-bd42-4a2a-a9a3-d1581e9ee648", "name": "St Brigid's Brewery", "brewery_type": "brewpub", "address_1": "606 W Broadway Ave", "address_2": null, "address_3": null, "city": "Moses Lake", "state_province": "Washington", "postal_code": "98837-1900", "country": "United States", "longitude": "-119.2850962", "latitude": "47.12808368", "phone": "5097508357", "website_url": "http://www.stbrigidsbrewery.com", "state": "Washington", "street": "606 W Broadway Ave"}, {"id": "939ad04e-cc0c-4998-a586-07e96dbec2b7", "name": "St Clair Brown Winery & Brewery", "brewery_type": "micro", "address_1": "816 Vallejo St", "address_2": null, "address_3": null, "city": "Napa", "state_province": "California", "postal_code": "94559", "country": "United States", "longitude": "-122.286082", "latitude": "38.304877", "phone": "7072555591", "website_url": "http://www.stclairbrownwinery.com", "state": "California", "street": "816 Vallejo St"}, {"id": "af822c22-b3af-4258-be3d-50f7b19775bd", "name": "St Elias Brewing Co", "brewery_type": "micro", "address_1": "434 Sharkathmi Ave", "address_2": null, "address_3": null, "city": "Soldotna", "state_province": "Alaska", "postal_code": "99669-7665", "country": "United States", "longitude": "-151.0472293", "latitude": "60.49148673", "phone": "9072607837", "website_url": "http://steliasbrewingco.com", "state": "Alaska", "street": "434 Sharkathmi Ave"}, {"id": "495b5dbf-29bc-45c0-ba38-1ac315e048df", "name": "St John Malt Brothers Brewing", "brewery_type": "brewpub", "address_1": "9607 Wicker Ave", "address_2": null, "address_3": null, "city": "Saint John", "state_province": "Indiana", "postal_code": "46373-9487", "country": "United States", "longitude": "-87.46998163", "latitude": "41.44507008", "phone": "2196274294", "website_url": "http://www.sjmaltbros.com", "state": "Indiana", "street": "9607 Wicker Ave"}, {"id": "f81bd920-0c44-4b6a-80c3-56d85bae7e63", "name": "St Nicholas Brewing Co", "brewery_type": "brewpub", "address_1": "12 S Oak St", "address_2": null, "address_3": null, "city": "Du Quoin", "state_province": "Illinois", "postal_code": "62832-1515", "country": "United States", "longitude": "-89.23946916", "latitude": "38.01026114", "phone": "6187909212", "website_url": null, "state": "Illinois", "street": "12 S Oak St"}, {"id": "0d38db8d-fab3-44f6-985e-a84daf3a375f", "name": "St. Benedict's Brew Works", "brewery_type": "micro", "address_1": "860 E 10th St", "address_2": null, "address_3": null, "city": "Ferdinand", "state_province": "Indiana", "postal_code": "47532-9240", "country": "United States", "longitude": "-86.85419491", "latitude": "38.2242289", "phone": "8129982337", "website_url": "http://www.saintbenedictsbrewworks.com", "state": "Indiana", "street": "860 E 10th St"}, {"id": "34998893-151f-45cd-8868-39ece0153f71", "name": "St. Elmo Brewing Company", "brewery_type": "micro", "address_1": "440 E Saint Elmo Rd", "address_2": null, "address_3": null, "city": "Austin", "state_province": "Texas", "postal_code": "78745-1281", "country": "United States", "longitude": "-97.7611749", "latitude": "30.2174321", "phone": "7373001965", "website_url": "http://www.stelmobrewing.com", "state": "Texas", "street": "440 E Saint Elmo Rd"}, {"id": "2cffa385-76b3-4165-b9fc-c04afe0d0111", "name": "St. Florian's Brewery", "brewery_type": "closed", "address_1": "7704 Bell Rd Ste A", "address_2": null, "address_3": null, "city": "Windsor", "state_province": "California", "postal_code": "95492-8518", "country": "United States", "longitude": "-122.8033977", "latitude": "38.53735645", "phone": "7078382739", "website_url": "http://www.stfloriansbrewery.com", "state": "California", "street": "7704 Bell Rd Ste A"}, {"id": "f46a0c87-024d-42b5-ab54-3b41c202276d", "name": "St. Francis Brewing Company", "brewery_type": "brewpub", "address_1": "3825 S Kinnickinnic Ave", "address_2": null, "address_3": null, "city": "Saint Francis", "state_province": "Wisconsin", "postal_code": "53235-4225", "country": "United States", "longitude": "-87.875747", "latitude": "42.97452", "phone": "4147444448", "website_url": "http://www.stfrancisbrewery.com", "state": "Wisconsin", "street": "3825 S Kinnickinnic Ave"}, {"id": "086e6663-04da-4d88-a813-d5ea1fa579f3", "name": "St. Joseph Brewery & Public House", "brewery_type": "brewpub", "address_1": "540 N College Ave", "address_2": null, "address_3": null, "city": "Indianapolis", "state_province": "Indiana", "postal_code": "46202-3504", "country": "United States", "longitude": "-86.1449174", "latitude": "39.8095687", "phone": "3176025670", "website_url": "http://www.saintjoseph.beer.com", "state": "Indiana", "street": "540 N College Ave"}, {"id": "18ec104f-d648-4119-a926-39d3f5232945", "name": "St. Mel's Brewing Company", "brewery_type": "micro", "address_1": "Unit 4 Longford Community Enterprise Centre", "address_2": "Ballinalee Rd", "address_3": null, "city": "Longford", "state_province": "Longford", "postal_code": "N39 K2Y0", "country": "Ireland", "longitude": "-7.7844491", "latitude": "53.7335776", "phone": "353433348335", "website_url": "https://www.stmelsbrewing.com/", "state": "Longford", "street": "Unit 4 Longford Community Enterprise Centre"}, {"id": "fd0debe1-ea74-4e3e-b724-2efb69def9de", "name": "St. Pete Brewing Company", "brewery_type": "micro", "address_1": "544 1st Ave N\u00c2\u00a0", "address_2": null, "address_3": null, "city": "Saint Petersburg", "state_province": "Florida", "postal_code": "33701-3702", "country": "United States", "longitude": "-82.64102088", "latitude": "27.77179015", "phone": "7276928809", "website_url": "http://www.stpetebrewingcompany.com", "state": "Florida", "street": "544 1st Ave N\u00c2\u00a0"}, {"id": "ac9ab389-9f5d-465a-a4fe-3634cb34de6f", "name": "Staas Brewing Company", "brewery_type": "micro", "address_1": "31 W Winter St", "address_2": null, "address_3": null, "city": "Delaware", "state_province": "Ohio", "postal_code": "43015-1948", "country": "United States", "longitude": "-83.069285", "latitude": "40.300173", "phone": "7404174690", "website_url": "http://www.staasbrewing.com", "state": "Ohio", "street": "31 W Winter St"}, {"id": "525c36b6-823a-4a5a-b25c-054748e6e6a4", "name": "Stable 12 Brewing Company", "brewery_type": "brewpub", "address_1": "368 Bridge St", "address_2": null, "address_3": null, "city": "Phoenixville", "state_province": "Pennsylvania", "postal_code": "19460-3358", "country": "United States", "longitude": "-75.5195231", "latitude": "40.1335808", "phone": null, "website_url": "http://www.stable12.com", "state": "Pennsylvania", "street": "368 Bridge St"}, {"id": "a25ccbc8-adc1-4ae9-ae59-af0ede4a4f24", "name": "Stable Craft Brewing", "brewery_type": "brewpub", "address_1": "375 Madrid Rd", "address_2": null, "address_3": null, "city": "Waynesboro", "state_province": "Virginia", "postal_code": "22980-6230", "country": "United States", "longitude": null, "latitude": null, "phone": "5404902609", "website_url": "http://www.stablecraftbrewing.com", "state": "Virginia", "street": "375 Madrid Rd"}, {"id": "977bad75-df98-4e2e-ad5a-ac2c6c22d120", "name": "Stache Rabbit Brewing Company", "brewery_type": "planning", "address_1": null, "address_2": null, "address_3": null, "city": "Austin", "state_province": "Texas", "postal_code": "78727-5907", "country": "United States", "longitude": null, "latitude": null, "phone": null, "website_url": null, "state": "Texas", "street": null}, {"id": "87465738-6b69-49d2-9879-f330924a1d25", "name": "Stacked Deck Brewing", "brewery_type": "planning", "address_1": null, "address_2": null, "address_3": null, "city": "Saint Paul", "state_province": "Minnesota", "postal_code": "55101-1712", "country": "United States", "longitude": null, "latitude": null, "phone": "6512145448", "website_url": "http://www.stackeddeckbrewing.com", "state": "Minnesota", "street": null}, {"id": "582ab28e-02b0-4b32-af6a-8e216c61ea1e", "name": "Stadium Brewing Co", "brewery_type": "brewpub", "address_1": "26731 Aliso Creek Rd Ste C", "address_2": null, "address_3": null, "city": "Aliso Viejo", "state_province": "California", "postal_code": "92656-4811", "country": "United States", "longitude": "-117.7264877", "latitude": "33.57546729", "phone": "9494489611", "website_url": "http://www.stadiumbrewingco.com", "state": "California", "street": "26731 Aliso Creek Rd Ste C"}, {"id": "40fddccc-5f32-4857-b367-0bb27025881a", "name": "Stadium Pizza - Murrieta", "brewery_type": "brewpub", "address_1": "32278 Clinton Keith Rd Ste 101", "address_2": null, "address_3": null, "city": "Wildomar", "state_province": "California", "postal_code": "92595-7314", "country": "United States", "longitude": "-117.2479529", "latitude": "33.5934458", "phone": "9516787826", "website_url": "http://www.stadiumpizza.com", "state": "California", "street": "32278 Clinton Keith Rd Ste 101"}, {"id": "ec60f341-addb-4b7d-be05-d4c88fdb15f6", "name": "Stadium Pizza Main ST", "brewery_type": "brewpub", "address_1": "169 N Main St", "address_2": null, "address_3": null, "city": "Lake Elsinore", "state_province": "California", "postal_code": "92530-4005", "country": "United States", "longitude": "-117.32741", "latitude": "33.66945923", "phone": "9512282128", "website_url": "http://www.stadiumpizza.com", "state": "California", "street": "169 N Main St"}, {"id": "e8875dc6-aa58-4c97-90d5-7b5c4fa07d83", "name": "Stained Glass Beerworks", "brewery_type": "planning", "address_1": null, "address_2": null, "address_3": null, "city": "Houston", "state_province": "Texas", "postal_code": "77066-2310", "country": "United States", "longitude": null, "latitude": null, "phone": "7134529337", "website_url": "http://www.stainedglassbeerworks.com", "state": "Texas", "street": null}, {"id": "9b20b1ab-a897-4f76-9cd5-398519aeee86", "name": "Standard Brewing", "brewery_type": "brewpub", "address_1": "2504 S Jackson St Ste C", "address_2": null, "address_3": null, "city": "Seattle", "state_province": "Washington", "postal_code": "98144-2382", "country": "United States", "longitude": null, "latitude": null, "phone": "2065351584", "website_url": "http://www.standardbrew.com", "state": "Washington", "street": "2504 S Jackson St Ste C"}, {"id": "ec7a9bb2-e833-4221-a51a-579b5168d4af", "name": "Standard Deviant Brewing", "brewery_type": "micro", "address_1": "280 14th St", "address_2": null, "address_3": null, "city": "San Francisco", "state_province": "California", "postal_code": "94103-2420", "country": "United States", "longitude": "-122.4195984", "latitude": "37.76837929", "phone": "4155902550", "website_url": "http://www.standarddeviantbrewing.com", "state": "California", "street": "280 14th St"}, {"id": "3fc5efe8-363a-4251-89e3-520d90075666", "name": "Standing Stone Brewing Co", "brewery_type": "micro", "address_1": "101 Oak St", "address_2": null, "address_3": null, "city": "Ashland", "state_province": "Oregon", "postal_code": "97520-1802", "country": "United States", "longitude": "-122.7145793", "latitude": "42.1976451", "phone": "5414822448", "website_url": "http://www.standingstonebrewing.com", "state": "Oregon", "street": "101 Oak St"}, {"id": "58d2b5a4-e234-44fb-b51b-3a4322ab1329", "name": "Star B Ranch", "brewery_type": "planning", "address_1": null, "address_2": null, "address_3": null, "city": "Ramona", "state_province": "California", "postal_code": "92065-6714", "country": "United States", "longitude": "-116.8675132", "latitude": "33.035378", "phone": null, "website_url": null, "state": "California", "street": null}, {"id": "121e183d-f8b2-4b24-8d45-a12a318f0629", "name": "Star City Brewing Company", "brewery_type": "micro", "address_1": "319 S 2nd St", "address_2": null, "address_3": null, "city": "Miamisburg", "state_province": "Ohio", "postal_code": "45342-2926", "country": "United States", "longitude": "-84.28859645", "latitude": "39.6379944", "phone": "9377017827", "website_url": "http://www.starcitybrewing.com", "state": "Ohio", "street": "319 S 2nd St"}, {"id": "0a1697ea-5f82-4b35-8fe5-c3cd470f04d1", "name": "Starboard Brewing Co", "brewery_type": "brewpub", "address_1": "151 N 3rd Ave", "address_2": null, "address_3": null, "city": "Sturgeon Bay", "state_province": "Wisconsin", "postal_code": "54235-2415", "country": "United States", "longitude": "-87.37752984", "latitude": "44.83540984", "phone": "9208181062", "website_url": "http://www.starboardbrewing.com", "state": "Wisconsin", "street": "151 N 3rd Ave"}, {"id": "03667e97-bece-4519-80c1-0aafc0f90403", "name": "Stargazer Brewing Company", "brewery_type": "planning", "address_1": null, "address_2": null, "address_3": null, "city": "Coatesville", "state_province": "Pennsylvania", "postal_code": "19320", "country": "United States", "longitude": null, "latitude": null, "phone": "6102096346", "website_url": null, "state": "Pennsylvania", "street": null}, {"id": "9432a764-13ba-4672-83f8-1e2012dd660b", "name": "Stark Brewing Company", "brewery_type": "brewpub", "address_1": "500 North Commercial St", "address_2": null, "address_3": null, "city": "Manchester", "state_province": "New Hampshire", "postal_code": "03101-1151", "country": "United States", "longitude": "-71.4676557", "latitude": "42.9945554", "phone": "6036254444", "website_url": "http://www.starkbrewingcompany.com", "state": "New Hampshire", "street": "500 North Commercial St"}, {"id": "dc52c24c-dd41-4c5f-b25f-7969dbc1a035", "name": "Starpoint Brewing, LLC", "brewery_type": "micro", "address_1": "901 Clarence Dr", "address_2": null, "address_3": null, "city": "Chapel Hill", "state_province": "North Carolina", "postal_code": "27516-3145", "country": "United States", "longitude": null, "latitude": null, "phone": "9195232302", "website_url": "http://starpointbrewing.com", "state": "North Carolina", "street": "901 Clarence Dr"}, {"id": "a9441b9a-abbf-4b32-ba73-ee112330ecbc", "name": "Starpoint Brewing, LLC / Beer Study", "brewery_type": "micro", "address_1": "2501 University Dr Ste 4", "address_2": null, "address_3": null, "city": "Chapel Hill", "state_province": "North Carolina", "postal_code": "22707", "country": "United States", "longitude": null, "latitude": null, "phone": "9842197538", "website_url": "http://www.drinkdurham.com", "state": "North Carolina", "street": "2501 University Dr Ste 4"}, {"id": "c483ea80-d10a-497f-9f02-47e8a4b23861", "name": "Starr Brothers Brewing Co.", "brewery_type": "brewpub", "address_1": "5700 San Antonio Dr NE Ste B1", "address_2": null, "address_3": null, "city": "Albuquerque", "state_province": "New Mexico", "postal_code": "87109-4179", "country": "United States", "longitude": null, "latitude": null, "phone": "5054922752", "website_url": "http://starrbrothersbrewing.com", "state": "New Mexico", "street": "5700 San Antonio Dr NE Ste B1"}, {"id": "87832f67-9efa-4d30-9a10-f52fce61d062", "name": "Starr Hill Brewery LLC", "brewery_type": "regional", "address_1": "5391 Three Notch D Rd", "address_2": null, "address_3": null, "city": "Crozet", "state_province": "Virginia", "postal_code": "22932-3181", "country": "United States", "longitude": null, "latitude": null, "phone": "4348235671", "website_url": "http://www.starrhill.com", "state": "Virginia", "street": "5391 Three Notch D Rd"}, {"id": "7c9fbe58-ea1a-4dd3-bb0f-f1ae386357bd", "name": "Starr Hill Pilot Brewery & Side Stage", "brewery_type": "micro", "address_1": "6 Old Whitmore Ave SE", "address_2": null, "address_3": null, "city": "Roanoke", "state_province": "Virginia", "postal_code": "24016-1212", "country": "United States", "longitude": null, "latitude": null, "phone": "4348235671", "website_url": null, "state": "Virginia", "street": "6 Old Whitmore Ave SE"}, {"id": "11c5fe19-a115-4284-bae8-b24ba3841f35", "name": "Starry Eyed Brewing Company", "brewery_type": "micro", "address_1": "16757 11th St NE", "address_2": null, "address_3": null, "city": "Little Falls", "state_province": "Minnesota", "postal_code": "56345-2203", "country": "United States", "longitude": "-94.3451474", "latitude": "45.9831733", "phone": "3202320382", "website_url": "http://www.starryeyedbrewing.com", "state": "Minnesota", "street": "16757 11th St NE"}, {"id": "851420af-9b77-498f-ac1b-43daddc03941", "name": "Start Line Brewing Company", "brewery_type": "micro", "address_1": "151R Hayden Rowe St", "address_2": null, "address_3": null, "city": "Hopkinton", "state_province": "Massachusetts", "postal_code": "01748-2511", "country": "United States", "longitude": "-71.51323676", "latitude": "42.21031634", "phone": "5087612044", "website_url": "http://www.startlinebrewing.com", "state": "Massachusetts", "street": "151R Hayden Rowe St"}, {"id": "481a0ead-5e95-451e-a431-ba8972b7e5ea", "name": "Starving Artist Brewing", "brewery_type": "micro", "address_1": "634 S Stiles Rd", "address_2": null, "address_3": null, "city": "Ludington", "state_province": "Michigan", "postal_code": "49431-9311", "country": "United States", "longitude": null, "latitude": null, "phone": "2317941399", "website_url": "http://starvingartist.beer", "state": "Michigan", "street": "634 S Stiles Rd"}, {"id": "91420d9d-1087-4602-b078-780f33fa6f05", "name": "Stash Brewing Co", "brewery_type": "closed", "address_1": "3782 Winding Creek Ln", "address_2": null, "address_3": null, "city": "Garden Valley", "state_province": "California", "postal_code": "95633-9773", "country": "United States", "longitude": "-120.8784951", "latitude": "38.8402775", "phone": "4156804181", "website_url": "http://stashbrewingco.com", "state": "California", "street": "3782 Winding Creek Ln"}, {"id": "436846b7-4538-4d89-b919-2396c7f00ab8", "name": "State 48 Barrel and Lager House", "brewery_type": "planning", "address_1": null, "address_2": null, "address_3": null, "city": "Scottsdale", "state_province": "Arizona", "postal_code": "85260-1924", "country": "United States", "longitude": "-111.8992365", "latitude": "33.5091215", "phone": null, "website_url": null, "state": "Arizona", "street": null}, {"id": "6260eac2-6949-4c19-aec9-739c2cdcf849", "name": "State 48 Brewery", "brewery_type": "planning", "address_1": null, "address_2": null, "address_3": null, "city": "Phoenix", "state_province": "Arizona", "postal_code": "85003-1626", "country": "United States", "longitude": "-112.0773456", "latitude": "33.4485866", "phone": null, "website_url": null, "state": "Arizona", "street": null}, {"id": "733fcd37-636e-469f-b8fa-6b928d009d89", "name": "State 48 Brewery", "brewery_type": "brewpub", "address_1": "13823 W Bell Rd", "address_2": null, "address_3": null, "city": "Surprise", "state_province": "Arizona", "postal_code": "85374-3873", "country": "United States", "longitude": "-112.3578138", "latitude": "33.63822125", "phone": "6235841095", "website_url": null, "state": "Arizona", "street": "13823 W Bell Rd"}, {"id": "1f1449bb-4f21-4fa7-b542-625e13ad02d5", "name": "State Brewing Co LLC", "brewery_type": "closed", "address_1": "1237 W 134th St Ste 2", "address_2": null, "address_3": null, "city": "Gardena", "state_province": "California", "postal_code": "90247-1962", "country": "United States", "longitude": "-118.2978732", "latitude": "33.91111274", "phone": "3108198179", "website_url": "http://www.statebrewingco.com", "state": "California", "street": "1237 W 134th St Ste 2"}, {"id": "f72d12e9-ae13-4184-952c-3ea501798e94", "name": "State Room Brewery", "brewery_type": "brewpub", "address_1": "1132 4th St", "address_2": null, "address_3": null, "city": "San Rafael", "state_province": "California", "postal_code": "94901-3007", "country": "United States", "longitude": "-122.5286585", "latitude": "37.97327448", "phone": "4152957929", "website_url": "http://stateroombrewery.com", "state": "California", "street": "1132 4th St"}, {"id": "aa3e7b92-9943-4fc3-ab99-0c68e8045088", "name": "Stateline Brewery", "brewery_type": "brewpub", "address_1": "4118 Lake Tahoe Blvd Ste 1", "address_2": null, "address_3": null, "city": "South Lake Tahoe", "state_province": "California", "postal_code": "96150-6990", "country": "United States", "longitude": "-119.9424674", "latitude": "38.95801631", "phone": "5305429000", "website_url": "http://www.statelinebrewery.com", "state": "California", "street": "4118 Lake Tahoe Blvd Ste 1"}, {"id": "d04514b9-1c70-4e28-a603-cb7a70da3045", "name": "Staten Island Beer Company", "brewery_type": "micro", "address_1": "20 Kinsey Pl", "address_2": null, "address_3": null, "city": "Staten Island", "state_province": "New York", "postal_code": "10303-1427", "country": "United States", "longitude": "-74.17033729", "latitude": "40.62874743", "phone": "7183908445", "website_url": "http://www.sibeerco.com", "state": "New York", "street": "20 Kinsey Pl"}, {"id": "11977488-1872-4b1b-9e28-f9c68f9db873", "name": "Station 26 Brewing Co", "brewery_type": "micro", "address_1": "7045 E 38th Ave", "address_2": null, "address_3": null, "city": "Denver", "state_province": "Colorado", "postal_code": "80207-1541", "country": "United States", "longitude": "-104.9062608", "latitude": "39.76935335", "phone": null, "website_url": "http://www.station26brewing.co", "state": "Colorado", "street": "7045 E 38th Ave"}, {"id": "d11fa007-74a5-456a-b508-bce3dfe51414", "name": "Stats Brewpub", "brewery_type": "brewpub", "address_1": "300 Marietta St NW", "address_2": null, "address_3": null, "city": "Atlanta", "state_province": "Georgia", "postal_code": "30313-1632", "country": "United States", "longitude": "-84.3964736", "latitude": "33.7615549", "phone": "7705700160", "website_url": "http://StatsATL.com", "state": "Georgia", "street": "300 Marietta St NW"}, {"id": "1cebb6fc-f76e-432e-a55d-a58c3d1dbffd", "name": "Staunton River Brewing Company", "brewery_type": "micro", "address_1": "1571 Mount Calvary Rd", "address_2": null, "address_3": null, "city": "Brookneal", "state_province": "Virginia", "postal_code": "24528-3156", "country": "United States", "longitude": null, "latitude": null, "phone": "4343769463", "website_url": "http://www.stauntonriverbrewing.com", "state": "Virginia", "street": "1571 Mount Calvary Rd"}, {"id": "ae5ab620-975f-4ee3-8625-07b93d9ff0f6", "name": "Steadfast Beer Co", "brewery_type": "contract", "address_1": "1756 Western Ave Rear", "address_2": null, "address_3": null, "city": "Albany", "state_province": "New York", "postal_code": "12203-4414", "country": "United States", "longitude": null, "latitude": null, "phone": null, "website_url": "http://www.steadfastbeer.com", "state": "New York", "street": "1756 Western Ave Rear"}, {"id": "2a69f497-409e-4c1f-bfd2-0c51be6c0287", "name": "Steady Brewing", "brewery_type": "micro", "address_1": "2936 Clark Ave", "address_2": null, "address_3": null, "city": "Long Beach", "state_province": "California", "postal_code": "90815", "country": "United States", "longitude": "-118.133923", "latitude": "33.825078", "phone": "5623516793", "website_url": "http://Www.steadybrewing.com", "state": "California", "street": "2936 Clark Ave"}, {"id": "e4fcbf74-5b11-4e1b-8e90-854a041b5bda", "name": "Steady Habit Brewing Company", "brewery_type": "closed", "address_1": "95 Bridge Rd", "address_2": null, "address_3": null, "city": "Haddam", "state_province": "Connecticut", "postal_code": "06438-1354", "country": "United States", "longitude": null, "latitude": null, "phone": "8607775041", "website_url": null, "state": "Connecticut", "street": "95 Bridge Rd"}, {"id": "fb49c03e-5117-4969-87ad-4ae6f1b71831", "name": "Steam Bell Beer Works", "brewery_type": "micro", "address_1": "1717 Oak Lake Blvd E", "address_2": null, "address_3": null, "city": "Midlothian", "state_province": "Virginia", "postal_code": "23112-3995", "country": "United States", "longitude": null, "latitude": null, "phone": "8047281876", "website_url": "http://www.steambell.beer", "state": "Virginia", "street": "1717 Oak Lake Blvd E"}, {"id": "8de57d40-c837-4d77-9275-e827ddc43675", "name": "Steam Donkey Brewing Co", "brewery_type": "micro", "address_1": "101 E Wishkah St", "address_2": null, "address_3": null, "city": "Aberdeen", "state_province": "Washington", "postal_code": "98520-6503", "country": "United States", "longitude": "-123.81773", "latitude": "46.974242", "phone": "3606379431", "website_url": "http://Steamdonkeybrewing.com", "state": "Washington", "street": "101 E Wishkah St"}, {"id": "f0ccfae1-90ea-44bb-8b23-9c57fb4aa836", "name": "Steam Plant Grill", "brewery_type": "brewpub", "address_1": "159 S Lincoln St Ste 1", "address_2": null, "address_3": null, "city": "Spokane", "state_province": "Washington", "postal_code": "99201-4409", "country": "United States", "longitude": null, "latitude": null, "phone": "5097773900", "website_url": "http://www.steamplantspokane.com", "state": "Washington", "street": "159 S Lincoln St Ste 1"}, {"id": "c04f39d4-df5f-48d4-9645-148072eeb9f5", "name": "Steam Theory Brewing Co", "brewery_type": "planning", "address_1": null, "address_2": null, "address_3": null, "city": "Dallas", "state_province": "Texas", "postal_code": "75212-4101", "country": "United States", "longitude": null, "latitude": null, "phone": null, "website_url": "http://www.steamtheorybrewing.com", "state": "Texas", "street": null}, {"id": "279c975d-899d-45a9-9655-ab335b6ebf60", "name": "Steampunk Brew Works", "brewery_type": "micro", "address_1": "231 Lamp and Lantern Vlg", "address_2": null, "address_3": null, "city": "Chesterfield", "state_province": "Missouri", "postal_code": "63017-8209", "country": "United States", "longitude": "-90.517873", "latitude": "38.625963", "phone": "6362308277", "website_url": "http://www.steampunkbrewworks.com", "state": "Missouri", "street": "231 Lamp and Lantern Vlg"}, {"id": "a6d2caab-e4de-42dc-8ff0-8daceeb843f5", "name": "Steamworks Brewing Co", "brewery_type": "brewpub", "address_1": "801 E 2nd Ave", "address_2": null, "address_3": null, "city": "Durango", "state_province": "Colorado", "postal_code": "81301-5425", "country": "United States", "longitude": "-107.87979", "latitude": "37.272176", "phone": "9702599200", "website_url": "http://www.steamworksbrewing.com", "state": "Colorado", "street": "801 E 2nd Ave"}, {"id": "e1bcecf4-738e-41e0-a2c8-c0fca901a0e2", "name": "Steel Bender Brewyard", "brewery_type": "brewpub", "address_1": "8305 2nd St NW", "address_2": null, "address_3": null, "city": "Los Ranchos de Albuquerque", "state_province": "New Mexico", "postal_code": "87114-1038", "country": "United States", "longitude": null, "latitude": null, "phone": "5054333537", "website_url": "http://www.steelbenderbrewyard.com", "state": "New Mexico", "street": "8305 2nd St NW"}, {"id": "4c64c6ac-e0aa-4b2b-bec9-121539fc21ec", "name": "Steel Bonnet Brewing Co", "brewery_type": "micro", "address_1": "20 Victor Sq Ste B", "address_2": null, "address_3": null, "city": "Scotts Valley", "state_province": "California", "postal_code": "95066-3518", "country": "United States", "longitude": "-122.0061729", "latitude": "37.06188758", "phone": "8314548429", "website_url": "http://www.steelbon.net", "state": "California", "street": "20 Victor Sq Ste B"}, {"id": "259c6bad-d77b-4e96-99ba-78873517c6ca", "name": "Steel Hands Brewing", "brewery_type": "planning", "address_1": null, "address_2": null, "address_3": null, "city": "Cayce", "state_province": "South Carolina", "postal_code": "29033-3439", "country": "United States", "longitude": null, "latitude": null, "phone": "8039200592", "website_url": null, "state": "South Carolina", "street": null}, {"id": "1638e0aa-5017-4c87-9b60-4de2a5b4d8f4", "name": "Steel Squared Brewing Company", "brewery_type": "contract", "address_1": "1597 Tiffany Ct", "address_2": null, "address_3": null, "city": "de Pere", "state_province": "Wisconsin", "postal_code": "54115-9042", "country": "United States", "longitude": null, "latitude": null, "phone": null, "website_url": null, "state": "Wisconsin", "street": "1597 Tiffany Ct"}, {"id": "8016ba19-ba7a-4ea1-bd8f-86203aa8fa08", "name": "Steel String Craft Brewery", "brewery_type": "brewpub", "address_1": "106 S Greensboro St Ste A", "address_2": null, "address_3": null, "city": "Carrboro", "state_province": "North Carolina", "postal_code": "27510-2266", "country": "United States", "longitude": null, "latitude": null, "phone": "9192407215", "website_url": "http://www.steelstringbrewery.com", "state": "North Carolina", "street": "106 S Greensboro St Ste A"}, {"id": "d469044a-3e41-4b21-8112-582d47a656a7", "name": "Steel Toe Brewing", "brewery_type": "micro", "address_1": "4848 W 35th St", "address_2": null, "address_3": null, "city": "St Louis Park", "state_province": "Minnesota", "postal_code": "55416-2610", "country": "United States", "longitude": "-93.34180586", "latitude": "44.94042645", "phone": "9529559965", "website_url": "http://www.steeltoebrewing.com", "state": "Minnesota", "street": "4848 W 35th St"}, {"id": "15971ca8-5993-4fb0-8fe3-f68f2860d00a", "name": "Steele and Hops Public House", "brewery_type": "brewpub", "address_1": "1901 Mendocino Ave", "address_2": null, "address_3": null, "city": "Santa Rosa", "state_province": "California", "postal_code": "95401", "country": "United States", "longitude": "-122.717258", "latitude": "38.459216", "phone": "7075232201", "website_url": "http://www.steeleandhops.com", "state": "California", "street": "1901 Mendocino Ave"}, {"id": "7a9a8bce-cd3d-4518-9647-82f6b4408abb", "name": "SteelHead Aleworks", "brewery_type": "micro", "address_1": null, "address_2": null, "address_3": null, "city": "Mukwonago", "state_province": "Wisconsin", "postal_code": "53149", "country": "United States", "longitude": null, "latitude": null, "phone": null, "website_url": "http://www.stealheadaleworks.com", "state": "Wisconsin", "street": null}, {"id": "49822141-1c9d-4fd3-8218-6315d80d0c9f", "name": "Steelhead Brewing Co - Burlingame Station", "brewery_type": "brewpub", "address_1": "333 California Dr", "address_2": null, "address_3": null, "city": "Burlingame", "state_province": "California", "postal_code": "94010-4114", "country": "United States", "longitude": "-122.3462607", "latitude": "37.5799728", "phone": "6503446050", "website_url": "http://www.steelheadbrewery.com", "state": "California", "street": "333 California Dr"}, {"id": "41226f84-764d-4250-9993-2ef81a7472d9", "name": "Steens Mountain Brewing Company", "brewery_type": "micro", "address_1": "673 B W Monroe St", "address_2": null, "address_3": null, "city": "Burns", "state_province": "Oregon", "postal_code": "97720", "country": "United States", "longitude": "-119.060813", "latitude": "43.585639", "phone": "5415891159", "website_url": null, "state": "Oregon", "street": "673 B W Monroe St"}, {"id": "9164b9c4-f14f-41ef-851f-994b79502e3d", "name": "Steeple Brewing Co", "brewery_type": "micro", "address_1": "717 W 1st St", "address_2": null, "address_3": null, "city": "Hastings", "state_province": "Nebraska", "postal_code": "68901", "country": "United States", "longitude": "-98.39024973", "latitude": "40.58418233", "phone": "4025194205", "website_url": "http://www.steeplebrewing.com", "state": "Nebraska", "street": "717 W 1st St"}, {"id": "7bfc0b84-5f81-4277-80ee-ea3633c6d1d4", "name": "Stein Brewing Company", "brewery_type": "micro", "address_1": "2516 49th St", "address_2": null, "address_3": null, "city": "Boulder", "state_province": "Colorado", "postal_code": "80301-2455", "country": "United States", "longitude": "-105.2378323", "latitude": "40.0238083", "phone": "3033960384", "website_url": "http://www.jwellsbrewery.com", "state": "Colorado", "street": "2516 49th St"}, {"id": "4142b73a-3079-4c57-ac64-9577f134a13b", "name": "Stein Brewing Company", "brewery_type": "planning", "address_1": null, "address_2": null, "address_3": null, "city": "Mount Vernon", "state_province": "Ohio", "postal_code": "43050-3323", "country": "United States", "longitude": null, "latitude": null, "phone": null, "website_url": "http://www.SteinBrewCo.com", "state": "Ohio", "street": null}, {"id": "061fff88-4a8a-4a81-8a99-2ac2d203732c", "name": "Steinhardt Brewing Company", "brewery_type": "micro", "address_1": "5710 Jefferson Blvd", "address_2": null, "address_3": null, "city": "Frederick", "state_province": "Maryland", "postal_code": "21703-6947", "country": "United States", "longitude": "-77.512519", "latitude": "39.391045", "phone": null, "website_url": "http://www.steinhardtbrewing.com", "state": "Maryland", "street": "5710 Jefferson Blvd"}, {"id": "17086f05-6d04-4e38-8924-8b16ad921480", "name": "Stellwagen Beer Company", "brewery_type": "planning", "address_1": null, "address_2": null, "address_3": null, "city": "Marshfield", "state_province": "Massachusetts", "postal_code": "02050", "country": "United States", "longitude": null, "latitude": null, "phone": "7817899162", "website_url": "http://www.stellwagenbeer.com", "state": "Massachusetts", "street": null}, {"id": "0d1246aa-303a-4e8f-83a8-bf1410ec1279", "name": "Stemma Brewing Co", "brewery_type": "micro", "address_1": "2039 Moore St.", "address_2": null, "address_3": null, "city": "Bellingham", "state_province": "Washington", "postal_code": "98229", "country": "United States", "longitude": "-122.46103", "latitude": "48.75759", "phone": "3607468385", "website_url": "https://www.stemmabrewing.com/", "state": "Washington", "street": "2039 Moore St."}, {"id": "c4e6598e-6254-4585-9294-66cbdcbc4b79", "name": "Stereo Brewing Co", "brewery_type": "micro", "address_1": "950 S Via Rodeo", "address_2": null, "address_3": null, "city": "Placentia", "state_province": "California", "postal_code": "92870-6775", "country": "United States", "longitude": "-117.8200802", "latitude": "33.86330957", "phone": "7149933390", "website_url": "http://www.stereobrewing.com", "state": "California", "street": "950 S Via Rodeo"}, {"id": "2119dc54-184b-4f1e-ada6-f085576e3760", "name": "Sterling Beer Co.", "brewery_type": "contract", "address_1": "3214 Preston Hwy", "address_2": null, "address_3": null, "city": "Louisville", "state_province": "Kentucky", "postal_code": "40213-1330", "country": "United States", "longitude": "-85.7347014", "latitude": "38.2019083", "phone": "5022338485", "website_url": "http://www.sterlingbeer.com", "state": "Kentucky", "street": "3214 Preston Hwy"}, {"id": "a47291a8-90f1-4b37-b517-e857fbf66b5f", "name": "Sterling Pig Brewery", "brewery_type": "brewpub", "address_1": "609 W State St", "address_2": null, "address_3": null, "city": "Media", "state_province": "Pennsylvania", "postal_code": "19063-2641", "country": "United States", "longitude": "-75.3949477", "latitude": "39.918688", "phone": "4844442526", "website_url": "http://www.sterlingpigbrewery.com", "state": "Pennsylvania", "street": "609 W State St"}, {"id": "c91229a8-b327-4d38-94e9-473265759cb1", "name": "Stesti Brewing Company", "brewery_type": "micro", "address_1": "1314 FM 2915", "address_2": null, "address_3": null, "city": "Lovelady", "state_province": "Texas", "postal_code": "75851", "country": "United States", "longitude": null, "latitude": null, "phone": "9362046858", "website_url": null, "state": "Texas", "street": "1314 FM 2915"}, {"id": "8e78d6ea-2ed7-4489-b050-cb3b0456cea1", "name": "Steuben Brewing Company", "brewery_type": "micro", "address_1": "10286 Judson Rd", "address_2": null, "address_3": null, "city": "Hammondsport", "state_province": "New York", "postal_code": "14840-9668", "country": "United States", "longitude": null, "latitude": null, "phone": "6072798874", "website_url": "http://www.steubenbrewingcompany.com", "state": "New York", "street": "10286 Judson Rd"}, {"id": "608d1bd1-4164-484d-851a-8b83f958a211", "name": "Stevens Point Brewery", "brewery_type": "regional", "address_1": "2617 Water St", "address_2": null, "address_3": null, "city": "Stevens Point", "state_province": "Wisconsin", "postal_code": "54481-5248", "country": "United States", "longitude": "-89.57398078", "latitude": "44.51026271", "phone": "7153449310", "website_url": "http://www.pointbeer.com", "state": "Wisconsin", "street": "2617 Water St"}, {"id": "2c73a4ad-8953-4e91-8d3c-bf9f1cb2d807", "name": "Stewart's Brewing Co", "brewery_type": "brewpub", "address_1": "219 Governors Pl", "address_2": null, "address_3": null, "city": "Bear", "state_province": "Delaware", "postal_code": "19701-3026", "country": "United States", "longitude": null, "latitude": null, "phone": "3028362739", "website_url": "http://www.stewartsbrewingcompany.com", "state": "Delaware", "street": "219 Governors Pl"}, {"id": "5d48eb13-35d2-4724-be47-4095fd49426a", "name": "Stewbum", "brewery_type": "brewpub", "address_1": "96 N King St", "address_2": null, "address_3": null, "city": "Honolulu", "state_province": "Hawaii", "postal_code": "96817-5109", "country": "United States", "longitude": "-157.8634762", "latitude": "21.31171513", "phone": "8086646684", "website_url": "http://www.stewbumandstonewall.com", "state": "Hawaii", "street": "96 N King St"}, {"id": "180b2f4c-3d94-4ca2-af1f-709f0df12923", "name": "Stick City Brewing Company", "brewery_type": "micro", "address_1": "109 Irvine ST", "address_2": null, "address_3": null, "city": "Mars", "state_province": "Pennsylvania", "postal_code": "16046-0372", "country": "United States", "longitude": "-80.0095235", "latitude": "40.69553485", "phone": "7247897849", "website_url": "http://www.stickcitybeer.com", "state": "Pennsylvania", "street": "109 Irvine ST"}, {"id": "7287c68d-4f90-4fd7-b695-2410de8a3781", "name": "Stickman Brews", "brewery_type": "micro", "address_1": "326 N Lewis Rd # 240", "address_2": null, "address_3": null, "city": "Royersford", "state_province": "Pennsylvania", "postal_code": "19468-1509", "country": "United States", "longitude": "-75.53755464", "latitude": "40.2000606", "phone": "4849385900", "website_url": "http://www.stickmanbrews.com", "state": "Pennsylvania", "street": "326 N Lewis Rd # 240"}, {"id": "d4ccc2fc-b6a8-4a24-bb52-eb9ecea3aaa4", "name": "Stickmen Brewery", "brewery_type": "brewpub", "address_1": "40 N State St", "address_2": null, "address_3": null, "city": "Lake Oswego", "state_province": "Oregon", "postal_code": "97034-3926", "country": "United States", "longitude": "-122.6638277", "latitude": "45.4161533", "phone": null, "website_url": null, "state": "Oregon", "street": "40 N State St"}, {"id": "9a678cf5-99b6-4877-bf49-d5b7bc268386", "name": "Stiggs Brewery & Kitchen", "brewery_type": "brewpub", "address_1": "112 S Park St", "address_2": null, "address_3": null, "city": "Boyne City", "state_province": "Michigan", "postal_code": "49712-1251", "country": "United States", "longitude": null, "latitude": null, "phone": "2314976100", "website_url": "http://www.stiggsbrewingcompany.com", "state": "Michigan", "street": "112 S Park St"}, {"id": "dda7d07a-9bae-4183-9291-506712c78750", "name": "Still HIll Brewery LLC", "brewery_type": "micro", "address_1": "1275 Cromwell Ave Ste C8 Unit 9", "address_2": null, "address_3": null, "city": "Rocky Hill", "state_province": "Connecticut", "postal_code": "06067-3430", "country": "United States", "longitude": null, "latitude": null, "phone": "8604366368", "website_url": "http://www.stillhillbrewery.com", "state": "Connecticut", "street": "1275 Cromwell Ave Ste C8 Unit 9"}, {"id": "51406172-17ff-49ec-a1ec-218756528dd4", "name": "Still River Brewery", "brewery_type": "micro", "address_1": "121 Clinton Shore Dr.", "address_2": null, "address_3": null, "city": "Still River", "state_province": "Massachusetts", "postal_code": "01467-0157", "country": "United States", "longitude": null, "latitude": null, "phone": null, "website_url": null, "state": "Massachusetts", "street": "121 Clinton Shore Dr."}, {"id": "a8a67e73-3473-4323-88c3-ab3ca4ed5f32", "name": "Stillmank Brewing Company", "brewery_type": "micro", "address_1": "215 N Henry St", "address_2": null, "address_3": null, "city": "Green Bay", "state_province": "Wisconsin", "postal_code": "54302-2613", "country": "United States", "longitude": "-87.97838833", "latitude": "44.5044596", "phone": "9207852337", "website_url": "http://www.stillmankbrewery.com", "state": "Wisconsin", "street": "215 N Henry St"}, {"id": "47b9435c-a74e-47ed-887d-6c0830648d6d", "name": "Stillwater Artisanal Ales", "brewery_type": "contract", "address_1": "720 S Conkling St", "address_2": null, "address_3": null, "city": "Baltimore", "state_province": "Maryland", "postal_code": "21224-4301", "country": "United States", "longitude": "-76.56726435", "latitude": "39.28408355", "phone": "4436685255", "website_url": null, "state": "Maryland", "street": "720 S Conkling St"}, {"id": "94a2e9ac-ed3d-406c-8686-b5faa0de915b", "name": "StillWest Brewery & Grill", "brewery_type": "planning", "address_1": null, "address_2": null, "address_3": null, "city": "Jackson", "state_province": "Wyoming", "postal_code": "83001-8668", "country": "United States", "longitude": null, "latitude": null, "phone": "2566948187", "website_url": null, "state": "Wyoming", "street": null}, {"id": "08279a5f-e91d-4233-aa86-b79c58f45644", "name": "Stilt House Brewery", "brewery_type": "micro", "address_1": "625 US 19 Alt", "address_2": null, "address_3": null, "city": "Palm Harbor", "state_province": "Florida", "postal_code": "34683", "country": "United States", "longitude": null, "latitude": null, "phone": "8138911693", "website_url": "http://www.stilthousebrewery.com", "state": "Florida", "street": "625 US 19 Alt"}, {"id": "fb72269a-fe00-40ad-989e-a4878bd4bc1c", "name": "Stitch House Brewery", "brewery_type": "brewpub", "address_1": "829 North Market Street", "address_2": null, "address_3": null, "city": "Wilmington", "state_province": "Delaware", "postal_code": "19801", "country": "United States", "longitude": "-75.54908716", "latitude": "39.7438473", "phone": "3022504280", "website_url": "http://www.stitchhousebrewery.com", "state": "Delaware", "street": "829 North Market Street"}, {"id": "e44f1b26-d801-452b-a1f0-fddaf35f3948", "name": "Stockholms Vardshus", "brewery_type": "brewpub", "address_1": "306 W State St", "address_2": null, "address_3": null, "city": "Geneva", "state_province": "Illinois", "postal_code": "60134-2103", "country": "United States", "longitude": "-88.30735303", "latitude": "41.88776869", "phone": "6302081400", "website_url": "http://www.stockholmsbrewpub.com", "state": "Illinois", "street": "306 W State St"}, {"id": "b632b81c-fc78-4789-a37a-0e77d6c483f7", "name": "Stockyards Brewing Company", "brewery_type": "micro", "address_1": "1600 Genessee St Ste 100", "address_2": null, "address_3": null, "city": "Kansas City", "state_province": "Missouri", "postal_code": "64102-1044", "country": "United States", "longitude": "-94.605113", "latitude": "39.094436", "phone": "8168958880", "website_url": "http://www.stockyardsbrewing.com", "state": "Missouri", "street": "1600 Genessee St Ste 100"}, {"id": "5e44f9ac-ec1e-4143-a21e-b7af8c507e40", "name": "Stoic Brewing", "brewery_type": "contract", "address_1": "667 Robinett Rd", "address_2": null, "address_3": null, "city": "Waxahachie", "state_province": "Texas", "postal_code": "75165-6343", "country": "United States", "longitude": null, "latitude": null, "phone": "5128884843", "website_url": "http://stoicbrewing.com", "state": "Texas", "street": "667 Robinett Rd"}, {"id": "5edf4546-8f83-48c9-8d15-52899b67a2b4", "name": "Stoik Beer Company", "brewery_type": "planning", "address_1": null, "address_2": null, "address_3": null, "city": "Delta", "state_province": "Colorado", "postal_code": "81416", "country": "United States", "longitude": null, "latitude": null, "phone": null, "website_url": "http://www.stoikbeer.com", "state": "Colorado", "street": null}, {"id": "a93eb7a0-8cfe-4d36-9368-115a290c47c9", "name": "Stoker's Brewing Company", "brewery_type": "planning", "address_1": null, "address_2": null, "address_3": null, "city": "Tamaqua", "state_province": "Pennsylvania", "postal_code": "18252-1405", "country": "United States", "longitude": null, "latitude": null, "phone": null, "website_url": null, "state": "Pennsylvania", "street": null}, {"id": "985764fc-a5cf-4634-8bf3-e89dde5e6531", "name": "Stone Barrel Brewing Company", "brewery_type": "regional", "address_1": "Bluebell Avenue", "address_2": "Bluebell Industrial Estate", "address_3": "Dublin 12", "city": "Dublin", "state_province": "Dublin", "postal_code": "D12 NPF9", "country": "Ireland", "longitude": "-6.3506651", "latitude": "53.3308805", "phone": "353862381267", "website_url": "http://www.stonebarrelbrewing.ie/", "state": "Dublin", "street": "Bluebell Avenue"}, {"id": "d955991a-9377-4f2c-baf3-b561a72bf895", "name": "Stone Brewing Co", "brewery_type": "regional", "address_1": "2120 Harmony Grove Rd", "address_2": null, "address_3": null, "city": "Escondido", "state_province": "California", "postal_code": "92029-2053", "country": "United States", "longitude": "-117.11565", "latitude": "33.109969", "phone": "7602947866", "website_url": "http://www.stonebrewing.com", "state": "California", "street": "2120 Harmony Grove Rd"}, {"id": "444ce3b3-4111-485a-9158-e54d61909650", "name": "Stone Brewing Co- Richmond", "brewery_type": "regional", "address_1": "4300 Williamsburg Ave", "address_2": null, "address_3": null, "city": "Richmond", "state_province": "Virginia", "postal_code": "23231-1225", "country": "United States", "longitude": "-77.414763", "latitude": "37.5241103", "phone": "8044895902", "website_url": "http://www.stonebrewing.com/visit/outposts/richmond", "state": "Virginia", "street": "4300 Williamsburg Ave"}, {"id": "273491b7-30e3-4ee4-ac6e-f1cfb9194b93", "name": "Stone Brewing Napa", "brewery_type": "closed", "address_1": "920-930 Third Street", "address_2": null, "address_3": null, "city": "Napa", "state_province": "California", "postal_code": "94559", "country": "United States", "longitude": "-122.2829683", "latitude": "38.29896704", "phone": "7602947899", "website_url": null, "state": "California", "street": "920-930 Third Street"}, {"id": "770c8d54-dcf1-456b-a864-84a4cf0071e1", "name": "Stone Brewing World Bistro & Gardens- Liberty Station", "brewery_type": "brewpub", "address_1": "2816 Historic Decatur Rd Ste 116", "address_2": null, "address_3": null, "city": "San Diego", "state_province": "California", "postal_code": "92106-6164", "country": "United States", "longitude": "-117.21157", "latitude": "32.7405237", "phone": "6192692200", "website_url": "http://www.stonelibertystation.com", "state": "California", "street": "2816 Historic Decatur Rd Ste 116"}, {"id": "73832571-cba1-4383-bd2d-d72ef2e0a053", "name": "Stone Cellar Brewpub / Stone Arch Brew House", "brewery_type": "brewpub", "address_1": "1004 S Olde Oneida St Uppr", "address_2": null, "address_3": null, "city": "Appleton", "state_province": "Wisconsin", "postal_code": "54915-1753", "country": "United States", "longitude": null, "latitude": null, "phone": "9207313322", "website_url": "http://www.stonecellarbrewpub.com", "state": "Wisconsin", "street": "1004 S Olde Oneida St Uppr"}, {"id": "9916848b-15ac-44f9-90a5-81ad7b53fde5", "name": "Stone Church Brewing", "brewery_type": "micro", "address_1": "2785 Cabot Dr Ste 160", "address_2": null, "address_3": null, "city": "Corona", "state_province": "California", "postal_code": "92883-7388", "country": "United States", "longitude": "-117.5046237", "latitude": "33.8131807", "phone": "3105676582", "website_url": "http://www.stonechurchbrewing.com", "state": "California", "street": "2785 Cabot Dr Ste 160"}, {"id": "d2e1b8ab-b0e2-409a-9faa-9ca571815a02", "name": "Stone Church Pizza & Brewpub", "brewery_type": "brewpub", "address_1": "600 S Hermitage Rd", "address_2": null, "address_3": null, "city": "Hermitage", "state_province": "Pennsylvania", "postal_code": "16148-3629", "country": "United States", "longitude": "-80.451969", "latitude": "41.225649", "phone": "7243087770", "website_url": "http://www.stonechurchbrewpub.com", "state": "Pennsylvania", "street": "600 S Hermitage Rd"}, {"id": "b02a3dcf-6e21-4ae4-9c14-efdd618b42d6", "name": "Stone Corral Brewery", "brewery_type": "micro", "address_1": "83 Huntington Rd Unit 1", "address_2": null, "address_3": null, "city": "Richmond", "state_province": "Vermont", "postal_code": "05477-9839", "country": "United States", "longitude": null, "latitude": null, "phone": "8024345787", "website_url": "http://stonecorral.com", "state": "Vermont", "street": "83 Huntington Rd Unit 1"}, {"id": "28e04f1d-11f9-4ea9-b67c-a155e8c88b81", "name": "Stone Cow Brewery", "brewery_type": "micro", "address_1": "500 West St (Route 122)", "address_2": null, "address_3": null, "city": "Barre", "state_province": "Massachusetts", "postal_code": "01005", "country": "United States", "longitude": null, "latitude": null, "phone": "4135526048", "website_url": null, "state": "Massachusetts", "street": "500 West St (Route 122)"}, {"id": "e0a66be0-edf0-405e-b6cb-44dcff79fac5", "name": "Stone Hollow Brewing Company", "brewery_type": "micro", "address_1": "301 Court Street", "address_2": null, "address_3": null, "city": "Beatrice", "state_province": "Nebraska", "postal_code": "68310", "country": "United States", "longitude": "-96.7506365", "latitude": "40.265751", "phone": "4028064664", "website_url": "https://www.stonehollowbrewing.com", "state": "Nebraska", "street": "301 Court Street"}, {"id": "780e7ec6-7c19-46d4-90b4-875fc9cfa207", "name": "Stone's Throw Brewing", "brewery_type": "brewpub", "address_1": "402 E 9th St", "address_2": null, "address_3": null, "city": "Little Rock", "state_province": "Arkansas", "postal_code": "72202-3914", "country": "United States", "longitude": "-92.26806633", "latitude": "34.7397885", "phone": "5012449154", "website_url": "http://www.stonesthrowbeer.com", "state": "Arkansas", "street": "402 E 9th St"}, {"id": "84278f35-1caf-4c58-8446-4f6af8a17661", "name": "Stonecloud Brewing Co.", "brewery_type": "micro", "address_1": "1012 NW 1st St Ste 101", "address_2": null, "address_3": null, "city": "Oklahoma City", "state_province": "Oklahoma", "postal_code": "73106-7642", "country": "United States", "longitude": "-97.529142", "latitude": "35.468613", "phone": "4056023966", "website_url": "http://stonecloudbrewing.com", "state": "Oklahoma", "street": "1012 NW 1st St Ste 101"}, {"id": "06fd21ca-1d18-4d79-a8ab-407d74c55cb7", "name": "Stoneface Brewing Co", "brewery_type": "micro", "address_1": "436 Shattuck Way Ste 6", "address_2": null, "address_3": null, "city": "Newington", "state_province": "New Hampshire", "postal_code": "03801-7838", "country": "United States", "longitude": null, "latitude": null, "phone": null, "website_url": "http://www.stonefacebrewing.com", "state": "New Hampshire", "street": "436 Shattuck Way Ste 6"}, {"id": "0330697d-08ce-4f09-948c-9928532c5755", "name": "Stonehome Brewing Company", "brewery_type": "brewpub", "address_1": "1601 N 12th St", "address_2": null, "address_3": null, "city": "Bismarck", "state_province": "North Dakota", "postal_code": "58501-2713", "country": "United States", "longitude": "-100.773737", "latitude": "46.82365579", "phone": "7017511445", "website_url": "http://www.stonehomebrewing.com", "state": "North Dakota", "street": "1601 N 12th St"}, {"id": "86b7e9cb-6267-4f6b-a5da-6293aae28ced", "name": "Stonehome Brewing Company", "brewery_type": "brewpub", "address_1": "313 Fox Hills Pkwy N", "address_2": null, "address_3": null, "city": "Watford City", "state_province": "North Dakota", "postal_code": "58854", "country": "United States", "longitude": "-103.2580566", "latitude": "47.8821014", "phone": "7014442337", "website_url": "http://www.stonehomebrewing.com", "state": "North Dakota", "street": "313 Fox Hills Pkwy N"}, {"id": "772310d2-06d3-42c6-b494-7622dc87b15d", "name": "Stoneman Brewery", "brewery_type": "micro", "address_1": "20 Stetson Bros Rd", "address_2": null, "address_3": null, "city": "Colrain", "state_province": "Massachusetts", "postal_code": "01340-9733", "country": "United States", "longitude": null, "latitude": null, "phone": "4136245195", "website_url": null, "state": "Massachusetts", "street": "20 Stetson Bros Rd"}, {"id": "e4a8b737-6725-4ec2-b635-e43f8fcb1de4", "name": "Stones Throw Brewery", "brewery_type": "micro", "address_1": "1009 Larrabee Ave", "address_2": null, "address_3": null, "city": "Bellingham", "state_province": "Washington", "postal_code": "98225-7338", "country": "United States", "longitude": "-122.497165", "latitude": "48.718516", "phone": "3603625058", "website_url": "http://www.stonesthrowbrewco.com", "state": "Washington", "street": "1009 Larrabee Ave"}, {"id": "259107e5-6645-48b5-a986-80d207d43aa0", "name": "Stoney Acres Farm", "brewery_type": "brewpub", "address_1": "7002 Rangeline Rd", "address_2": null, "address_3": null, "city": "Athens", "state_province": "Wisconsin", "postal_code": "54411", "country": "United States", "longitude": null, "latitude": null, "phone": "7154326285", "website_url": "http://www.stoneyacresfarm.net", "state": "Wisconsin", "street": "7002 Rangeline Rd"}, {"id": "58092f14-3cd5-47c0-8077-7f11c1ef9e96", "name": "Stoneyard Brewing Company", "brewery_type": "brewpub", "address_1": "48 Merchant St", "address_2": null, "address_3": null, "city": "Brockport", "state_province": "New York", "postal_code": "14420", "country": "United States", "longitude": null, "latitude": null, "phone": "5856373390", "website_url": "http://www.stoneyardbrewingcompany.com", "state": "New York", "street": "48 Merchant St"}, {"id": "572461d6-ab19-4469-b9c8-937a98b37941", "name": "StoneyHead Brewing LLC", "brewery_type": "micro", "address_1": "5301 Longley Ln Ste 84C", "address_2": null, "address_3": null, "city": "Reno", "state_province": "Nevada", "postal_code": "89511-1873", "country": "United States", "longitude": null, "latitude": null, "phone": "7758292337", "website_url": "http://www.stoneyheadbrewing.com", "state": "Nevada", "street": "5301 Longley Ln Ste 84C"}, {"id": "b1b259ea-a03c-4836-80eb-c222770dacf3", "name": "Stony Creek Brewery", "brewery_type": "regional", "address_1": "5 Indian Neck Ave", "address_2": null, "address_3": null, "city": "Branford", "state_province": "Connecticut", "postal_code": "06405-4615", "country": "United States", "longitude": "-72.81330366", "latitude": "41.27475355", "phone": "2034334545", "website_url": "http://www.stonycreekbeer.com", "state": "Connecticut", "street": "5 Indian Neck Ave"}, {"id": "667f8870-c7eb-4b5d-8d80-3fa37f7e1de7", "name": "Stony Creek Brewery At Foxwoods Resort Casino", "brewery_type": "planning", "address_1": null, "address_2": null, "address_3": null, "city": "Mashantucket", "state_province": "Connecticut", "postal_code": "06338-3830", "country": "United States", "longitude": null, "latitude": null, "phone": "8603123000", "website_url": null, "state": "Connecticut", "street": null}, {"id": "2540a41e-870c-4298-b711-e9b1da63bc2d", "name": "Stony Lake Brewing Company", "brewery_type": "micro", "address_1": "447 E Michigan Ave", "address_2": null, "address_3": null, "city": "Saline", "state_province": "Michigan", "postal_code": "48176-1547", "country": "United States", "longitude": "-83.7735354", "latitude": "42.17041729", "phone": "7343167919", "website_url": "http://www.stonylakebrewing.com", "state": "Michigan", "street": "447 E Michigan Ave"}, {"id": "37181ee1-680d-41f3-811a-34b4abab22d4", "name": "Storm Peak Brewing Company", "brewery_type": "micro", "address_1": "1885 Elk River Plz Unit 4", "address_2": null, "address_3": null, "city": "Steamboat Springs", "state_province": "Colorado", "postal_code": "80487-5237", "country": "United States", "longitude": null, "latitude": null, "phone": "9708791999", "website_url": "http://www.stormpeakbrewing.com", "state": "Colorado", "street": "1885 Elk River Plz Unit 4"}, {"id": "e39addf7-becb-4b3c-b5b2-e682bcb1b72f", "name": "StormBreaker Brewing", "brewery_type": "brewpub", "address_1": "832 N Beech St", "address_2": null, "address_3": null, "city": "Portland", "state_province": "Oregon", "postal_code": "97227-1215", "country": "United States", "longitude": "-122.6751573", "latitude": "45.54943475", "phone": null, "website_url": null, "state": "Oregon", "street": "832 N Beech St"}, {"id": "2f2fe265-6ef9-4a72-8aae-ca7cb81eb561", "name": "StormBreaker Brewing St. Johns", "brewery_type": "brewpub", "address_1": "8409 N Lombard St", "address_2": null, "address_3": null, "city": "Portland", "state_province": "Oregon", "postal_code": "97203", "country": "United States", "longitude": "-122.753038", "latitude": "45.58988575", "phone": "9712551481", "website_url": "http://www.stormbreakerbrewing.com", "state": "Oregon", "street": "8409 N Lombard St"}, {"id": "906c9e56-8260-4ea5-ade4-4d73e3dd7246", "name": "Stormcloud Brewing Company", "brewery_type": "brewpub", "address_1": "303 Main St", "address_2": null, "address_3": null, "city": "Frankfort", "state_province": "Michigan", "postal_code": "49635-9047", "country": "United States", "longitude": "-86.24100175", "latitude": "44.63290605", "phone": "2316519080", "website_url": "http://www.stormcloudbrewing.com", "state": "Michigan", "street": "303 Main St"}, {"id": "3ba0c759-64a6-4c73-8f41-d5d2317ce86d", "name": "Stormcloud Brewing Company Production Facility", "brewery_type": "micro", "address_1": "366 Parkview Ln", "address_2": null, "address_3": null, "city": "Frankfort", "state_province": "Michigan", "postal_code": "49635", "country": "United States", "longitude": "-86.2218117", "latitude": "44.6373933", "phone": null, "website_url": null, "state": "Michigan", "street": "366 Parkview Ln"}, {"id": "ceb125ad-7b11-4aed-8e34-db02e618d3ba", "name": "Stormy Mountain Brewing Company", "brewery_type": "brewpub", "address_1": "133 E Woodin Ave", "address_2": null, "address_3": null, "city": "Chelan", "state_province": "Washington", "postal_code": "98816-", "country": "United States", "longitude": "-120.0177327", "latitude": "47.8401295", "phone": "5098885665", "website_url": "http://www.stormymountainbrewing.com", "state": "Washington", "street": "133 E Woodin Ave"}, {"id": "5be36509-b0db-42b2-89ac-09b98b7062f3", "name": "Storybook Brewing", "brewery_type": "micro", "address_1": "3121 N El Paso St Ste A", "address_2": null, "address_3": null, "city": "Colorado Springs", "state_province": "Colorado", "postal_code": "80907-5469", "country": "United States", "longitude": null, "latitude": null, "phone": "7196336266", "website_url": "http://www.storybookbrewing.com", "state": "Colorado", "street": "3121 N El Paso St Ste A"}, {"id": "e9659928-655c-42e1-bf69-bf9a3fcb673f", "name": "Storytellers Brewery and Meet House, LLC", "brewery_type": "planning", "address_1": null, "address_2": null, "address_3": null, "city": "Corona", "state_province": "California", "postal_code": "92880-1798", "country": "United States", "longitude": "-117.5664449", "latitude": "33.8752945", "phone": "9092475710", "website_url": "http://www.storytellersbrewery.com", "state": "California", "street": null}, {"id": "1e5f9366-7e38-443f-87a2-77278d845c12", "name": "Stoudts Brewing Co", "brewery_type": "micro", "address_1": "\u00c2\u00a0Rt. 272 2800 North Reading Road", "address_2": null, "address_3": null, "city": "Adamstown", "state_province": "Pennsylvania", "postal_code": "19501", "country": "United States", "longitude": null, "latitude": null, "phone": "7174844386", "website_url": "http://www.stoudtsbeer.com", "state": "Pennsylvania", "street": "\u00c2\u00a0Rt. 272 2800 North Reading Road"}, {"id": "9626985c-e888-4370-8bf1-6096ddaf1df8", "name": "Stoup Brewing", "brewery_type": "micro", "address_1": "1108 NW 52nd St", "address_2": null, "address_3": null, "city": "Seattle", "state_province": "Washington", "postal_code": "98107-5129", "country": "United States", "longitude": "-122.3711883", "latitude": "47.6666399", "phone": "2064575524", "website_url": "http://www.stoupbrewing.com", "state": "Washington", "street": "1108 NW 52nd St"}, {"id": "bbe40deb-da31-4fe6-aee8-f7cfd40c5416", "name": "Stout Beard Brewing Company", "brewery_type": "brewpub", "address_1": "1153 W Fayette St Ste 102", "address_2": null, "address_3": null, "city": "Syracuse", "state_province": "New York", "postal_code": "13204-2740", "country": "United States", "longitude": null, "latitude": null, "phone": "3153993016", "website_url": "http://www.stoutbeardbrewery.com", "state": "New York", "street": "1153 W Fayette St Ste 102"}, {"id": "5623e30f-2e4e-44ba-924b-52e4c4551609", "name": "Stover Brewing", "brewery_type": "planning", "address_1": null, "address_2": null, "address_3": null, "city": "San Diego", "state_province": "California", "postal_code": "92124-1426", "country": "United States", "longitude": "-117.1627714", "latitude": "32.7174209", "phone": "6193634677", "website_url": "http://www.stoverbrewing.com", "state": "California", "street": null}, {"id": "a85eb847-20ed-421e-b887-0a040f71a0b1", "name": "Straight Shot Brewing", "brewery_type": "planning", "address_1": null, "address_2": null, "address_3": null, "city": "Poquoson", "state_province": "Virginia", "postal_code": "23662-0000", "country": "United States", "longitude": null, "latitude": null, "phone": null, "website_url": null, "state": "Virginia", "street": null}, {"id": "b88fe606-1632-4efd-bd71-3ce087044d3d", "name": "Straight to Ale", "brewery_type": "micro", "address_1": "2610 Clinton Ave W", "address_2": null, "address_3": null, "city": "Huntsville", "state_province": "Alabama", "postal_code": "35805-3046", "country": "United States", "longitude": "-86.5932014", "latitude": "34.7277523", "phone": "2566039096", "website_url": "http://www.straighttoale.com", "state": "Alabama", "street": "2610 Clinton Ave W"}, {"id": "618e8707-d2ef-4e27-9fd9-ef3a01daf7cb", "name": "Strand Brewery", "brewery_type": "brewpub", "address_1": "93415 County Road 690", "address_2": null, "address_3": null, "city": "Dowagiac", "state_province": "Michigan", "postal_code": "49047-9025", "country": "United States", "longitude": null, "latitude": null, "phone": "2694247500", "website_url": "http://www.strandbrewery.com", "state": "Michigan", "street": "93415 County Road 690"}, {"id": "4fe4470b-c860-48e7-8c9b-aa1ddc204498", "name": "Strand Brewing Co", "brewery_type": "micro", "address_1": "2201 Dominguez St", "address_2": null, "address_3": null, "city": "Torrance", "state_province": "California", "postal_code": "90501-1418", "country": "United States", "longitude": "-118.3240401", "latitude": "33.8414814", "phone": "3105170900", "website_url": "http://www.strandbrewing.com", "state": "California", "street": "2201 Dominguez St"}, {"id": "58d3c116-e6ca-42f7-b20d-f30b97b34a64", "name": "Strange Craft Beer Co", "brewery_type": "micro", "address_1": "1330 Zuni St Ste M", "address_2": null, "address_3": null, "city": "Denver", "state_province": "Colorado", "postal_code": "80204-2328", "country": "United States", "longitude": null, "latitude": null, "phone": "7209852337", "website_url": "http://www.strangecraft.com", "state": "Colorado", "street": "1330 Zuni St Ste M"}, {"id": "494b4e52-242c-4bf4-bd7d-8717602538ae", "name": "Strange Days Brewing Co", "brewery_type": "micro", "address_1": "316 Oak St", "address_2": null, "address_3": null, "city": "Kansas City", "state_province": "Missouri", "postal_code": "64106", "country": "United States", "longitude": "-94.57994512", "latitude": "39.1100614", "phone": "8164695321", "website_url": "http://www.strangedaysbrewing.com", "state": "Missouri", "street": "316 Oak St"}, {"id": "0aa2b16d-c58f-4577-94ac-5b70d28b94d6", "name": "Strange Days Brewing Company", "brewery_type": "micro", "address_1": "316 Oak St", "address_2": null, "address_3": null, "city": "Kansas City", "state_province": "Missouri", "postal_code": "64106", "country": "United States", "longitude": "-94.57994512", "latitude": "39.1100614", "phone": "9134336232", "website_url": "http://www.strangedaysbrewing.com", "state": "Missouri", "street": "316 Oak St"}, {"id": "e16701b2-c0f1-4a14-934f-7e51fa99cc3c", "name": "Strange Land Brewery", "brewery_type": "micro", "address_1": "5904 Bee Cave Road", "address_2": null, "address_3": null, "city": "Austin", "state_province": "Texas", "postal_code": "78746", "country": "United States", "longitude": null, "latitude": null, "phone": "5122762295", "website_url": "http://www.strangelandbrewery.com", "state": "Texas", "street": "5904 Bee Cave Road"}, {"id": "83007a0a-a4d4-4bdf-9f74-b215b2309125", "name": "Strange Roots Experimental Ales", "brewery_type": "micro", "address_1": "4399 Gibsonia Road", "address_2": null, "address_3": null, "city": "Gibsonia", "state_province": "Pennsylvania", "postal_code": "15044-9343", "country": "United States", "longitude": "-79.9709659", "latitude": "40.6301186", "phone": "4124072506", "website_url": "http://www.strangerootsbeer.com", "state": "Pennsylvania", "street": "4399 Gibsonia Road"}, {"id": "22c0044e-28f9-4ac5-a8f6-7f1390bccb63", "name": "Strange Roots Experimental Ales", "brewery_type": "micro", "address_1": "501 E Ohio St", "address_2": null, "address_3": null, "city": "Pittsburgh", "state_province": "Pennsylvania", "postal_code": "15209-2671", "country": "United States", "longitude": "-79.9951469", "latitude": "40.4546063", "phone": "4124072506", "website_url": "http://www.strangerootsbeer.com", "state": "Pennsylvania", "street": "501 E Ohio St"}, {"id": "50932c46-8dd8-4915-a0ed-8073fb25323d", "name": "Strangebird Beer", "brewery_type": "micro", "address_1": "62 Marshall Street", "address_2": null, "address_3": null, "city": "Rochester", "state_province": "New York", "postal_code": "14607", "country": "United States", "longitude": "-77.601928", "latitude": "43.15127745", "phone": "5855058700", "website_url": "https://www.strangebirdbeer.com", "state": "New York", "street": "62 Marshall Street"}, {"id": "9c0a83ee-575b-471a-9871-ea540065bb1c", "name": "Strangeways Brewing - FXBG", "brewery_type": "micro", "address_1": "350 Lansdowne Rd", "address_2": null, "address_3": null, "city": "Fredericksburg", "state_province": "Virginia", "postal_code": "22401-7351", "country": "United States", "longitude": "-77.45625316", "latitude": "38.27297555", "phone": "8043034336", "website_url": null, "state": "Virginia", "street": "350 Lansdowne Rd"}, {"id": "b2c8d268-7e99-4428-b31b-6eb2f6fe24dd", "name": "Strangeways Brewing - RVA", "brewery_type": "micro", "address_1": "2277 Dabney Rd Ste A", "address_2": null, "address_3": null, "city": "Richmond", "state_province": "Virginia", "postal_code": "23230-3335", "country": "United States", "longitude": null, "latitude": null, "phone": "8043034336", "website_url": "http://strangewaysbrewing.com/", "state": "Virginia", "street": "2277 Dabney Rd Ste A"}, {"id": "2ee45c72-c744-46b3-a8b1-500cf7531e7d", "name": "Strap Tank Brewing Co.", "brewery_type": "brewpub", "address_1": "596 S 1750 W", "address_2": null, "address_3": null, "city": "Springville", "state_province": "Utah", "postal_code": "84663-3088", "country": "United States", "longitude": "-111.641975", "latitude": "40.159405", "phone": "3853250262", "website_url": "https://straptankbrewery.com", "state": "Utah", "street": "596 S 1750 W"}, {"id": "d2d86e25-5932-4c58-b430-f8ea60e9e72f", "name": "Straub Brewery", "brewery_type": "regional", "address_1": "303 Sorg St", "address_2": null, "address_3": null, "city": "Saint Marys", "state_province": "Pennsylvania", "postal_code": "15857-1592", "country": "United States", "longitude": "-78.55352821", "latitude": "41.42586622", "phone": "8143356518", "website_url": "http://www.straubbeer.com", "state": "Pennsylvania", "street": "303 Sorg St"}, {"id": "18cb8551-92d3-4c8c-934f-51daef9f7b53", "name": "Strawberry Alley Ale Works", "brewery_type": "brewpub", "address_1": "103 Strawberry Aly", "address_2": null, "address_3": null, "city": "Clarksville", "state_province": "Tennessee", "postal_code": "37040-4267", "country": "United States", "longitude": "-87.36026635", "latitude": "36.5280248", "phone": "9319194777", "website_url": "http://www.saaleworks.com", "state": "Tennessee", "street": "103 Strawberry Aly"}]