[{"id": "30ea1448-f80e-4674-9a8a-4ab5fe6ac550", "name": "Smoke Mountain Brewery", "brewery_type": "micro", "address_1": "6520 Casitas Pass Rd", "address_2": null, "address_3": null, "city": "Ventura", "state_province": "California", "postal_code": "93001-9794", "country": "United States", "longitude": "-119.4438779", "latitude": "34.39420959", "phone": "8058047954", "website_url": "http://www.smokemtn.com", "state": "California", "street": "6520 Casitas Pass Rd"}, {"id": "61f48b53-84df-41ce-8dac-170b22a19caf", "name": "Smokehouse Brewing", "brewery_type": "brewpub", "address_1": "1130 Dublin Rd", "address_2": null, "address_3": null, "city": "Columbus", "state_province": "Ohio", "postal_code": "43215-1039", "country": "United States", "longitude": "-83.047935", "latitude": "39.973715", "phone": "6144850227", "website_url": "http://www.smokehousebrewing.com", "state": "Ohio", "street": "1130 Dublin Rd"}, {"id": "7d0390dd-7798-4be0-8df3-9dab9fb59ae2", "name": "Smoketown Brewing Station", "brewery_type": "micro", "address_1": "223 W Potomac St", "address_2": null, "address_3": null, "city": "Brunswick", "state_province": "Maryland", "postal_code": "21716-1117", "country": "United States", "longitude": "-77.6302935", "latitude": "39.3136514", "phone": "3018344828", "website_url": "http://www.smoketownbrewing.com", "state": "Maryland", "street": "223 W Potomac St"}, {"id": "bee91126-b9e1-4bb0-b7b1-dd746886e199", "name": "Smoking Cannon Brewery", "brewery_type": "micro", "address_1": "780 Main St Ste I", "address_2": null, "address_3": null, "city": "Ramona", "state_province": "California", "postal_code": "92065-2079", "country": "United States", "longitude": "-116.8651486", "latitude": "33.04359813", "phone": "7604077557", "website_url": "http://www.smokingcannonbrewery.com", "state": "California", "street": "780 Main St Ste I"}, {"id": "6c4840de-a3b0-4fd6-bd09-5044c906aaa5", "name": "Smoky Mountain Brewery (#1)", "brewery_type": "brewpub", "address_1": "6515 Kingston Pike", "address_2": null, "address_3": null, "city": "Knoxville", "state_province": "Tennessee", "postal_code": "37919-4826", "country": "United States", "longitude": "-84.00966312", "latitude": "35.93189033", "phone": "8656733377", "website_url": "http://www.smoky-mtn-brewery.com", "state": "Tennessee", "street": "6515 Kingston Pike"}, {"id": "b17bcb8a-14d5-45ba-951e-0f3ea50fa470", "name": "Smoky Mountain Brewery (#2) - Gatlinburg", "brewery_type": "brewpub", "address_1": "1004 Parkway Ste 501", "address_2": null, "address_3": null, "city": "Gatlinburg", "state_province": "Tennessee", "postal_code": "37738-3172", "country": "United States", "longitude": "-83.52053504", "latitude": "35.70901801", "phone": "8654364200", "website_url": "http://www.smoky-mtn-brewery.com", "state": "Tennessee", "street": "1004 Parkway Ste 501"}, {"id": "33d7fe5d-3e85-4c20-8f32-a2541d223bed", "name": "Smoky Mountain Brewery (#3) - Pigeon Forge", "brewery_type": "brewpub", "address_1": "2530 Parkway Ste 15", "address_2": null, "address_3": null, "city": "Pigeon Forge", "state_province": "Tennessee", "postal_code": "37863-7006", "country": "United States", "longitude": null, "latitude": null, "phone": null, "website_url": "http://www.smoky-mtn-brewery.com", "state": "Tennessee", "street": "2530 Parkway Ste 15"}, {"id": "1e9730a4-0830-4062-bfb4-f368a39dd72e", "name": "Smoky Mountain Brewery (#4) - Turkey Creek", "brewery_type": "brewpub", "address_1": "11308 Parkside Dr", "address_2": null, "address_3": null, "city": "Knoxville", "state_province": "Tennessee", "postal_code": "37934-1971", "country": "United States", "longitude": "-84.15846424", "latitude": "35.90006382", "phone": "8652885500", "website_url": "http://www.smoky-mtn-brewery.com", "state": "Tennessee", "street": "11308 Parkside Dr"}, {"id": "879d1388-aaf4-43be-b148-c768b7bf7b08", "name": "Smug Brewing Company", "brewery_type": "micro", "address_1": "100 Carver St", "address_2": null, "address_3": null, "city": "Pawtucket", "state_province": "Rhode Island", "postal_code": "02860", "country": "United States", "longitude": "-71.3987677", "latitude": "41.8598033", "phone": "4016425701", "website_url": "https://smugbrewing.com", "state": "Rhode Island", "street": "100 Carver St"}, {"id": "36082801-cacf-4a86-8c76-30dcb6779c63", "name": "Smuggler's Brewpub", "brewery_type": "brewpub", "address_1": "225 South Pine St", "address_2": null, "address_3": null, "city": "Telluride", "state_province": "Colorado", "postal_code": "81435", "country": "United States", "longitude": "-107.8114274", "latitude": "37.9358018", "phone": "9707285620", "website_url": "http://www.smugglersbrewpub.com", "state": "Colorado", "street": "225 South Pine St"}, {"id": "34475681-5cf6-41d4-9fb2-89be9c894fa4", "name": "Smuttynose Brewing Co", "brewery_type": "regional", "address_1": "105 Towle Farm Rd", "address_2": null, "address_3": null, "city": "Hampton", "state_province": "New Hampshire", "postal_code": "03842-1806", "country": "United States", "longitude": "-70.85354155", "latitude": "42.94551535", "phone": "6034364026", "website_url": "http://www.smuttynose.com", "state": "New Hampshire", "street": "105 Towle Farm Rd"}, {"id": "524c21c1-3dc5-4e41-9e97-5ff34578e071", "name": "Smylie Brothers Brewing Co", "brewery_type": "brewpub", "address_1": "1615 Oak Ave", "address_2": null, "address_3": null, "city": "Evanston", "state_province": "Illinois", "postal_code": "60201-3611", "country": "United States", "longitude": "-87.6864692", "latitude": "42.0476547", "phone": "2249997320", "website_url": "http://www.smyliebros.com", "state": "Illinois", "street": "1615 Oak Ave"}, {"id": "c20499a8-0cd9-4fc4-878d-78067362cafb", "name": "Snafu Brewing Company", "brewery_type": "micro", "address_1": "3280 Industry Dr", "address_2": null, "address_3": null, "city": "Charleston", "state_province": "South Carolina", "postal_code": "29418-8452", "country": "United States", "longitude": "-80.0664232", "latitude": "32.9255082", "phone": "8437674121", "website_url": "http://www.snafubrewingcompany.com", "state": "South Carolina", "street": "3280 Industry Dr"}, {"id": "5a2b53e3-a513-4466-bdec-b3705517710f", "name": "Snake River Brewing Co", "brewery_type": "micro", "address_1": "265 S Millward St PO Box 3317", "address_2": null, "address_3": null, "city": "Jackson", "state_province": "Wyoming", "postal_code": "83001-8582", "country": "United States", "longitude": null, "latitude": null, "phone": "3077392337", "website_url": "http://www.snakeriverbrewing.com", "state": "Wyoming", "street": "265 S Millward St PO Box 3317"}, {"id": "66c2e46d-acf3-4edf-90a4-8acbcea6586e", "name": "Snipes Mountain Brewing Co", "brewery_type": "micro", "address_1": "905 Yakima Valley Hwy", "address_2": null, "address_3": null, "city": "Sunnyside", "state_province": "Washington", "postal_code": "98944-1334", "country": "United States", "longitude": "-120.0114902", "latitude": "46.32921174", "phone": "5098372739", "website_url": "http://www.snipesmountain.com", "state": "Washington", "street": "905 Yakima Valley Hwy"}, {"id": "f520b880-2360-4cb9-88fb-a15f03c01fc0", "name": "Snitz Creek Brewery", "brewery_type": "brewpub", "address_1": "7 N 9th St", "address_2": null, "address_3": null, "city": "Lebanon", "state_province": "Pennsylvania", "postal_code": "17046-4902", "country": "United States", "longitude": "-76.42637732", "latitude": "40.33937728", "phone": "7174504467", "website_url": "http://www.snitzcreekbrewery.com", "state": "Pennsylvania", "street": "7 N 9th St"}, {"id": "9f37b457-f853-47c4-9fb1-95fa1287b095", "name": "Snoqualmie Falls Brewing Co", "brewery_type": "brewpub", "address_1": "8032 Falls Ave SE", "address_2": null, "address_3": null, "city": "Snoqualmie", "state_province": "Washington", "postal_code": "98065-0924", "country": "United States", "longitude": "-121.8240977", "latitude": "47.5286214", "phone": null, "website_url": null, "state": "Washington", "street": "8032 Falls Ave SE"}, {"id": "299a779f-c294-460e-97b1-fdc002e7d033", "name": "SnoTown Brewery", "brewery_type": "micro", "address_1": "511 2nd St", "address_2": null, "address_3": null, "city": "Snohomish", "state_province": "Washington", "postal_code": "98290-3009", "country": "United States", "longitude": "-122.088761", "latitude": "47.912652", "phone": "4252318113", "website_url": "http://www.facebook.com/SnoTownBrewery/", "state": "Washington", "street": "511 2nd St"}, {"id": "645db033-5fd1-47f2-aa98-8d996d148669", "name": "Snow Belt Brew", "brewery_type": "micro", "address_1": "9511 Kile Rd", "address_2": null, "address_3": null, "city": "Chardon", "state_province": "Ohio", "postal_code": "44024", "country": "United States", "longitude": null, "latitude": null, "phone": null, "website_url": null, "state": "Ohio", "street": "9511 Kile Rd"}, {"id": "a346740b-449c-486b-84b9-c6bcc88d423f", "name": "Snow Eagle Brewing", "brewery_type": "brewpub", "address_1": "455 River Pkwy", "address_2": null, "address_3": null, "city": "Idaho Falls", "state_province": "Idaho", "postal_code": "83402-3314", "country": "United States", "longitude": "-112.0452184", "latitude": "43.4950536", "phone": "2085570455", "website_url": "http://www.snoweaglebrewing.com", "state": "Idaho", "street": "455 River Pkwy"}, {"id": "dcf64959-67a8-4af7-8cbf-ddeb3b645883", "name": "Snow Hop Brewery", "brewery_type": "micro", "address_1": "685 Barney St Ste A", "address_2": null, "address_3": null, "city": "Helena", "state_province": "Montana", "postal_code": "59602", "country": "United States", "longitude": null, "latitude": null, "phone": "4064225026", "website_url": null, "state": "Montana", "street": "685 Barney St Ste A"}, {"id": "4e7d4dcd-13cd-4b18-acd3-7a690ba97aa0", "name": "Snowbank Brewing", "brewery_type": "micro", "address_1": "225 N Lemay Ave Ste 1", "address_2": null, "address_3": null, "city": "Fort Collins", "state_province": "Colorado", "postal_code": "80524-2555", "country": "United States", "longitude": null, "latitude": null, "phone": "9709995658", "website_url": "http://www.snowbank.beer", "state": "Colorado", "street": "225 N Lemay Ave Ste 1"}, {"id": "3467fc4d-c507-46c1-a962-31d470bb204c", "name": "Snowbelt Brewing Company", "brewery_type": "brewpub", "address_1": "132 W Main St Unit 1", "address_2": null, "address_3": null, "city": "Gaylord", "state_province": "Michigan", "postal_code": "49735-2304", "country": "United States", "longitude": null, "latitude": null, "phone": "9894487077", "website_url": null, "state": "Michigan", "street": "132 W Main St Unit 1"}, {"id": "6e862799-cb99-4d59-9eed-7255e4a44851", "name": "Snowshoe Brewing Co", "brewery_type": "brewpub", "address_1": "2050 Hwy 4", "address_2": null, "address_3": null, "city": "Arnold", "state_province": "California", "postal_code": "95223", "country": "United States", "longitude": "-120.3617024", "latitude": "38.2423881", "phone": "2097952272", "website_url": "http://www.snowshoebrewing.com", "state": "California", "street": "2050 Hwy 4"}, {"id": "70ae45d2-2998-4e2b-a88f-519ad2bee814", "name": "Snowy Mountain Brewery", "brewery_type": "brewpub", "address_1": "601 E Pic Pike Rd", "address_2": null, "address_3": null, "city": "Saratoga", "state_province": "Wyoming", "postal_code": "82331", "country": "United States", "longitude": null, "latitude": null, "phone": "8005940178", "website_url": null, "state": "Wyoming", "street": "601 E Pic Pike Rd"}, {"id": "c97e04f0-8d82-4730-a622-028f71756b5d", "name": "Soaring Ridge Craft Brewers", "brewery_type": "micro", "address_1": "523 Shenandoah Ave NW", "address_2": null, "address_3": null, "city": "Roanoke", "state_province": "Virginia", "postal_code": "24016-2318", "country": "United States", "longitude": "-79.94962582", "latitude": "37.27473423", "phone": "5405292140", "website_url": "http://www.soaringridge.com", "state": "Virginia", "street": "523 Shenandoah Ave NW"}, {"id": "30827634-ef1e-4c6e-b5a2-5fa202a5edd0", "name": "Soaring Wings Brewing", "brewery_type": "micro", "address_1": "17111 S 138th St", "address_2": null, "address_3": null, "city": "Springfield", "state_province": "Nebraska", "postal_code": "68059-4810", "country": "United States", "longitude": "-96.125404", "latitude": "41.06572", "phone": "4022532479", "website_url": "http://www.soaringwingswine.com", "state": "Nebraska", "street": "17111 S 138th St"}, {"id": "8301bc1c-4f4b-46c7-8217-fecb090a2d7c", "name": "Sobel's Obscure Brewery, LLC", "brewery_type": "contract", "address_1": "954 Arona Rd", "address_2": null, "address_3": null, "city": "New Stanton", "state_province": "Pennsylvania", "postal_code": "15672-1109", "country": "United States", "longitude": null, "latitude": null, "phone": "4125251553", "website_url": "http://www.Sobbrews.com", "state": "Pennsylvania", "street": "954 Arona Rd"}, {"id": "b6a17419-65d8-4d92-a996-bf26330e9f0a", "name": "Sociable Cider Werks", "brewery_type": "micro", "address_1": "1500 Fillmore St NE", "address_2": null, "address_3": null, "city": "Minneapolis", "state_province": "Minnesota", "postal_code": "55413-1657", "country": "United States", "longitude": "-93.2422388", "latitude": "45.0239772", "phone": "6127580105", "website_url": "http://www.sociablecider.com", "state": "Minnesota", "street": "1500 Fillmore St NE"}, {"id": "bcf8b5aa-57c0-4f94-8809-c419091badc2", "name": "Social Kitchen & Brewery", "brewery_type": "brewpub", "address_1": "1326 9th Ave", "address_2": null, "address_3": null, "city": "San Francisco", "state_province": "California", "postal_code": "94122-2309", "country": "United States", "longitude": "-122.4660662", "latitude": "37.7635041", "phone": "4156810330", "website_url": "http://www.socialkitchenandbrewery.com", "state": "California", "street": "1326 9th Ave"}, {"id": "cdab7b3e-8fbe-430f-9303-5399b1fc15df", "name": "Societe Brewing Company", "brewery_type": "micro", "address_1": "Societe Brewing Company 8262 Clairemont Mesa Blvd", "address_2": null, "address_3": null, "city": "San Diego", "state_province": "California", "postal_code": "92111-1702", "country": "United States", "longitude": "-117.1463568", "latitude": "32.8338146", "phone": "7138161157", "website_url": null, "state": "California", "street": "Societe Brewing Company 8262 Clairemont Mesa Blvd"}, {"id": "dc097df0-f535-4aba-9a70-f3dfbccb1b1c", "name": "Sockdolager Brewing Company", "brewery_type": "micro", "address_1": "720 China St", "address_2": null, "address_3": null, "city": "Abilene", "state_province": "Texas", "postal_code": "79602-2722", "country": "United States", "longitude": "-99.7270701", "latitude": "32.44139071", "phone": "3257211718", "website_url": "http://www.sockdolagerbrewery.com", "state": "Texas", "street": "720 China St"}, {"id": "b7d4cb54-84c9-417d-a512-d15825e4b10e", "name": "Sockeye Brewing Co", "brewery_type": "micro", "address_1": "12542 W Fairview Ave", "address_2": null, "address_3": null, "city": "Boise", "state_province": "Idaho", "postal_code": "83716-0026", "country": "United States", "longitude": "-116.252364", "latitude": "43.619049", "phone": "2083225200", "website_url": "http://www.sockyebrew.com", "state": "Idaho", "street": "12542 W Fairview Ave"}, {"id": "84a0e21f-7d91-42ba-9c07-81e504778f60", "name": "Soggy Bottom Brewing Co.", "brewery_type": "micro", "address_1": "660 Main St", "address_2": null, "address_3": null, "city": "Dunedin", "state_province": "Florida", "postal_code": "34698", "country": "United States", "longitude": "-82.78271981", "latitude": "28.0152064", "phone": "7276011698", "website_url": "http://www.soggybottombrewery.com", "state": "Florida", "street": "660 Main St"}, {"id": "6a0be8ef-dd30-47c4-8649-17245e0a1e5f", "name": "Solace Brewing Company", "brewery_type": "micro", "address_1": "42615 Trade West Dr Ste 100", "address_2": null, "address_3": null, "city": "Dulles", "state_province": "Virginia", "postal_code": "20166-2259", "country": "United States", "longitude": null, "latitude": null, "phone": "7033455630", "website_url": "http://www.solacebrewing.com", "state": "Virginia", "street": "42615 Trade West Dr Ste 100"}, {"id": "a760e66e-82a3-4f7d-8145-bc3f79c995e2", "name": "Solarc Brewing", "brewery_type": "contract", "address_1": "134 S Avenue 57", "address_2": null, "address_3": null, "city": "Los Angeles", "state_province": "California", "postal_code": "90042-4702", "country": "United States", "longitude": null, "latitude": null, "phone": "6319442990", "website_url": "http://www.solarcbrewing.com", "state": "California", "street": "134 S Avenue 57"}, {"id": "daca87d4-1d07-4fba-a2f1-aaa28d7aec1e", "name": "Solemn Oath Brewery", "brewery_type": "micro", "address_1": "1661 Quincy Ave Ste 179", "address_2": null, "address_3": null, "city": "Naperville", "state_province": "Illinois", "postal_code": "60540-3969", "country": "United States", "longitude": null, "latitude": null, "phone": "6309953062", "website_url": "http://www.solemnoathbrewery.com", "state": "Illinois", "street": "1661 Quincy Ave Ste 179"}, {"id": "816368fa-9f37-4e7d-962d-4fb3107b0a3a", "name": "Solera Brewery", "brewery_type": "micro", "address_1": "4945 Baseline Dr", "address_2": null, "address_3": null, "city": "Mount Hood Parkdale", "state_province": "Oregon", "postal_code": "-97041", "country": "United States", "longitude": "-121.5951287", "latitude": "45.51966439", "phone": "5413525500", "website_url": "http://www.solerabrewery.com", "state": "Oregon", "street": "4945 Baseline Dr"}, {"id": "8587e1dd-1acc-41ac-bf4b-c4550511e1f6", "name": "Solid Ground Brewing", "brewery_type": "brewpub", "address_1": "552 Pleasant Valley Road", "address_2": null, "address_3": null, "city": "Diamond Springs", "state_province": "California", "postal_code": "95619", "country": "United States", "longitude": "-120.8219606", "latitude": "38.6932793", "phone": "5303447442", "website_url": "http://www.solidgroundbrewing.com", "state": "California", "street": "552 Pleasant Valley Road"}, {"id": "deeb2585-3c04-49a8-bf79-9159ea0c7d31", "name": "Solid Rock Brewing", "brewery_type": "micro", "address_1": "2214 Bee Creek Rd", "address_2": null, "address_3": null, "city": "Spicewood", "state_province": "Texas", "postal_code": "78669-5136", "country": "United States", "longitude": null, "latitude": null, "phone": "5124878786", "website_url": "http://www.solidrockbrewing.com", "state": "Texas", "street": "2214 Bee Creek Rd"}, {"id": "09b8f1ce-13c9-4542-8eda-4967a8c83371", "name": "Solorio Brewing Co", "brewery_type": "micro", "address_1": "9395 Feron Blvd Ste K", "address_2": null, "address_3": null, "city": "Rancho Cucamonga", "state_province": "California", "postal_code": "91730-4565", "country": "United States", "longitude": "-117.6003239", "latitude": "34.09295495", "phone": "9097555400", "website_url": "http://www.soloriobrewing.com", "state": "California", "street": "9395 Feron Blvd Ste K"}, {"id": "45835e94-e69b-4511-b811-b8680cf44005", "name": "Solvang Brewing Co", "brewery_type": "brewpub", "address_1": "1547 Mission Dr", "address_2": null, "address_3": null, "city": "Solvang", "state_province": "California", "postal_code": "93463-2607", "country": "United States", "longitude": "-120.1448663", "latitude": "34.59615466", "phone": "8056882337", "website_url": "http://www.solvangbrewingcompany.com", "state": "California", "street": "1547 Mission Dr"}, {"id": "7c3654cd-94e2-43d1-a4a3-0109d64f96a7", "name": "Solvang Brewing Company - Lompoc", "brewery_type": "brewpub", "address_1": "234 N H St", "address_2": null, "address_3": null, "city": "Lompoc", "state_province": "California", "postal_code": "93436-6022", "country": "United States", "longitude": "-120.4574527", "latitude": "34.6419814", "phone": "9787292485", "website_url": "http://www.solvangbrewing.com", "state": "California", "street": "234 N H St"}, {"id": "7baaf926-7eaf-4803-98b4-f7597e969a08", "name": "Soma Brewing LLC", "brewery_type": "planning", "address_1": null, "address_2": null, "address_3": null, "city": "South Orange", "state_province": "New Jersey", "postal_code": "07079-1455", "country": "United States", "longitude": null, "latitude": null, "phone": "9737151450", "website_url": null, "state": "New Jersey", "street": null}, {"id": "472b6fa3-7855-4a02-a21e-b75b9ed12eea", "name": "SoMe Brewing Co", "brewery_type": "micro", "address_1": "1 York St Ste 3", "address_2": null, "address_3": null, "city": "York", "state_province": "Maine", "postal_code": "03909-1392", "country": "United States", "longitude": null, "latitude": null, "phone": "2073518162", "website_url": "http://somebrewingco.com", "state": "Maine", "street": "1 York St Ste 3"}, {"id": "9a23baf2-a0b8-43cd-a9ff-aa496d1123e9", "name": "Some Nerve Brewing Company", "brewery_type": "micro", "address_1": "5586 US Highway 51", "address_2": null, "address_3": null, "city": "Manitowish Waters", "state_province": "Wisconsin", "postal_code": "54545-6325", "country": "United States", "longitude": null, "latitude": null, "phone": "6085766040", "website_url": "http://www.somenervebrewing.com", "state": "Wisconsin", "street": "5586 US Highway 51"}, {"id": "ae889c78-5e3d-4ca9-ac90-ee8018e8419d", "name": "SomePlace Else Brewery", "brewery_type": "micro", "address_1": "6425 W 52nd Ave Unit 6/6B", "address_2": null, "address_3": null, "city": "Arvada", "state_province": "Colorado", "postal_code": "80002-4008", "country": "United States", "longitude": null, "latitude": null, "phone": "7205124162", "website_url": null, "state": "Colorado", "street": "6425 W 52nd Ave Unit 6/6B"}, {"id": "2df1aca7-cceb-4928-b5f5-5e2307d6cd38", "name": "Somers Point Brewing Company", "brewery_type": "planning", "address_1": null, "address_2": null, "address_3": null, "city": "Somers Point", "state_province": "New Jersey", "postal_code": "08244-1822", "country": "United States", "longitude": null, "latitude": null, "phone": null, "website_url": null, "state": "New Jersey", "street": null}, {"id": "d4b6dce4-8521-402d-a39b-0eef19bfcb7f", "name": "Somerville Brewing Company", "brewery_type": "micro", "address_1": "15 Ward St", "address_2": null, "address_3": null, "city": "Somerville", "state_province": "Massachusetts", "postal_code": "02143-4228", "country": "United States", "longitude": "-71.0890345", "latitude": "42.3749103", "phone": "8004281150", "website_url": "http://www.slumbrew.com", "state": "Massachusetts", "street": "15 Ward St"}, {"id": "48540aba-e08a-4f3e-93ca-b838dfc41480", "name": "Something Brewery", "brewery_type": "micro", "address_1": "117 N Main St Unit A", "address_2": null, "address_3": null, "city": "Brighton", "state_province": "Colorado", "postal_code": "80601-1778", "country": "United States", "longitude": null, "latitude": null, "phone": "7206601343", "website_url": "http://www.somethingbrewery.com", "state": "Colorado", "street": "117 N Main St Unit A"}, {"id": "696cdcee-6898-4e99-b290-5f6e493c0031", "name": "Something Wicked Brewing Company", "brewery_type": "brewpub", "address_1": "34 Broadway Ste 200", "address_2": null, "address_3": null, "city": "Hanover", "state_province": "Pennsylvania", "postal_code": "17331-3104", "country": "United States", "longitude": "-76.98291017", "latitude": "39.80048752", "phone": "7173165488", "website_url": "http://www.somethingwickedbrewing.com", "state": "Pennsylvania", "street": "34 Broadway Ste 200"}, {"id": "1d5af320-379d-4812-b7c9-a2cfe9e3b22d", "name": "Sonder Brewing", "brewery_type": "planning", "address_1": null, "address_2": null, "address_3": null, "city": "Maineville", "state_province": "Ohio", "postal_code": "45039-8103", "country": "United States", "longitude": null, "latitude": null, "phone": "6303473323", "website_url": "http://www.sonderbrewery.com", "state": "Ohio", "street": null}, {"id": "6925abe5-88ef-4e5a-974f-e22c32039d3c", "name": "Sonoma Grille", "brewery_type": "brewpub", "address_1": "165 W Napa St", "address_2": null, "address_3": null, "city": "Sonoma", "state_province": "California", "postal_code": "95476-6626", "country": "United States", "longitude": "-122.4599821", "latitude": "38.29204322", "phone": "7079387542", "website_url": "http://www.sonomagrilleandbar.com", "state": "California", "street": "165 W Napa St"}, {"id": "25abf0bf-0e86-4d42-85fd-d238cec244a6", "name": "Sonoma Springs Brewing Co", "brewery_type": "micro", "address_1": "19449 Riverside Dr Ste 101", "address_2": null, "address_3": null, "city": "Sonoma", "state_province": "California", "postal_code": "95476-6357", "country": "United States", "longitude": "-122.477788", "latitude": "38.294506", "phone": "7079387422", "website_url": "http://www.sonomaspringsbrewing.com", "state": "California", "street": "19449 Riverside Dr Ste 101"}, {"id": "4032ebf7-ed73-4dd4-b57c-a898a13ffbca", "name": "Sonoran Brewing", "brewery_type": "contract", "address_1": "3002 E Washington St", "address_2": null, "address_3": null, "city": "Phoenix", "state_province": "Arizona", "postal_code": "85034-1518", "country": "United States", "longitude": "-111.9805737", "latitude": "33.4475332", "phone": "6025108996", "website_url": "http://www.sonoranbrewing.com", "state": "Arizona", "street": "3002 E Washington St"}, {"id": "b568fe15-2cf7-4183-8826-18ad6b386fdf", "name": "Sons of Liberty Aleworks", "brewery_type": "micro", "address_1": "1780 Town and Country Dr Ste 101", "address_2": null, "address_3": null, "city": "Norco", "state_province": "California", "postal_code": "92860-3618", "country": "United States", "longitude": "-117.5597542", "latitude": "33.9277892", "phone": "9514035122", "website_url": "http://www.solaleworks.com", "state": "California", "street": "1780 Town and Country Dr Ste 101"}, {"id": "f4f2d543-ddd8-4b3d-9781-d0061c7f30fb", "name": "Sons of Liberty Beer & Spirits Co.", "brewery_type": "micro", "address_1": "1425 Kingstown Rd", "address_2": null, "address_3": null, "city": "Wakefield", "state_province": "Rhode Island", "postal_code": "02879-8313", "country": "United States", "longitude": "-71.50525999", "latitude": "41.4545347", "phone": "4012844006", "website_url": "http://www.solspirits.com", "state": "Rhode Island", "street": "1425 Kingstown Rd"}, {"id": "25a9e66c-1c32-48fd-91d6-33cd1e134a72", "name": "Sons Of Toil Brewing LLC", "brewery_type": "micro", "address_1": "14090 Klein Rd", "address_2": null, "address_3": null, "city": "Mount Orab", "state_province": "Ohio", "postal_code": "45154-8312", "country": "United States", "longitude": null, "latitude": null, "phone": "5132509082", "website_url": "http://www.sonsoftoilllc.com/", "state": "Ohio", "street": "14090 Klein Rd"}, {"id": "14fdc2e7-b2a0-482f-9bea-f7894b659797", "name": "Soo Brewing Company", "brewery_type": "micro", "address_1": "223 W Portage Ave", "address_2": null, "address_3": null, "city": "Sault Sainte Marie", "state_province": "Michigan", "postal_code": "49783-1921", "country": "United States", "longitude": "-84.3482782", "latitude": "46.50089794", "phone": "9066324400", "website_url": "http://www.soobrew.com", "state": "Michigan", "street": "223 W Portage Ave"}, {"id": "a0af6b24-2eb6-4ce8-b42d-87e7cad700cd", "name": "Sophisticated Hound Brewing Company", "brewery_type": "micro", "address_1": null, "address_2": null, "address_3": null, "city": "Princeton", "state_province": "West Virginia", "postal_code": "24739", "country": "United States", "longitude": "-81.094116", "latitude": "37.369408", "phone": "3043206674", "website_url": "https://www.facebook.com/sophisticatedhoundbrewing", "state": "West Virginia", "street": null}, {"id": "929392c7-2382-4da1-8fcf-b76bbdd99684", "name": "Soquel Fermentation Project", "brewery_type": "micro", "address_1": null, "address_2": null, "address_3": null, "city": "Los Gatos", "state_province": "California", "postal_code": "95033", "country": "United States", "longitude": "-121.9746797", "latitude": "37.226611", "phone": null, "website_url": "http://facebook.com/Soquel-Fermentation-Project-1661153424004618/", "state": "California", "street": null}, {"id": "975069f8-dc38-4da1-aa78-b58baf0f930c", "name": "Soul and Spirits Brewery", "brewery_type": "micro", "address_1": "845 N Main St", "address_2": null, "address_3": null, "city": "Memphis", "state_province": "Tennessee", "postal_code": "38107-2311", "country": "United States", "longitude": "-90.04509728", "latitude": "35.16565513", "phone": null, "website_url": "https://soulandspiritsbrew.com", "state": "Tennessee", "street": "845 N Main St"}, {"id": "dff336da-9bbd-4e06-8ab9-405775650ed5", "name": "Soul Squared Brewing Co.", "brewery_type": "micro", "address_1": "6412 N County Road 15", "address_2": null, "address_3": null, "city": "Fort Collins", "state_province": "Colorado", "postal_code": "80524", "country": "United States", "longitude": null, "latitude": null, "phone": null, "website_url": "http://www.soulsquaredbrewing.com", "state": "Colorado", "street": "6412 N County Road 15"}, {"id": "5b9cb6f1-bd63-4ccd-85b2-d5436e2a3b0a", "name": "Soulcraft Brewing", "brewery_type": "micro", "address_1": "248 W US Highway 50", "address_2": null, "address_3": null, "city": "Salida", "state_province": "Colorado", "postal_code": "81201-2347", "country": "United States", "longitude": null, "latitude": null, "phone": "7195395428", "website_url": "http://www.soulcraftbeer.com", "state": "Colorado", "street": "248 W US Highway 50"}, {"id": "558a2818-59dc-4eb0-91c0-5525cc4d81f3", "name": "Sound Brewery", "brewery_type": "micro", "address_1": "19479 Viking Ave NW", "address_2": null, "address_3": null, "city": "Poulsbo", "state_province": "Washington", "postal_code": "98370-8370", "country": "United States", "longitude": "-122.6596831", "latitude": "47.7398382", "phone": "3609308696", "website_url": "http://www.soundbrewery.com", "state": "Washington", "street": "19479 Viking Ave NW"}, {"id": "89be9447-b3be-42a4-ad1a-018df8047203", "name": "Sound To Summit", "brewery_type": "brewpub", "address_1": "1830 Bickford Ave Ste 111", "address_2": null, "address_3": null, "city": "Snohomish", "state_province": "Washington", "postal_code": "98290-1751", "country": "United States", "longitude": "-122.1023927", "latitude": "47.93307859", "phone": "3602948127", "website_url": "http://www.sound2summit.com", "state": "Washington", "street": "1830 Bickford Ave Ste 111"}, {"id": "02f62869-f3c5-47f8-a09d-bc6b498e1f84", "name": "Soundgrowler Brewing Co.", "brewery_type": "brewpub", "address_1": "8201 183rd St Ste P", "address_2": null, "address_3": null, "city": "Tinley Park", "state_province": "Illinois", "postal_code": "60487-9377", "country": "United States", "longitude": null, "latitude": null, "phone": "7082630083", "website_url": "http://www.soundgrowler.com", "state": "Illinois", "street": "8201 183rd St Ste P"}, {"id": "47e7a620-d0fb-4dfa-8ae2-ce8cf0c3244c", "name": "Source Brewing", "brewery_type": "planning", "address_1": null, "address_2": null, "address_3": null, "city": "Colts Neck", "state_province": "New Jersey", "postal_code": "07722-2430", "country": "United States", "longitude": null, "latitude": null, "phone": "7327785184", "website_url": "http://www.sourcebrewing.com", "state": "New Jersey", "street": null}, {"id": "d656000d-73b8-45fb-8ad7-bf87103cb160", "name": "Souris River Brewing", "brewery_type": "brewpub", "address_1": "32 3rd St NE", "address_2": null, "address_3": null, "city": "Minot", "state_province": "North Dakota", "postal_code": "58703-3108", "country": "United States", "longitude": "-101.2883218", "latitude": "48.23686523", "phone": "7018371884", "website_url": "http://www.sourisriverbrewing.com", "state": "North Dakota", "street": "32 3rd St NE"}, {"id": "846c74cb-9739-4f97-b2b3-631145e7dae9", "name": "South Austin Brewery", "brewery_type": "micro", "address_1": "5701 W Slaughter Ln Bldg A130", "address_2": null, "address_3": null, "city": "Austin", "state_province": "Texas", "postal_code": "78749-6532", "country": "United States", "longitude": null, "latitude": null, "phone": "5123542337", "website_url": "http://www.southaustinbrewery.com", "state": "Texas", "street": "5701 W Slaughter Ln Bldg A130"}, {"id": "02131f19-7bde-422c-a363-9288b2df2a9b", "name": "South Bay Brewco", "brewery_type": "contract", "address_1": "930 McLaughlin Ave", "address_2": null, "address_3": null, "city": "San Jose", "state_province": "California", "postal_code": "95122-2611", "country": "United States", "longitude": "-121.8541694", "latitude": "37.3331712", "phone": "4082193696", "website_url": null, "state": "California", "street": "930 McLaughlin Ave"}, {"id": "bbc48ed5-74ab-4114-aa44-8212468b3074", "name": "South Bend Brew Werks", "brewery_type": "brewpub", "address_1": "216 S Michigan St", "address_2": null, "address_3": null, "city": "South Bend", "state_province": "Indiana", "postal_code": "46601-2002", "country": "United States", "longitude": "-86.25285572", "latitude": "41.62611855", "phone": "5743340356", "website_url": "http://www.southbendbrewwerks.com", "state": "Indiana", "street": "216 S Michigan St"}, {"id": "b5d293a4-c881-4469-9486-32bdcbc9b43b", "name": "South County Brewing Co", "brewery_type": "micro", "address_1": "104 Mill St", "address_2": null, "address_3": null, "city": "Fawn Grove", "state_province": "Pennsylvania", "postal_code": "17321-9654", "country": "United States", "longitude": "-76.44958324", "latitude": "39.7322666", "phone": "7173824016", "website_url": "http://www.southcountybrewing.com", "state": "Pennsylvania", "street": "104 Mill St"}, {"id": "5c7faaef-a2b0-4c31-bdd8-a0330cdd9d57", "name": "South Cypress Brewing", "brewery_type": "brewpub", "address_1": "895 Wiggins Pass Rd", "address_2": null, "address_3": null, "city": "Naples", "state_province": "Florida", "postal_code": "34110-6118", "country": "United States", "longitude": null, "latitude": null, "phone": "2396316397", "website_url": null, "state": "Florida", "street": "895 Wiggins Pass Rd"}, {"id": "e2515a84-6555-47a3-9f55-8b7ab14ec980", "name": "South Gate Brewing Co", "brewery_type": "brewpub", "address_1": "40233 Enterprise Dr", "address_2": null, "address_3": null, "city": "Oakhurst", "state_province": "California", "postal_code": "93644-8839", "country": "United States", "longitude": "-119.6618038", "latitude": "37.33172774", "phone": "8582321737", "website_url": "http://www.southgatebrewco.com", "state": "California", "street": "40233 Enterprise Dr"}, {"id": "b73a9ae9-403b-4e07-bc2c-eb77d042ef8e", "name": "South Haven Brewpub", "brewery_type": "brewpub", "address_1": "515 Williams St Ste 23", "address_2": null, "address_3": null, "city": "South Haven", "state_province": "Michigan", "postal_code": "49090-1493", "country": "United States", "longitude": null, "latitude": null, "phone": "2697677105", "website_url": "http://www.southhavenbrewpub.com", "state": "Michigan", "street": "515 Williams St Ste 23"}, {"id": "6eb31b02-b69d-4c55-9e53-d3cb18808aa5", "name": "South Lake Brewing Company", "brewery_type": "micro", "address_1": "1920 Lake Tahoe Blvd", "address_2": null, "address_3": null, "city": "South Lake Tahoe", "state_province": "California", "postal_code": "96150-6307", "country": "United States", "longitude": "-120.0074997", "latitude": "38.9118004", "phone": "5305780087", "website_url": "http://www.southlakebeer.com", "state": "California", "street": "1920 Lake Tahoe Blvd"}, {"id": "fc7df7f3-32fa-471d-9f34-5ebbe07162c5", "name": "South Park Brewing", "brewery_type": "brewpub", "address_1": "1517 30th St", "address_2": null, "address_3": null, "city": "San Diego", "state_province": "California", "postal_code": "92102-1503", "country": "United States", "longitude": "-117.130074", "latitude": "32.7470971", "phone": "6196109038", "website_url": "http://www.southparkbrewing.com", "state": "California", "street": "1517 30th St"}, {"id": "4a437c88-34c5-4b21-87c3-98289bae00f4", "name": "South Park Brewing", "brewery_type": "micro", "address_1": "297 1/2 US Hwy 285", "address_2": null, "address_3": null, "city": "Fairplay", "state_province": "Colorado", "postal_code": "80440-2131", "country": "United States", "longitude": null, "latitude": null, "phone": "7198361932", "website_url": "http://www.southparkbrewingco.com", "state": "Colorado", "street": "297 1/2 US Hwy 285"}, {"id": "ab5a979d-928d-47fd-94ee-2dd578ab2cad", "name": "South Shore Brewery", "brewery_type": "micro", "address_1": "808 Main St W", "address_2": null, "address_3": null, "city": "Ashland", "state_province": "Wisconsin", "postal_code": "54806-1404", "country": "United States", "longitude": "-90.89277984", "latitude": "46.58720123", "phone": "7156829199", "website_url": "http://www.southshorebrewery.com", "state": "Wisconsin", "street": "808 Main St W"}, {"id": "e90d03bc-7ada-42b4-b60b-1c2fc352be31", "name": "South Shore Brewery - Washburn", "brewery_type": "micro", "address_1": "532 W Bayfield St", "address_2": null, "address_3": null, "city": "Washburn", "state_province": "Wisconsin", "postal_code": "54891-1138", "country": "United States", "longitude": "-90.90116464", "latitude": "46.67061427", "phone": "7156829199", "website_url": null, "state": "Wisconsin", "street": "532 W Bayfield St"}, {"id": "73078bb1-4735-45e5-b27c-3e8d87914de4", "name": "South Street Brewery", "brewery_type": "brewpub", "address_1": "106 W South St Ste 202", "address_2": null, "address_3": null, "city": "Charlottesville", "state_province": "Virginia", "postal_code": "22902-3600", "country": "United States", "longitude": null, "latitude": null, "phone": "4342936550", "website_url": "http://www.southstreetbrewery.com", "state": "Virginia", "street": "106 W South St Ste 202"}, {"id": "86803100-fcae-4cda-9e75-060c2de677f3", "name": "Southampton Publick House", "brewery_type": "brewpub", "address_1": "62 Jobs Ln", "address_2": null, "address_3": null, "city": "Southampton", "state_province": "New York", "postal_code": "11968-4807", "country": "United States", "longitude": null, "latitude": null, "phone": "6312832800", "website_url": "http://www.publick.com", "state": "New York", "street": "62 Jobs Ln"}, {"id": "91ce7a11-6109-4dcc-98a3-196c939e96cb", "name": "Southbound Brewing Co", "brewery_type": "micro", "address_1": "107 E Lathrop Ave", "address_2": null, "address_3": null, "city": "Savannah", "state_province": "Georgia", "postal_code": "31415-2182", "country": "United States", "longitude": "-81.111372", "latitude": "32.087032", "phone": null, "website_url": "http://www.southboundbrewingco.com", "state": "Georgia", "street": "107 E Lathrop Ave"}, {"id": "ef1e0503-a145-451d-9e68-13ebc69b3b1a", "name": "Southerleigh Brewing", "brewery_type": "brewpub", "address_1": "136 E Grayson St., Ste 120", "address_2": null, "address_3": null, "city": "San Antonio", "state_province": "Texas", "postal_code": "78212-4114", "country": "United States", "longitude": null, "latitude": null, "phone": "2103137627", "website_url": "http://www.southerleigh.com", "state": "Texas", "street": "136 E Grayson St., Ste 120"}, {"id": "3e1ffead-2087-4bf9-8d03-621591c0ee27", "name": "Southern Appalachian Brewery", "brewery_type": "micro", "address_1": "822 Locust St Ste 100", "address_2": null, "address_3": null, "city": "Hendersonville", "state_province": "North Carolina", "postal_code": "28792-3758", "country": "United States", "longitude": null, "latitude": null, "phone": "8286841235", "website_url": null, "state": "North Carolina", "street": "822 Locust St Ste 100"}, {"id": "412573c0-b440-4110-bc4f-06f0177c8f36", "name": "Southern Barrel Brewing Company", "brewery_type": "micro", "address_1": "375 Buckwalter Place Blvd", "address_2": null, "address_3": null, "city": "Bluffton", "state_province": "South Carolina", "postal_code": "29910", "country": "United States", "longitude": "-80.9199124", "latitude": "32.2715377", "phone": "8438372337", "website_url": "http://www.southernbarrelbrewingco.com", "state": "South Carolina", "street": "375 Buckwalter Place Blvd"}, {"id": "66db9365-5062-4f15-b25f-c40c894c9ec3", "name": "Southern Brewing & Winemaking Brewery", "brewery_type": "brewpub", "address_1": "4500 N Nebraska Ave", "address_2": null, "address_3": null, "city": "Tampa", "state_province": "Florida", "postal_code": "33603-4149", "country": "United States", "longitude": "-82.4500207", "latitude": "27.9495902", "phone": "8132387800", "website_url": "http://www.southernbrewingwinemaking.com", "state": "Florida", "street": "4500 N Nebraska Ave"}, {"id": "51618504-46a9-4a44-9d67-80ce0873d1c2", "name": "Southern Brewing Company", "brewery_type": "micro", "address_1": "231 Collins Industrial Blvd", "address_2": null, "address_3": null, "city": "Athens", "state_province": "Georgia", "postal_code": "30601-1517", "country": "United States", "longitude": "-83.35002287", "latitude": "33.98114012", "phone": "7065487183", "website_url": "http://www.sobrewco.com", "state": "Georgia", "street": "231 Collins Industrial Blvd"}, {"id": "4ef9f5b8-3d53-4339-84e6-76f0ba810e27", "name": "Southern Craft Brewing Company", "brewery_type": "micro", "address_1": "14141 Airline Hwy Ste 4J", "address_2": null, "address_3": null, "city": "Baton Rouge", "state_province": "Louisiana", "postal_code": "70817-6259", "country": "United States", "longitude": null, "latitude": null, "phone": "2256638119", "website_url": "http://www.socraftbeer.com", "state": "Louisiana", "street": "14141 Airline Hwy Ste 4J"}, {"id": "2c990dc6-64f9-466a-85f0-2aeb9794916d", "name": "Southern Grist Brewing Company", "brewery_type": "micro", "address_1": "1201 Porter Rd", "address_2": null, "address_3": null, "city": "Nashville", "state_province": "Tennessee", "postal_code": "37206-1733", "country": "United States", "longitude": "-86.729011", "latitude": "36.188838", "phone": "6157271201", "website_url": "http://www.southerngristbrewing.com", "state": "Tennessee", "street": "1201 Porter Rd"}, {"id": "6c544f75-7fa2-4229-9a63-765c5e756af4", "name": "Southern Heights Brewing Co LLC", "brewery_type": "micro", "address_1": "6014 Techni Center Dr Ste 2-101", "address_2": null, "address_3": null, "city": "Austin", "state_province": "Texas", "postal_code": "78721-2349", "country": "United States", "longitude": null, "latitude": null, "phone": "5126506901", "website_url": "http://www.southernheightsbrewing.com", "state": "Texas", "street": "6014 Techni Center Dr Ste 2-101"}, {"id": "27361067-b6df-4298-8d41-39e933312469", "name": "Southern Hops Brewing Co.", "brewery_type": "brewpub", "address_1": "911 Sunset Acres Ln", "address_2": null, "address_3": null, "city": "Florence", "state_province": "South Carolina", "postal_code": "29501-6073", "country": "United States", "longitude": null, "latitude": null, "phone": "8436671900", "website_url": "http://www.southernhops.com", "state": "South Carolina", "street": "911 Sunset Acres Ln"}, {"id": "c92aeb72-e934-460d-aa03-86da72b6d0c4", "name": "Southern Lights Brewing", "brewery_type": "micro", "address_1": "2045 Gulf To Bay Blvd Ste D", "address_2": null, "address_3": null, "city": "Clearwater", "state_province": "Florida", "postal_code": "33765-3752", "country": "United States", "longitude": null, "latitude": null, "phone": "7276149919", "website_url": "http://www.southernlightsbrewing.com", "state": "Florida", "street": "2045 Gulf To Bay Blvd Ste D"}, {"id": "322e1333-9ac0-49f8-9313-39b117f0f647", "name": "Southern Pacific Brewing", "brewery_type": "brewpub", "address_1": "620 Treat Ave", "address_2": null, "address_3": null, "city": "San Francisco", "state_province": "California", "postal_code": "94110-2016", "country": "United States", "longitude": "-122.4139896", "latitude": "37.7601311", "phone": "4153410152", "website_url": "http://www.southernpacificbrewing.com", "state": "California", "street": "620 Treat Ave"}, {"id": "3ae0a49a-4062-4373-a647-98d246ce43d2", "name": "Southern Peak Brewery", "brewery_type": "micro", "address_1": "950 Windy Rd Ste 100", "address_2": null, "address_3": null, "city": "Apex", "state_province": "North Carolina", "postal_code": "27502-2410", "country": "United States", "longitude": "-78.8439995", "latitude": "35.7461806", "phone": "9192084515", "website_url": "http://www.southernpeakbrewery.com", "state": "North Carolina", "street": "950 Windy Rd Ste 100"}, {"id": "2be3a6fa-c941-4347-ac5e-52aef8acabd4", "name": "Southern Pines Brewing Company", "brewery_type": "micro", "address_1": "565 Air Tool Dr Ste E", "address_2": null, "address_3": null, "city": "Southern Pines", "state_province": "North Carolina", "postal_code": "28387-3469", "country": "United States", "longitude": null, "latitude": null, "phone": "9103659925", "website_url": "http://www.southernpinesbrewing.com", "state": "North Carolina", "street": "565 Air Tool Dr Ste E"}, {"id": "53129047-f8f0-44a6-a064-7c4f44b90a4a", "name": "Southern Prohibition Brewing", "brewery_type": "micro", "address_1": "301 Mobile St", "address_2": null, "address_3": null, "city": "Hattiesburg", "state_province": "Mississippi", "postal_code": "39401-3406", "country": "United States", "longitude": "-89.28992011", "latitude": "31.33123464", "phone": "6014671057", "website_url": "http://www.soprobrewing.com", "state": "Mississippi", "street": "301 Mobile St"}, {"id": "87decbbd-efa4-4914-a50b-0622169f7dfd", "name": "Southern Range Brewing", "brewery_type": "brewpub", "address_1": "151 S Stewart St", "address_2": null, "address_3": null, "city": "Monroe", "state_province": "North Carolina", "postal_code": "28112", "country": "United States", "longitude": "-80.55091346", "latitude": "34.98073637", "phone": "7042894049", "website_url": "http://www.southernrangebrewing.com", "state": "North Carolina", "street": "151 S Stewart St"}, {"id": "3d22a2ae-d718-4714-9eaf-7afa0480f9c9", "name": "Southern Sky Brewing Co", "brewery_type": "micro", "address_1": "1590 N Roberts Rd NW Ste 208", "address_2": null, "address_3": null, "city": "Kennesaw", "state_province": "Georgia", "postal_code": "30144-3636", "country": "United States", "longitude": null, "latitude": null, "phone": "7707028318", "website_url": "http://www.southernskybrewing.com", "state": "Georgia", "street": "1590 N Roberts Rd NW Ste 208"}, {"id": "c914b941-351f-4f4a-8256-8791d9a6562e", "name": "Southern Star Brewing", "brewery_type": "micro", "address_1": "3525 N Frazier St", "address_2": null, "address_3": null, "city": "Conroe", "state_province": "Texas", "postal_code": "77303-1430", "country": "United States", "longitude": "-95.4776897", "latitude": "30.3587546", "phone": "9364412739", "website_url": "http://www.southernstarbrewing.com", "state": "Texas", "street": "3525 N Frazier St"}, {"id": "7b6e3cce-d456-4ae4-9e09-8debafb72d3a", "name": "Southern Sun Pub and Brewery", "brewery_type": "brewpub", "address_1": "627 S Broadway St", "address_2": null, "address_3": null, "city": "Boulder", "state_province": "Colorado", "postal_code": "80305-5944", "country": "United States", "longitude": null, "latitude": null, "phone": "3035430886", "website_url": "http://www.mountainsunpub.com", "state": "Colorado", "street": "627 S Broadway St"}, {"id": "1feb9508-e9e7-476b-bf27-54e7beb0dc46", "name": "Southern Swells Brewing Company", "brewery_type": "micro", "address_1": "1312 Beach Blvd", "address_2": null, "address_3": null, "city": "Jacksonville Beach", "state_province": "Florida", "postal_code": "32250-3408", "country": "United States", "longitude": "-81.3923194", "latitude": "30.2882669", "phone": "9046546425", "website_url": "http://www.southernswells.com", "state": "Florida", "street": "1312 Beach Blvd"}, {"id": "d60a6feb-13cc-4b3f-b501-a784512982ec", "name": "Southern Tier Brewing Co", "brewery_type": "regional", "address_1": "2072 Stoneman Cir", "address_2": null, "address_3": null, "city": "Lakewood", "state_province": "New York", "postal_code": "14750-9779", "country": "United States", "longitude": null, "latitude": null, "phone": "7167635479", "website_url": "http://www.southerntierbrewing.com", "state": "New York", "street": "2072 Stoneman Cir"}, {"id": "33b5dae7-7850-4d45-a7a5-8716f7bcb6c6", "name": "Southern Tier Brewing Co", "brewery_type": "planning", "address_1": null, "address_2": null, "address_3": null, "city": "Cleveland", "state_province": "Ohio", "postal_code": "44115-1111", "country": "United States", "longitude": null, "latitude": null, "phone": null, "website_url": null, "state": "Ohio", "street": null}, {"id": "30e025c7-8629-484a-9508-d848208212a6", "name": "Southern Tier Brewing Co", "brewery_type": "brewpub", "address_1": "316 N Shore Dr", "address_2": null, "address_3": null, "city": "Pittsburgh", "state_province": "Pennsylvania", "postal_code": "15212-5870", "country": "United States", "longitude": "-80.008595", "latitude": "40.4464115", "phone": "4123012337", "website_url": "http://www.stbcbeer.com", "state": "Pennsylvania", "street": "316 N Shore Dr"}, {"id": "c870f079-c22b-477a-9d05-40f2e40e56a7", "name": "Southern Yankee Beer Company", "brewery_type": "planning", "address_1": null, "address_2": null, "address_3": null, "city": "Houston", "state_province": "Texas", "postal_code": "77073", "country": "United States", "longitude": null, "latitude": null, "phone": null, "website_url": "http://southernyankeebeer.com", "state": "Texas", "street": null}, {"id": "c5cbdec7-f48c-4e94-a1b5-b2dca664e66e", "name": "Southpaw BBQ & Southern Cooking", "brewery_type": "brewpub", "address_1": "2170 Mission St", "address_2": null, "address_3": null, "city": "San Francisco", "state_province": "California", "postal_code": "94110-1247", "country": "United States", "longitude": "-122.4195306", "latitude": "37.7634391", "phone": "4159349300", "website_url": "http://www.southpawbbqsf.com", "state": "California", "street": "2170 Mission St"}, {"id": "2e5cf2f4-d238-4eba-95f1-1d736e7cfa2e", "name": "Southside Brewing Co", "brewery_type": "brewpub", "address_1": "62920 Georgetown Rd", "address_2": null, "address_3": null, "city": "Cambridge", "state_province": "Ohio", "postal_code": "43725-9749", "country": "United States", "longitude": null, "latitude": null, "phone": "7404353222", "website_url": "http://www.southsidebrewing.net", "state": "Ohio", "street": "62920 Georgetown Rd"}, {"id": "3cec9f9a-adef-4536-9107-fb1f8324a088", "name": "Sovina, Lda.", "brewery_type": "micro", "address_1": "Rua Manuel Pinto de Azevedo, 65", "address_2": "Armaz\u00e9m 4 e 5", "address_3": null, "city": "Porto", "state_province": "Porto", "postal_code": "4100-321 ", "country": "Portugal", "longitude": "-8.645222959665363", "latitude": "41.17075782152705", "phone": "+351 22 600 69 36", "website_url": "https://sovina.pt/", "state": "Porto", "street": "Rua Manuel Pinto de Azevedo, 65"}, {"id": "be72c629-781c-4103-a6bb-afce18774c4e", "name": "Spada Farmhouse Brewery", "brewery_type": "micro", "address_1": null, "address_2": null, "address_3": null, "city": "Snohomish", "state_province": "Washington", "postal_code": "98290-6125", "country": "United States", "longitude": null, "latitude": null, "phone": "4253306938", "website_url": "http://www.spadafarmhousebrewery.com", "state": "Washington", "street": null}, {"id": "74960c65-dabf-4e8e-a2e8-8ee5d304aec0", "name": "Spahr Brewing Company", "brewery_type": "micro", "address_1": "3541 W Fairfield Dr", "address_2": null, "address_3": null, "city": "Pensacola", "state_province": "Florida", "postal_code": "32505-4862", "country": "United States", "longitude": "-87.25663063", "latitude": "30.44184376", "phone": "8504395362", "website_url": "http://www.spahrbrewingcompany.com", "state": "Florida", "street": "3541 W Fairfield Dr"}, {"id": "2334bc0b-57f3-49a0-9b7a-7d8f1d5f5edd", "name": "Spangalang Brewery", "brewery_type": "micro", "address_1": "2736 Welton St Ste 102", "address_2": null, "address_3": null, "city": "Denver", "state_province": "Colorado", "postal_code": "80205-2900", "country": "United States", "longitude": "-104.9770361", "latitude": "39.7552227", "phone": "3032971276", "website_url": "http://www.spangalangbrewery.com", "state": "Colorado", "street": "2736 Welton St Ste 102"}, {"id": "61181a27-5fe3-4f0b-843a-62cbe818139f", "name": "Spartan Brewpub", "brewery_type": "brewpub", "address_1": "3056 Okemos Rd", "address_2": null, "address_3": null, "city": "Mason", "state_province": "Michigan", "postal_code": "48854-9300", "country": "United States", "longitude": "-84.43276467", "latitude": "42.67095756", "phone": "5175075098", "website_url": "http://spartanbrewpub.com/", "state": "Michigan", "street": "3056 Okemos Rd"}, {"id": "0c378519-6171-4f1a-9535-345a0e99af03", "name": "Speakeasy Ales and Lagers", "brewery_type": "micro", "address_1": "1195 Evans Ave", "address_2": null, "address_3": null, "city": "San Francisco", "state_province": "California", "postal_code": "94124-1704", "country": "United States", "longitude": "-122.3808557", "latitude": "37.73854531", "phone": "4156423371", "website_url": "http://www.goodbeer.com", "state": "California", "street": "1195 Evans Ave"}, {"id": "ef0527d9-0605-4d3a-adce-9e59dd492e66", "name": "Spearfish Brewing Company", "brewery_type": "micro", "address_1": "741 N Main St Ste 130", "address_2": null, "address_3": null, "city": "Spearfish", "state_province": "South Dakota", "postal_code": "57783-4147", "country": "United States", "longitude": "-103.8597028", "latitude": "44.4910696", "phone": "6057176999", "website_url": "http://spearfishbrewing.com", "state": "South Dakota", "street": "741 N Main St Ste 130"}, {"id": "4678264d-4bc5-4649-8628-1759040efa82", "name": "Speciation Artisan Ales", "brewery_type": "micro", "address_1": "3720 West River Dr NE Ste 201", "address_2": null, "address_3": null, "city": "Comstock Park", "state_province": "Michigan", "postal_code": "49321-8980", "country": "United States", "longitude": null, "latitude": null, "phone": "6166666783", "website_url": "http://speciationartisanales.com", "state": "Michigan", "street": "3720 West River Dr NE Ste 201"}, {"id": "ade45bb3-7a21-4ebb-ade0-a792c648813d", "name": "Spellbound Brewing", "brewery_type": "micro", "address_1": "10 Lippincott Ln Unit 12", "address_2": null, "address_3": null, "city": "Mount Holly", "state_province": "New Jersey", "postal_code": "08060-1603", "country": "United States", "longitude": null, "latitude": null, "phone": "6098320077", "website_url": "http://www.spellboundbrewing.com", "state": "New Jersey", "street": "10 Lippincott Ln Unit 12"}, {"id": "ebe3d590-e35e-49ba-9ce6-df24e50fe330", "name": "Spencer Brewery", "brewery_type": "micro", "address_1": "167 N Spencer Rd", "address_2": null, "address_3": null, "city": "Spencer", "state_province": "Massachusetts", "postal_code": "01562-1232", "country": "United States", "longitude": "-72.0133159", "latitude": "42.2976331", "phone": "5088855756", "website_url": "http://www.spencerbrewery.com", "state": "Massachusetts", "street": "167 N Spencer Rd"}, {"id": "da222760-6803-40e1-bc20-b7c10d590e67", "name": "Spencer Devon Brewing", "brewery_type": "brewpub", "address_1": "106 George St", "address_2": null, "address_3": null, "city": "Fredericksburg", "state_province": "Virginia", "postal_code": "22401-5863", "country": "United States", "longitude": "-77.4587704", "latitude": "38.30272523", "phone": "5404798381", "website_url": "http://www.spencerdevonbrewing.com", "state": "Virginia", "street": "106 George St"}, {"id": "95832751-54ac-44a4-adb6-054400c8e02a", "name": "Spice Trade Brewing", "brewery_type": "brewpub", "address_1": "7803 Ralston Rd", "address_2": null, "address_3": null, "city": "Arvada", "state_province": "Colorado", "postal_code": "80002-2433", "country": "United States", "longitude": "-105.0841731", "latitude": "39.802334", "phone": "3034319000", "website_url": "http://www.spicetradebrewing.com", "state": "Colorado", "street": "7803 Ralston Rd"}, {"id": "8071c162-cfc3-4053-b12b-eca3bb37f2b4", "name": "Spider Bite Brewing Co", "brewery_type": "micro", "address_1": "920 Lincoln Ave Unit 5", "address_2": null, "address_3": null, "city": "Holbrook", "state_province": "New York", "postal_code": "11741-2257", "country": "United States", "longitude": null, "latitude": null, "phone": "6319423255", "website_url": "http://www.spiderbitebeer.com", "state": "New York", "street": "920 Lincoln Ave Unit 5"}, {"id": "d607f1e5-cce4-4fe4-a6bf-6ad2b0bfa19d", "name": "Spigots Brew Pub", "brewery_type": "brewpub", "address_1": "622 Barrow St", "address_2": null, "address_3": null, "city": "Houma", "state_province": "Louisiana", "postal_code": "70360-4608", "country": "United States", "longitude": "-90.71974565", "latitude": "29.59396551", "phone": "9853333103", "website_url": "http://www.spigotsbrewpub.com", "state": "Louisiana", "street": "622 Barrow St"}, {"id": "7fdb8e35-58e6-40f2-955d-b57fff14eddb", "name": "Spilled Grain Brewhouse", "brewery_type": "micro", "address_1": "300 Elm St E", "address_2": null, "address_3": null, "city": "Annandale", "state_province": "Minnesota", "postal_code": "55302-9406", "country": "United States", "longitude": "-94.11946132", "latitude": "45.25958238", "phone": "3202741129", "website_url": "http://www.spilledgrainbrewhouse.com", "state": "Minnesota", "street": "300 Elm St E"}, {"id": "57da9428-05ab-44e9-8f30-253292f1b1ea", "name": "Spindletap Brewery", "brewery_type": "micro", "address_1": "10622 Hirsch Rd", "address_2": null, "address_3": null, "city": "Houston", "state_province": "Texas", "postal_code": "77016-2622", "country": "United States", "longitude": "-95.3149254", "latitude": "29.8677396", "phone": "7133251477", "website_url": "http://www.spindletap.com", "state": "Texas", "street": "10622 Hirsch Rd"}, {"id": "3e5a42f9-3f8d-4156-b732-00e4a3f734ce", "name": "Spiral Brewery", "brewery_type": "micro", "address_1": "111 2nd St E", "address_2": null, "address_3": null, "city": "Hastings", "state_province": "Minnesota", "postal_code": "55033-1265", "country": "United States", "longitude": "-92.8524399", "latitude": "44.7443609", "phone": "6517264832", "website_url": "http://Spiralbrewery.com", "state": "Minnesota", "street": "111 2nd St E"}, {"id": "0dfcc382-8b95-4506-a24d-6d5466af82d8", "name": "Spires Social Brewing Co.", "brewery_type": "micro", "address_1": "8757 Sancus Blvd", "address_2": null, "address_3": null, "city": "Columbus", "state_province": "Ohio", "postal_code": "43240", "country": "United States", "longitude": "-83.004836", "latitude": "40.1473396", "phone": "6144268057", "website_url": "http://www.spiressocial.com", "state": "Ohio", "street": "8757 Sancus Blvd"}, {"id": "004fd048-ed5e-44b6-a116-5d0f5204db06", "name": "Spiteful Brewing", "brewery_type": "micro", "address_1": "2024 W Balmoral Ave", "address_2": null, "address_3": null, "city": "Chicago", "state_province": "Illinois", "postal_code": "60625-1002", "country": "United States", "longitude": "-87.6806429", "latitude": "41.979914", "phone": "7732936600", "website_url": "http://www.spitefulbrewing.com", "state": "Illinois", "street": "2024 W Balmoral Ave"}, {"id": "08f12f3f-b6fa-45a3-ba43-782f34fd1de8", "name": "Splintercat Brewing", "brewery_type": "planning", "address_1": null, "address_2": null, "address_3": null, "city": "Corvallis", "state_province": "Oregon", "postal_code": "97330-1348", "country": "United States", "longitude": null, "latitude": null, "phone": null, "website_url": null, "state": "Oregon", "street": null}, {"id": "23df1166-5226-4808-ab4c-6ebf216ccc4c", "name": "Spoetzl Brewery", "brewery_type": "regional", "address_1": "603 E Brewery St", "address_2": null, "address_3": null, "city": "Shiner", "state_province": "Texas", "postal_code": "77984-0368", "country": "United States", "longitude": null, "latitude": null, "phone": "3615943383", "website_url": "http://www.shiner.com", "state": "Texas", "street": "603 E Brewery St"}, {"id": "c45da661-0533-4277-8a7b-a8b8dcf669c0", "name": "Spoonwood Brewing Company", "brewery_type": "brewpub", "address_1": "5981 Baptist Rd", "address_2": null, "address_3": null, "city": "Pittsburgh", "state_province": "Pennsylvania", "postal_code": "15236-3303", "country": "United States", "longitude": null, "latitude": null, "phone": "4128330333", "website_url": "http://www.spoonwoodbrewing.com", "state": "Pennsylvania", "street": "5981 Baptist Rd"}, {"id": "914c6a0a-cc97-4db2-9956-cee2505194c7", "name": "Sports Brewpub", "brewery_type": "brewpub", "address_1": "166 Maple St", "address_2": null, "address_3": null, "city": "Wyandotte", "state_province": "Michigan", "postal_code": "48192-5928", "country": "United States", "longitude": "-83.15132628", "latitude": "42.20229805", "phone": "7342855060", "website_url": null, "state": "Michigan", "street": "166 Maple St"}, {"id": "1e01a465-adc4-4d87-affc-be9648ac0dbd", "name": "SportsBreweries", "brewery_type": "contract", "address_1": "Private Rd 5128", "address_2": null, "address_3": null, "city": "Frisco", "state_province": "Texas", "postal_code": "75034", "country": "United States", "longitude": "-96.7687762", "latitude": "33.1787931", "phone": "9726038647", "website_url": "http://www.sportsbreweries.com", "state": "Texas", "street": "Private Rd 5128"}, {"id": "f8c5522b-6ccf-44ff-86b4-92498df8a9a5", "name": "Spotted Dog Brewery", "brewery_type": "brewpub", "address_1": "2920 Avenida De Mesilla", "address_2": null, "address_3": null, "city": "Las Cruces", "state_province": "New Mexico", "postal_code": "88005", "country": "United States", "longitude": "-106.7852399", "latitude": "32.2938747", "phone": "5756502729", "website_url": "http://www.spotteddogbrewery.com", "state": "New Mexico", "street": "2920 Avenida De Mesilla"}, {"id": "e2d456b2-1c64-488b-9c11-8c9f3e7e06e0", "name": "Sprague Farm and Brew Works", "brewery_type": "brewpub", "address_1": "22043 US Highway 6 and 19", "address_2": null, "address_3": null, "city": "Venango", "state_province": "Pennsylvania", "postal_code": "16440-2507", "country": "United States", "longitude": null, "latitude": null, "phone": "8143982885", "website_url": "http://www.sleepingchainsaw.com", "state": "Pennsylvania", "street": "22043 US Highway 6 and 19"}, {"id": "79572eef-8de1-40ed-a2d2-19e8ecb77f6f", "name": "Sprecher Brewing Co / Chameleon Brewing", "brewery_type": "micro", "address_1": "701 W Glendale Ave", "address_2": null, "address_3": null, "city": "Glendale", "state_province": "Wisconsin", "postal_code": "53209-6509", "country": "United States", "longitude": "-87.91969511", "latitude": "43.09929865", "phone": "4149647837", "website_url": "http://www.sprecherbrewery.com", "state": "Wisconsin", "street": "701 W Glendale Ave"}, {"id": "46d4fd81-7f86-4a5e-82fd-4aa41d6039f7", "name": "Spring Gate Brewery", "brewery_type": "micro", "address_1": "5790 Devonshire Rd", "address_2": null, "address_3": null, "city": "Harrisburg", "state_province": "Pennsylvania", "postal_code": "17112-3508", "country": "United States", "longitude": null, "latitude": null, "phone": "7174800066", "website_url": "http://www.springgatebrewery.com", "state": "Pennsylvania", "street": "5790 Devonshire Rd"}, {"id": "f09b40bb-4707-4988-9d36-3335dd8ca12a", "name": "Spring House Brewery", "brewery_type": "micro", "address_1": "209 Hazel St", "address_2": null, "address_3": null, "city": "Lancaster", "state_province": "Pennsylvania", "postal_code": "17603-5629", "country": "United States", "longitude": "-76.30710904", "latitude": "40.02936738", "phone": "7178720925", "website_url": "http://www.springhousebeer.com", "state": "Pennsylvania", "street": "209 Hazel St"}, {"id": "27d36dac-a058-47ee-ae9b-a73f7e440bef", "name": "Spring Mountain Brewing Company", "brewery_type": "planning", "address_1": null, "address_2": null, "address_3": null, "city": "Schwenksville", "state_province": "Pennsylvania", "postal_code": "19473-1811", "country": "United States", "longitude": null, "latitude": null, "phone": null, "website_url": null, "state": "Pennsylvania", "street": null}, {"id": "fdab4b0b-4e70-4033-a944-69a49285e5f4", "name": "Springfield Brewing Co", "brewery_type": "brewpub", "address_1": "305 S Market Ave", "address_2": null, "address_3": null, "city": "Springfield", "state_province": "Missouri", "postal_code": "65806-2023", "country": "United States", "longitude": "-93.295625", "latitude": "37.20776303", "phone": "4178328277", "website_url": "http://www.springfieldbrewingco.com", "state": "Missouri", "street": "305 S Market Ave"}, {"id": "e4700c25-7368-4880-90c0-3b3e27faf9d6", "name": "Squam Brewing Co", "brewery_type": "micro", "address_1": "118 Perch Pond Rd", "address_2": null, "address_3": null, "city": "Holderness", "state_province": "New Hampshire", "postal_code": "03245-5234", "country": "United States", "longitude": "-71.589971", "latitude": "43.78514", "phone": "6032369705", "website_url": "http://www.squambrewing.com", "state": "New Hampshire", "street": "118 Perch Pond Rd"}, {"id": "d603fb71-4ae5-4e4d-aa48-82b663dcd09a", "name": "Square One Brewery and Distillery", "brewery_type": "brewpub", "address_1": "1727 Park Ave", "address_2": null, "address_3": null, "city": "Saint Louis", "state_province": "Missouri", "postal_code": "63104-2941", "country": "United States", "longitude": "-90.21039473", "latitude": "38.616665", "phone": "3142312537", "website_url": "http://www.squareonebrewery.com", "state": "Missouri", "street": "1727 Park Ave"}, {"id": "33a8a104-863a-4319-8806-78c9e12988d0", "name": "Square Peg Brewerks", "brewery_type": "micro", "address_1": "625 Main St", "address_2": null, "address_3": null, "city": "Alamosa", "state_province": "Colorado", "postal_code": "81101-2557", "country": "United States", "longitude": "-105.8742898", "latitude": "37.4681813", "phone": "7195807472", "website_url": "http://www.squarepegbrewerks.com", "state": "Colorado", "street": "625 Main St"}, {"id": "c4690e60-d4f7-4878-a274-dd96e3f29952", "name": "Square State Brewing", "brewery_type": "micro", "address_1": "422 S Main St", "address_2": null, "address_3": null, "city": "Rock Springs", "state_province": "Wyoming", "postal_code": "82901", "country": "United States", "longitude": "-109.2206404", "latitude": "41.58624714", "phone": "3073626159", "website_url": null, "state": "Wyoming", "street": "422 S Main St"}, {"id": "6fe63931-cfa6-41b0-bdab-84b8aa9692af", "name": "Square Wheel Brewing Co", "brewery_type": "micro", "address_1": "4705 N Fruit Hill Rd", "address_2": null, "address_3": null, "city": "Spokane", "state_province": "Washington", "postal_code": "99217-9619", "country": "United States", "longitude": "-117.2538107", "latitude": "47.69800496", "phone": "5099942600", "website_url": "http://www.squarewheelbrewing.com", "state": "Washington", "street": "4705 N Fruit Hill Rd"}, {"id": "32f7a57c-b7d7-41c2-a30b-cb32a0ee6728", "name": "SquareHead Brewing", "brewery_type": "micro", "address_1": "405 High St Ste 1", "address_2": null, "address_3": null, "city": "Holbrook", "state_province": "New York", "postal_code": "11741-5317", "country": "United States", "longitude": null, "latitude": null, "phone": "6319213060", "website_url": "http://www.squareheadbrewing.com", "state": "New York", "street": "405 High St Ste 1"}, {"id": "3f915a29-98ec-4312-a511-ffd9c1a87080", "name": "SQZBX Brewery", "brewery_type": "brewpub", "address_1": "236 Ouachita Ave", "address_2": null, "address_3": null, "city": "Hot Springs", "state_province": "Arkansas", "postal_code": "71901", "country": "United States", "longitude": "-93.0557936", "latitude": "34.50751903", "phone": "5016090609", "website_url": "http://www.sqzbx.com", "state": "Arkansas", "street": "236 Ouachita Ave"}, {"id": "eee29813-8cdf-462b-8f05-28fba55de0a2", "name": "SR 76 Beerworks", "brewery_type": "closed", "address_1": "777 HARRAHS RINCON WAY", "address_2": null, "address_3": null, "city": "Valley Center", "state_province": "California", "postal_code": "92082", "country": "United States", "longitude": "-116.9565022", "latitude": "33.26707487", "phone": "7607513100", "website_url": "http://www.SR76beerworks.com", "state": "California", "street": "777 HARRAHS RINCON WAY"}, {"id": "5e1b4f2a-5337-4def-8685-7c2584c8f1f9", "name": "SS Fermentations Ltd.", "brewery_type": "planning", "address_1": null, "address_2": null, "address_3": null, "city": "Montrose", "state_province": "Colorado", "postal_code": "81401-3927", "country": "United States", "longitude": null, "latitude": null, "phone": "9706184332", "website_url": null, "state": "Colorado", "street": null}, {"id": "e2876f5d-0f50-4cae-8d00-76b8edfe7ba0", "name": "St Ambrose Cellars", "brewery_type": "micro", "address_1": "841 S Pioneer Rd", "address_2": null, "address_3": null, "city": "Beulah", "state_province": "Michigan", "postal_code": "49617", "country": "United States", "longitude": null, "latitude": null, "phone": "2313834262", "website_url": "http://www.stambrose-mead-wine.com", "state": "Michigan", "street": "841 S Pioneer Rd"}]