[{"id": "e225df86-c175-4cd4-a5c0-42dbea2e0cbe", "name": "Triton Brewing Company", "brewery_type": "micro", "address_1": "5764 Wheeler Rd", "address_2": null, "address_3": null, "city": "Indianapolis", "state_province": "Indiana", "postal_code": "46216-1038", "country": "United States", "longitude": null, "latitude": null, "phone": "3177352706", "website_url": "http://www.tritonbrewing.com", "state": "Indiana", "street": "5764 Wheeler Rd"}, {"id": "e76fb79e-4dcc-4731-90d5-3d87f1d94cb7", "name": "Triumph Brewing Co of New Hope", "brewery_type": "brewpub", "address_1": "400 Union Square Dr", "address_2": null, "address_3": null, "city": "New Hope", "state_province": "Pennsylvania", "postal_code": "18938-1367", "country": "United States", "longitude": null, "latitude": null, "phone": "2158628300", "website_url": "http://www.triumphbrew.com", "state": "Pennsylvania", "street": "400 Union Square Dr"}, {"id": "9aaecb31-ffd2-490e-b6b8-c9037beaf5cf", "name": "Triumph Brewing Co of Princeton", "brewery_type": "brewpub", "address_1": "138 Nassau St Ste A", "address_2": null, "address_3": null, "city": "Princeton", "state_province": "New Jersey", "postal_code": "08542-7011", "country": "United States", "longitude": null, "latitude": null, "phone": "6099247855", "website_url": "http://www.triumphbrew.com", "state": "New Jersey", "street": "138 Nassau St Ste A"}, {"id": "b65eb539-cf66-424a-8e8b-bce335a3295b", "name": "Triune Brewing Company", "brewery_type": "planning", "address_1": null, "address_2": null, "address_3": null, "city": "Leavenworth", "state_province": "Washington", "postal_code": "98826-1413", "country": "United States", "longitude": null, "latitude": null, "phone": "5095483300", "website_url": null, "state": "Washington", "street": null}, {"id": "bf19789e-0711-4e0e-80e7-98a0084c1388", "name": "Troegs Brewing Co", "brewery_type": "regional", "address_1": "200 E Hershey Park Dr", "address_2": null, "address_3": null, "city": "Hershey", "state_province": "Pennsylvania", "postal_code": "17033-2719", "country": "United States", "longitude": null, "latitude": null, "phone": "7175341297", "website_url": "http://www.troegs.com", "state": "Pennsylvania", "street": "200 E Hershey Park Dr"}, {"id": "0c579f50-de3e-4b39-b404-cb2dec4227df", "name": "Trolley Barn Brewery", "brewery_type": "planning", "address_1": null, "address_2": null, "address_3": null, "city": "Quakertown", "state_province": "Pennsylvania", "postal_code": "18951", "country": "United States", "longitude": null, "latitude": null, "phone": "2154998959", "website_url": "http://www.trolleybarnpublicmarket.com", "state": "Pennsylvania", "street": null}, {"id": "a09a3e43-9898-41d6-a426-4ee68780f8a9", "name": "Trollingwood Taproom & Brewery", "brewery_type": "micro", "address_1": "707 Dickinson Ave", "address_2": null, "address_3": null, "city": "Greenville", "state_province": "North Carolina", "postal_code": "27834-3147", "country": "United States", "longitude": "-77.37544525", "latitude": "35.60994375", "phone": "2522106295", "website_url": "http://www.trollingwoodbrewery.com", "state": "North Carolina", "street": "707 Dickinson Ave"}, {"id": "e44d1827-714b-4860-9a8a-63fca6eb0680", "name": "Troon Brewing", "brewery_type": "micro", "address_1": "130 Hopewell Rocky Hill Rd # 5", "address_2": null, "address_3": null, "city": "Hopewell", "state_province": "New Jersey", "postal_code": "08525-3111", "country": "United States", "longitude": "-74.75022889", "latitude": "40.3922451", "phone": null, "website_url": "http://www.troonbrewing.com", "state": "New Jersey", "street": "130 Hopewell Rocky Hill Rd # 5"}, {"id": "03e0afb0-b86a-4b47-a9cd-7a302ac2cb75", "name": "Trophy Brewing Company", "brewery_type": "micro", "address_1": "656 Maywood Ave", "address_2": null, "address_3": null, "city": "Raleigh", "state_province": "North Carolina", "postal_code": "27603-2340", "country": "United States", "longitude": "-78.65744714", "latitude": "35.76136262", "phone": "9198034849", "website_url": "http://www.trophybrewing.com", "state": "North Carolina", "street": "656 Maywood Ave"}, {"id": "92ebf606-d8f9-4c93-a9b0-afc704575d75", "name": "Trouble Brewing", "brewery_type": "micro", "address_1": "Unit A", "address_2": "Oldmill Industrial Estate", "address_3": null, "city": "Kill", "state_province": "Kildare", "postal_code": "W91 DR58", "country": "Ireland", "longitude": "-6.5406264", "latitude": "53.2523451", "phone": "353879086658", "website_url": "https://troublebrewing.ie/", "state": "Kildare", "street": "Unit A"}, {"id": "7a2fe357-8cbf-45c4-9195-9b261846da32", "name": "troubled waters brewing co.", "brewery_type": "contract", "address_1": "670 Main Street", "address_2": null, "address_3": null, "city": "Safety Harbor", "state_province": "Florida", "postal_code": "34695", "country": "United States", "longitude": "-82.69391186", "latitude": "27.99073329", "phone": "6303357890", "website_url": "http://www.troubledwatersbeer.com", "state": "Florida", "street": "670 Main Street"}, {"id": "f8768842-899b-4df1-841e-d377b7f9c337", "name": "Trout River Brewing Co", "brewery_type": "micro", "address_1": "100 River Street RR 5", "address_2": null, "address_3": null, "city": "Springfield", "state_province": "Vermont", "postal_code": "05156", "country": "United States", "longitude": null, "latitude": null, "phone": null, "website_url": "http://www.troutriverbrewing.com", "state": "Vermont", "street": "100 River Street RR 5"}, {"id": "193ddcd0-43ef-49de-a8cb-5f595fb7d663", "name": "Trubble Brewing", "brewery_type": "micro", "address_1": "2725 Broadway", "address_2": null, "address_3": null, "city": "Fort Wayne", "state_province": "Indiana", "postal_code": "46807-1111", "country": "United States", "longitude": null, "latitude": null, "phone": "2602676082", "website_url": "http://www.trubblebrewing.com", "state": "Indiana", "street": "2725 Broadway"}, {"id": "7b231fe0-34a4-4e5d-84a9-c04cc5d9d8a8", "name": "True Anomaly Brewing", "brewery_type": "micro", "address_1": "2012 Dallas St", "address_2": null, "address_3": null, "city": "Houston", "state_province": "Texas", "postal_code": "77003", "country": "United States", "longitude": null, "latitude": null, "phone": "3467045701", "website_url": "http://www.trueanomalybrewing.com", "state": "Texas", "street": "2012 Dallas St"}, {"id": "3212e300-8e52-4f6a-a845-e68ca7492c6b", "name": "True North Ale Company", "brewery_type": "micro", "address_1": "116 County Rd", "address_2": null, "address_3": null, "city": "Ipswich", "state_province": "Massachusetts", "postal_code": "01938-2501", "country": "United States", "longitude": "-70.837236", "latitude": "42.669841", "phone": "9783126473", "website_url": "http://www.TrueNorthAles.com", "state": "Massachusetts", "street": "116 County Rd"}, {"id": "f8c87072-d4bd-49c5-8f24-736f9b85280f", "name": "True Respite Brewing Company", "brewery_type": "micro", "address_1": "7301 Calhoun Pl Ste 600", "address_2": null, "address_3": null, "city": "Derwood", "state_province": "Maryland", "postal_code": "20855-2740", "country": "United States", "longitude": "-77.152035", "latitude": "39.108112", "phone": "3012848447", "website_url": "http://www.truerespite.com", "state": "Maryland", "street": "7301 Calhoun Pl Ste 600"}, {"id": "d76e7016-097d-481d-a510-effd1d4fcd6d", "name": "True Symmetry Brewing Company", "brewery_type": "micro", "address_1": "315 Marina Ctr", "address_2": null, "address_3": null, "city": "Suisun City", "state_province": "California", "postal_code": "94585-2518", "country": "United States", "longitude": "-122.0345391", "latitude": "38.24359051", "phone": "7072026000", "website_url": "http://Www.truesymmetry.beer", "state": "California", "street": "315 Marina Ctr"}, {"id": "97ae87b9-74f3-40c8-8773-967c92450fa5", "name": "True Vine Brewing Company", "brewery_type": "micro", "address_1": "219 S Englewood Ave", "address_2": null, "address_3": null, "city": "Tyler", "state_province": "Texas", "postal_code": "75702-6926", "country": "United States", "longitude": "-95.31600025", "latitude": "32.34866425", "phone": "9036000124", "website_url": "http://www.truevinebrewing.com", "state": "Texas", "street": "219 S Englewood Ave"}, {"id": "4e46363e-54f7-454f-91e7-2aa59c95361d", "name": "True West Brewing Company", "brewery_type": "brewpub", "address_1": "525 Massachusetts Ave Ste 107", "address_2": null, "address_3": null, "city": "Acton", "state_province": "Massachusetts", "postal_code": "01720-2962", "country": "United States", "longitude": null, "latitude": null, "phone": "9782061600", "website_url": "http://www.brewtruewest.com", "state": "Massachusetts", "street": "525 Massachusetts Ave Ste 107"}, {"id": "239ded16-d444-429b-b6d7-fd30631c05d1", "name": "Trumer Brewery", "brewery_type": "regional", "address_1": "1404 4th St", "address_2": null, "address_3": null, "city": "Berkeley", "state_province": "California", "postal_code": "94710-1323", "country": "United States", "longitude": "-122.3030265", "latitude": "37.87686526", "phone": "5105261160", "website_url": "http://www.trumer-international.com", "state": "California", "street": "1404 4th St"}, {"id": "fdc05c0a-59db-4ffd-b289-10996f4d9e2f", "name": "Trusty Brewing Co.", "brewery_type": "brewpub", "address_1": "114 E Evergreen Blvd", "address_2": null, "address_3": null, "city": "Vancouver", "state_province": "Washington", "postal_code": "98660-3219", "country": "United States", "longitude": "-122.6707614", "latitude": "45.6289331", "phone": "3602580413", "website_url": "http://www.trustybrewing.com", "state": "Washington", "street": "114 E Evergreen Blvd"}, {"id": "e512a4c1-76aa-485e-b12a-331ff2859f2a", "name": "Truth Or Consequences Brewing Company", "brewery_type": "micro", "address_1": "410 N Broadway St", "address_2": null, "address_3": null, "city": "Truth or Consequences", "state_province": "New Mexico", "postal_code": "87901-2836", "country": "United States", "longitude": null, "latitude": null, "phone": "5752970289", "website_url": "http://www.torc.beer", "state": "New Mexico", "street": "410 N Broadway St"}, {"id": "d5b1d385-bb34-4a69-a37c-7c6c41894029", "name": "TRVE Brewing Co", "brewery_type": "micro", "address_1": "2600 W. 2nd Ave Unit 8", "address_2": null, "address_3": null, "city": "Denver", "state_province": "Colorado", "postal_code": "80219", "country": "United States", "longitude": null, "latitude": null, "phone": "3033511021", "website_url": "http://trvebrewing.com", "state": "Colorado", "street": "2600 W. 2nd Ave Unit 8"}, {"id": "0bd2b60b-f75e-4a26-a93e-e7b1277a004d", "name": "TRVE Brewing Co. - The Acid Temple", "brewery_type": "micro", "address_1": "2600 W. 2nd Ave Unit 8", "address_2": null, "address_3": null, "city": "Denver", "state_province": "Colorado", "postal_code": "80219", "country": "United States", "longitude": null, "latitude": null, "phone": "3033511021", "website_url": null, "state": "Colorado", "street": "2600 W. 2nd Ave Unit 8"}, {"id": "020aa383-378b-43d0-b91a-f8b4e5641be1", "name": "TTs Old Iron Brewery", "brewery_type": "micro", "address_1": "154 S Madison St", "address_2": null, "address_3": null, "city": "Spokane", "state_province": "Washington", "postal_code": "99201-4542", "country": "United States", "longitude": "-117.4281651", "latitude": "47.655248", "phone": null, "website_url": "http://www.ttsoldironbrewery.com", "state": "Washington", "street": "154 S Madison St"}, {"id": "36e4c1c9-8ffe-4096-9153-765a99550f2b", "name": "Tuckahoe Brewing Co", "brewery_type": "micro", "address_1": "3092 English Creek Ave", "address_2": null, "address_3": null, "city": "Egg Harbor Township", "state_province": "New Jersey", "postal_code": "08234-5245", "country": "United States", "longitude": "-74.61365675", "latitude": "39.42606663", "phone": "6096452739", "website_url": "http://www.tuckahoebrewing.com", "state": "New Jersey", "street": "3092 English Creek Ave"}, {"id": "bee37e69-0e10-4076-849a-fd6ee2d5f35f", "name": "Tucked Away Brewing", "brewery_type": "planning", "address_1": null, "address_2": null, "address_3": null, "city": "Manassas", "state_province": "Virginia", "postal_code": "22010", "country": "United States", "longitude": null, "latitude": null, "phone": "9373712176", "website_url": null, "state": "Virginia", "street": null}, {"id": "443536da-82d9-447f-811f-0d3e069e9086", "name": "Tucker Brewing Company", "brewery_type": "micro", "address_1": "2003 S Bibb Dr", "address_2": null, "address_3": null, "city": "Tucker", "state_province": "Georgia", "postal_code": "30084-6240", "country": "United States", "longitude": "-84.20758809", "latitude": "33.84269209", "phone": "8337522400", "website_url": "http://www.tuckerbrewing.com", "state": "Georgia", "street": "2003 S Bibb Dr"}, {"id": "568fcb4a-f5cd-4554-84b1-8ce90052e21d", "name": "Tuckerman Brewing Co", "brewery_type": "micro", "address_1": "66 Hobbs St", "address_2": null, "address_3": null, "city": "Conway", "state_province": "New Hampshire", "postal_code": "03818-1058", "country": "United States", "longitude": "-71.12983196", "latitude": "43.97582858", "phone": "6034475400", "website_url": "http://www.tuckermanbrewing.com", "state": "New Hampshire", "street": "66 Hobbs St"}, {"id": "c90a15c5-1a4d-495a-94f5-62fe78425b81", "name": "Tujax Tavern", "brewery_type": "brewpub", "address_1": "103 S Grove St", "address_2": null, "address_3": null, "city": "Delton", "state_province": "Michigan", "postal_code": "49046-9470", "country": "United States", "longitude": "-85.407991", "latitude": "42.496258", "phone": "2696238310", "website_url": null, "state": "Michigan", "street": "103 S Grove St"}, {"id": "7b08b3ee-5d16-47fa-ac17-7d7dee9c0ba0", "name": "Tumbledown Brewing LLC", "brewery_type": "micro", "address_1": "805 Farmington Falls Rd Ste 7", "address_2": null, "address_3": null, "city": "Farmington", "state_province": "Maine", "postal_code": "04938-6454", "country": "United States", "longitude": null, "latitude": null, "phone": "2079440697", "website_url": "http://www.tumbledownbrewing.com", "state": "Maine", "street": "805 Farmington Falls Rd Ste 7"}, {"id": "ad99d8ce-7e57-4544-89e7-894eaaf58457", "name": "Tumbleroot Brewery And Distillery", "brewery_type": "micro", "address_1": "32 Bisbee Court Unit 3-4", "address_2": null, "address_3": null, "city": "Santa Fe", "state_province": "New Mexico", "postal_code": "87508", "country": "United States", "longitude": null, "latitude": null, "phone": "5052217894", "website_url": "http://www.tumblerootbreweryanddistillery.com", "state": "New Mexico", "street": "32 Bisbee Court Unit 3-4"}, {"id": "6aae0645-3f00-46f7-89d2-9ebd4aad9cd2", "name": "Tumbleweed Brewing and Wine Company", "brewery_type": "brewpub", "address_1": "124 S Main St", "address_2": null, "address_3": null, "city": "Yuma", "state_province": "Colorado", "postal_code": "80759", "country": "United States", "longitude": "-102.7238865", "latitude": "40.12462759", "phone": "9706302818", "website_url": "http://www.tumbleweedbrewing.com", "state": "Colorado", "street": "124 S Main St"}, {"id": "7decf5ce-3597-4b0a-84c9-da60ad030a2e", "name": "Tun Tavern Brewery and Restaurant", "brewery_type": "brewpub", "address_1": "2 Convention Blvd Ste 3", "address_2": null, "address_3": null, "city": "Atlantic City", "state_province": "New Jersey", "postal_code": "08401-4137", "country": "United States", "longitude": null, "latitude": null, "phone": "6093477800", "website_url": "http://www.tuntavern.com", "state": "New Jersey", "street": "2 Convention Blvd Ste 3"}, {"id": "498f8ea8-f909-4378-b437-7be8f5d01993", "name": "Tuned Up Brewing Company", "brewery_type": "micro", "address_1": "135 N Main St", "address_2": null, "address_3": null, "city": "Spring City", "state_province": "Pennsylvania", "postal_code": "19475-1874", "country": "United States", "longitude": "-75.54752163", "latitude": "40.17990279", "phone": "6103063182", "website_url": null, "state": "Pennsylvania", "street": "135 N Main St"}, {"id": "b0ff46ea-e5fe-4086-9773-8632ecf1ff28", "name": "Tunnel Vision Brewery", "brewery_type": "brewpub", "address_1": "5699 S Lake Shore Dr", "address_2": null, "address_3": null, "city": "Harbor Springs", "state_province": "Michigan", "postal_code": "49740-9784", "country": "United States", "longitude": "-85.065042", "latitude": "45.471828", "phone": "2315263276", "website_url": "http://www.pondhill.com", "state": "Michigan", "street": "5699 S Lake Shore Dr"}, {"id": "ed15a267-a12c-4343-a94f-46ee2488c42a", "name": "Tuppers Hop Pocket Ale", "brewery_type": "contract", "address_1": "6404 Redwing Rd", "address_2": null, "address_3": null, "city": "Bethesda", "state_province": "Maryland", "postal_code": "20817-5920", "country": "United States", "longitude": null, "latitude": null, "phone": "3012292027", "website_url": "http://www.tuppersbeers.com", "state": "Maryland", "street": "6404 Redwing Rd"}, {"id": "898d4d98-92c7-4e57-9b3f-310a60bc45c9", "name": "Tupps Brewery", "brewery_type": "micro", "address_1": "721 Anderson St", "address_2": null, "address_3": null, "city": "McKinney", "state_province": "Texas", "postal_code": "75069-7149", "country": "United States", "longitude": "-96.61169549", "latitude": "33.18370422", "phone": "2147045039", "website_url": "http://www.tuppsbrewery.com", "state": "Texas", "street": "721 Anderson St"}, {"id": "b6631112-1916-4334-a5cf-f2937c70a976", "name": "Turgua Brewing Co", "brewery_type": "micro", "address_1": "27 Firefly Hollow Dr", "address_2": null, "address_3": null, "city": "Fairview", "state_province": "North Carolina", "postal_code": "28730-1648", "country": "United States", "longitude": null, "latitude": null, "phone": "8282220984", "website_url": "http://www.turguabrewing.com", "state": "North Carolina", "street": "27 Firefly Hollow Dr"}, {"id": "41b29d2c-64d2-4b0e-948c-66f6a93fc226", "name": "Turkey Forrest Brewing", "brewery_type": "micro", "address_1": "1848 Airline Dr. Suite C", "address_2": null, "address_3": null, "city": "Houston", "state_province": "Texas", "postal_code": "77009", "country": "United States", "longitude": null, "latitude": null, "phone": null, "website_url": null, "state": "Texas", "street": "1848 Airline Dr. Suite C"}, {"id": "af9086ee-bd51-4290-a609-8d3e35806c40", "name": "Turkey Hill Brewing Co Pub", "brewery_type": "brewpub", "address_1": "991 Central Rd", "address_2": null, "address_3": null, "city": "Bloomsburg", "state_province": "Pennsylvania", "postal_code": "17815-8990", "country": "United States", "longitude": null, "latitude": null, "phone": "5703878422", "website_url": "http://www.turkeyhillbrewing.com", "state": "Pennsylvania", "street": "991 Central Rd"}, {"id": "ffe5f5cd-242c-4da3-96ed-d8468a342284", "name": "Turn 2 Brewing Company Inc.", "brewery_type": "planning", "address_1": null, "address_2": null, "address_3": null, "city": "Sebring", "state_province": "Florida", "postal_code": "33872-9253", "country": "United States", "longitude": null, "latitude": null, "phone": null, "website_url": "http://www.turn2brew.com", "state": "Florida", "street": null}, {"id": "940232f8-d664-42b4-aa8c-2b663d877252", "name": "Turnagain Brewing", "brewery_type": "micro", "address_1": "7920 King St", "address_2": null, "address_3": null, "city": "Anchorage", "state_province": "Alaska", "postal_code": "99518-3058", "country": "United States", "longitude": "-149.878675", "latitude": "61.14944", "phone": "9076462337", "website_url": "https://www.turnagainbrewing.com", "state": "Alaska", "street": "7920 King St"}, {"id": "b7130d67-9eb1-48e8-9c28-0fc26e4b2bd5", "name": "Turning Point Beer, LLC", "brewery_type": "micro", "address_1": "1307 Brown Trl", "address_2": null, "address_3": null, "city": "Bedford", "state_province": "Texas", "postal_code": "76022-6401", "country": "United States", "longitude": null, "latitude": null, "phone": "8179251131", "website_url": "http://Www.turningpointbeer.com", "state": "Texas", "street": "1307 Brown Trl"}, {"id": "f8891e9b-c233-4c2c-aa2f-fb0a59d06dce", "name": "Turtle Anarchy Brewing Co", "brewery_type": "micro", "address_1": "5901 California Ave Ste 105", "address_2": null, "address_3": null, "city": "Nashville", "state_province": "Tennessee", "postal_code": "37209-1370", "country": "United States", "longitude": "-86.85861737", "latitude": "36.16458388", "phone": null, "website_url": "http://www.turtleanarchy.com", "state": "Tennessee", "street": "5901 California Ave Ste 105"}, {"id": "e4230c83-bfbc-4e17-a3da-7966a859d4af", "name": "Turtle Mountain Brewing Co", "brewery_type": "brewpub", "address_1": "905 36th Pl SE Ste C", "address_2": null, "address_3": null, "city": "Rio Rancho", "state_province": "New Mexico", "postal_code": "87124-4850", "country": "United States", "longitude": null, "latitude": null, "phone": "5059949497", "website_url": "http://www.turtlemountainbrewing.com", "state": "New Mexico", "street": "905 36th Pl SE Ste C"}, {"id": "7c79df16-b284-4388-99f8-7960b6d66504", "name": "Turtle Stack Brewery", "brewery_type": "micro", "address_1": "125 2nd St S", "address_2": null, "address_3": null, "city": "La Crosse", "state_province": "Wisconsin", "postal_code": "54601-3206", "country": "United States", "longitude": "-91.2539366", "latitude": "43.81301528", "phone": "6085192284", "website_url": "http://www.turtlestackbrewery.com", "state": "Wisconsin", "street": "125 2nd St S"}, {"id": "d80aff0a-64a7-4a7f-b609-4386dc7a1d59", "name": "Turtle Swamp Brewing", "brewery_type": "micro", "address_1": "3377 Washington St", "address_2": null, "address_3": null, "city": "Jamaica Plain", "state_province": "Massachusetts", "postal_code": "02130-2617", "country": "United States", "longitude": "-71.1123668", "latitude": "42.3014592", "phone": "6175220038", "website_url": "http://www.turtleswampbrewing.com", "state": "Massachusetts", "street": "3377 Washington St"}, {"id": "f1f61792-e88e-4d36-8892-fa9ddc7499f8", "name": "Tusculum Farm Enterprises, LLC", "brewery_type": "planning", "address_1": null, "address_2": null, "address_3": null, "city": "Laytonsville", "state_province": "Maryland", "postal_code": "20882-2117", "country": "United States", "longitude": null, "latitude": null, "phone": "8337332216", "website_url": "http://tusculumfarm.com", "state": "Maryland", "street": null}, {"id": "5891a22a-ac15-4646-a0bb-4b9127899213", "name": "Tusculum Holdings, LLC", "brewery_type": "planning", "address_1": null, "address_2": null, "address_3": null, "city": "Boerne", "state_province": "Texas", "postal_code": "78006-2334", "country": "United States", "longitude": null, "latitude": null, "phone": "3612286227", "website_url": "http://www.tusculumbrewing.com", "state": "Texas", "street": null}, {"id": "5a17161e-23d6-4b05-bf60-70b4fbdbbadf", "name": "Tustin Brewing Co", "brewery_type": "brewpub", "address_1": "13011 Newport Ave Ste 100", "address_2": null, "address_3": null, "city": "Tustin", "state_province": "California", "postal_code": "92780-3517", "country": "United States", "longitude": "-117.8107616", "latitude": "33.75003812", "phone": "7146652337", "website_url": "http://www.tustinbrewery.com", "state": "California", "street": "13011 Newport Ave Ste 100"}, {"id": "e1bdce52-7dc7-4377-a5c2-4506452da993", "name": "Tuthilltown Spirits", "brewery_type": "planning", "address_1": null, "address_2": null, "address_3": null, "city": "Gardiner", "state_province": "New York", "postal_code": "12525-5528", "country": "United States", "longitude": null, "latitude": null, "phone": "8452551527", "website_url": null, "state": "New York", "street": null}, {"id": "6c0d332d-0cb5-4b00-aa81-d04650eefe9a", "name": "TUYA SuperBrewing Co.", "brewery_type": "planning", "address_1": null, "address_2": null, "address_3": null, "city": "Santa Cruz", "state_province": "California", "postal_code": "95062-1411", "country": "United States", "longitude": "-122.0297182", "latitude": "36.974201", "phone": "8444878892", "website_url": "http://www.tuyasuperbrew.com", "state": "California", "street": null}, {"id": "ce6068ab-2993-4129-a451-c304506f817a", "name": "TW Pitchers Brewing Co", "brewery_type": "contract", "address_1": "1329 17th Ave", "address_2": null, "address_3": null, "city": "San Francisco", "state_province": "California", "postal_code": "94122-1912", "country": "United States", "longitude": "-122.4750486", "latitude": "37.76307771", "phone": "4159992009", "website_url": "http://www.twpitchers.com", "state": "California", "street": "1329 17th Ave"}, {"id": "6fa0be54-2886-4a87-98cf-189e9432310c", "name": "Twain's Brewpub & Billiards", "brewery_type": "brewpub", "address_1": "211 E Trinity Pl", "address_2": null, "address_3": null, "city": "Decatur", "state_province": "Georgia", "postal_code": "30030-3414", "country": "United States", "longitude": "-84.294616", "latitude": "33.77228", "phone": "4043730063", "website_url": "http://www.twains.net", "state": "Georgia", "street": "211 E Trinity Pl"}, {"id": "4203409e-7d4b-4ca0-8adc-c7f24ecceacc", "name": "Tweaking Frog Brewing Company", "brewery_type": "micro", "address_1": "211 Main St Ste A", "address_2": null, "address_3": null, "city": "Farmingdale", "state_province": "New York", "postal_code": "11735-2675", "country": "United States", "longitude": null, "latitude": null, "phone": "6318975509", "website_url": "http://www.tweakingfrogbrewing.com", "state": "New York", "street": "211 Main St Ste A"}, {"id": "0b083637-2a0d-46e0-b0be-f86aa755a92e", "name": "Twelve String Brewing Co", "brewery_type": "micro", "address_1": "11616 E Montgomery Dr Ste 26", "address_2": null, "address_3": null, "city": "Spokane", "state_province": "Washington", "postal_code": "99206-6608", "country": "United States", "longitude": null, "latitude": null, "phone": "5092413697", "website_url": "http://www.twelvestringbrewingco.com", "state": "Washington", "street": "11616 E Montgomery Dr Ste 26"}, {"id": "4a8da7bd-80fb-4b2f-9447-eee7bd87781f", "name": "Twenty Below Brewing @ Twenty Tap", "brewery_type": "brewpub", "address_1": "5406 N College Ave", "address_2": null, "address_3": null, "city": "Indianapolis", "state_province": "Indiana", "postal_code": "46220-3126", "country": "United States", "longitude": "-86.1449174", "latitude": "39.8095687", "phone": "3176028840", "website_url": "http://www.twentytap.com", "state": "Indiana", "street": "5406 N College Ave"}, {"id": "84f3121a-293b-4a1e-89c8-c7fa0ca735d5", "name": "Twenty-Six Acres Brewing Company", "brewery_type": "micro", "address_1": "7285 Westwinds Blvd NW", "address_2": null, "address_3": null, "city": "Concord", "state_province": "North Carolina", "postal_code": "28027-3310", "country": "United States", "longitude": "-80.72192703", "latitude": "35.38617748", "phone": "9802772337", "website_url": "http://www.26acres.com", "state": "North Carolina", "street": "7285 Westwinds Blvd NW"}, {"id": "e53fb44b-d194-49f0-9549-c8355297616d", "name": "TwentyNine Brewpub", "brewery_type": "brewpub", "address_1": "1775 Marion-Waldo Rd", "address_2": null, "address_3": null, "city": "Marion", "state_province": "Ohio", "postal_code": "43302", "country": "United States", "longitude": "-83.1163533", "latitude": "40.55509204", "phone": "7407514586", "website_url": null, "state": "Ohio", "street": "1775 Marion-Waldo Rd"}, {"id": "6382851d-cf32-4ba2-b725-6d8732fa4fcc", "name": "Twin Creeks Brewing Company", "brewery_type": "micro", "address_1": "111 S Pollard St", "address_2": null, "address_3": null, "city": "Vinton", "state_province": "Virginia", "postal_code": "24179-2414", "country": "United States", "longitude": "-79.8974689", "latitude": "37.28075143", "phone": "5404000882", "website_url": "http://www.twincreeksbrewing.com", "state": "Virginia", "street": "111 S Pollard St"}, {"id": "9e9f44ff-cb3e-4e58-b8b0-ce820379abc1", "name": "Twin Elephant Brewing Company", "brewery_type": "micro", "address_1": "13 Watchung Ave Ste 103", "address_2": null, "address_3": null, "city": "Chatham", "state_province": "New Jersey", "postal_code": "07928-2759", "country": "United States", "longitude": null, "latitude": null, "phone": "9735079862", "website_url": "http://www.twinelephant.com", "state": "New Jersey", "street": "13 Watchung Ave Ste 103"}, {"id": "50f520a2-4a7e-4c39-90b2-e440e7d38c49", "name": "Twin Lakes Brewing Co", "brewery_type": "micro", "address_1": "405 Marsh Ln Ste 7", "address_2": null, "address_3": null, "city": "Wilmington", "state_province": "Delaware", "postal_code": "19804-2445", "country": "United States", "longitude": null, "latitude": null, "phone": "3029952337", "website_url": "http://www.twinlakesbrewingcompany.com", "state": "Delaware", "street": "405 Marsh Ln Ste 7"}, {"id": "44113b77-122d-4680-85e7-cc0662cc6da0", "name": "Twin Leaf Brewery", "brewery_type": "micro", "address_1": "144 Coxe Ave", "address_2": null, "address_3": null, "city": "Asheville", "state_province": "North Carolina", "postal_code": "28801-4026", "country": "United States", "longitude": "-82.55454185", "latitude": "35.58942485", "phone": "8283332221", "website_url": "http://www.twinleafbrewery.com", "state": "North Carolina", "street": "144 Coxe Ave"}, {"id": "3d49e8be-de9a-4688-8483-9ffdf3037bf3", "name": "Twin Oast Brewing", "brewery_type": "brewpub", "address_1": "3630 NE Catawba Rd", "address_2": null, "address_3": null, "city": "Catawba Island", "state_province": "Ohio", "postal_code": "43452", "country": "United States", "longitude": "-82.832581", "latitude": "41.578044", "phone": "4195736126", "website_url": "http://www.twinoast.com", "state": "Ohio", "street": "3630 NE Catawba Rd"}, {"id": "a2738df3-5b54-4a76-80ee-1e799bc9f9cb", "name": "Twin Peaks Brewery", "brewery_type": "micro", "address_1": "1500 Market Place Blvd", "address_2": null, "address_3": null, "city": "Irving", "state_province": "Texas", "postal_code": "75063", "country": "United States", "longitude": "-96.96767266", "latitude": "32.91862635", "phone": "4699642921", "website_url": "http://twinpeaksrestaurants.com/brewery", "state": "Texas", "street": "1500 Market Place Blvd"}, {"id": "6a8fdfd9-8419-4e4a-828e-0dea8bcf5bcb", "name": "TWIN SISTERS", "brewery_type": "planning", "address_1": null, "address_2": null, "address_3": null, "city": "San Antonio", "state_province": "Texas", "postal_code": "78210", "country": "United States", "longitude": null, "latitude": null, "phone": "2108186515", "website_url": null, "state": "Texas", "street": null}, {"id": "4917afcb-f644-48c9-81f2-a57c232e6052", "name": "Twin Sisters Brewing Company", "brewery_type": "brewpub", "address_1": "500 Carolina St", "address_2": null, "address_3": null, "city": "Bellingham", "state_province": "Washington", "postal_code": "98225-4106", "country": "United States", "longitude": "-122.468971", "latitude": "48.760265", "phone": "3609226700", "website_url": "https://www.twinsistersbrewing.com", "state": "Washington", "street": "500 Carolina St"}, {"id": "cf19b93c-f80d-4c5b-80b5-70cf6cdb0e3f", "name": "Twinpanzee Brewing Company", "brewery_type": "micro", "address_1": "101 Executive Dr Ste D", "address_2": null, "address_3": null, "city": "Sterling", "state_province": "Virginia", "postal_code": "20166-9557", "country": "United States", "longitude": null, "latitude": null, "phone": "7037919363", "website_url": "http://www.twinpanzee.com", "state": "Virginia", "street": "101 Executive Dr Ste D"}, {"id": "78da44c9-24f2-47f1-8dfb-e9e38b213fe5", "name": "Twisted Ales Craft Brewing Co.", "brewery_type": "micro", "address_1": "212 W 6th St", "address_2": null, "address_3": null, "city": "Richmond", "state_province": "Virginia", "postal_code": "23224-2349", "country": "United States", "longitude": "-77.4420409", "latitude": "37.5259842", "phone": "8042309439", "website_url": "http://www.twistedales.com", "state": "Virginia", "street": "212 W 6th St"}, {"id": "d54e5f65-dc4f-4db3-8b21-0cbde3d83680", "name": "Twisted Barley Brewing Company", "brewery_type": "micro", "address_1": "520 19th St W", "address_2": null, "address_3": null, "city": "Jasper", "state_province": "Alabama", "postal_code": "35501-5351", "country": "United States", "longitude": "-87.28338", "latitude": "33.832359", "phone": "2052653253", "website_url": null, "state": "Alabama", "street": "520 19th St W"}, {"id": "29d82828-d18f-4ad7-9e7c-88bd7a652a7b", "name": "Twisted Bine Beer Co.", "brewery_type": "planning", "address_1": null, "address_2": null, "address_3": null, "city": "Mount Joy", "state_province": "Pennsylvania", "postal_code": "17552-1424", "country": "United States", "longitude": null, "latitude": null, "phone": "7179178577", "website_url": null, "state": "Pennsylvania", "street": null}, {"id": "a063bcc2-6017-4131-b6b5-e34ddedf077a", "name": "Twisted Cypress Brewing Company", "brewery_type": "closed", "address_1": "1897 Sam Rittenberg Blvd", "address_2": null, "address_3": null, "city": "Charleston", "state_province": "South Carolina", "postal_code": "29407-4870", "country": "United States", "longitude": "-80.0219063", "latitude": "32.79905412", "phone": "8436081899", "website_url": "http://www.twistedcypressbrewingco.com", "state": "South Carolina", "street": "1897 Sam Rittenberg Blvd"}, {"id": "f16ee8bc-0ac3-4403-b7a8-4c4bc0582938", "name": "Twisted Hippo", "brewery_type": "contract", "address_1": "2925 W Montrose Ave", "address_2": null, "address_3": null, "city": "Chicago", "state_province": "Illinois", "postal_code": "60618-1403", "country": "United States", "longitude": "-87.7019463", "latitude": "41.961125", "phone": "7088447768", "website_url": "http://Www.twistedhippo.com", "state": "Illinois", "street": "2925 W Montrose Ave"}, {"id": "35d329e7-2608-44c0-b328-c3d54dd764cf", "name": "Twisted Pine Brewing Co", "brewery_type": "brewpub", "address_1": "3201 Walnut St Ste A", "address_2": null, "address_3": null, "city": "Boulder", "state_province": "Colorado", "postal_code": "80301-2645", "country": "United States", "longitude": null, "latitude": null, "phone": "3037869270", "website_url": "http://www.twistedpinebrewing.com", "state": "Colorado", "street": "3201 Walnut St Ste A"}, {"id": "6151ad7d-80a5-457a-9b2d-138e3a6ae77a", "name": "Twisted Rail Brewing Company", "brewery_type": "micro", "address_1": "169 Lakeshore Dr", "address_2": null, "address_3": null, "city": "Canandaigua", "state_province": "New York", "postal_code": "14424-2309", "country": "United States", "longitude": "-77.262436", "latitude": "42.87507", "phone": "5853960683", "website_url": "http://www.twistedrailbrewing.com", "state": "New York", "street": "169 Lakeshore Dr"}, {"id": "218d3127-127b-4e78-a192-db5617c2f6fa", "name": "Twisted Roots Brewing", "brewery_type": "micro", "address_1": "3690 Forest Park Ave", "address_2": null, "address_3": null, "city": "Saint Louis", "state_province": "Missouri", "postal_code": "63108", "country": "United States", "longitude": "-90.238117", "latitude": "38.637188", "phone": "3144496363", "website_url": "http://www.twistedrootsbrewing.com", "state": "Missouri", "street": "3690 Forest Park Ave"}, {"id": "f4954559-b115-469a-824e-afa6e37cd9a3", "name": "Twisted Spike Brewing Company", "brewery_type": "micro", "address_1": "1 NW 10th St", "address_2": null, "address_3": null, "city": "Oklahoma City", "state_province": "Oklahoma", "postal_code": "73103-4901", "country": "United States", "longitude": "-97.6785729", "latitude": "35.4787783", "phone": "4052979961", "website_url": "http://twistedspike.com", "state": "Oklahoma", "street": "1 NW 10th St"}, {"id": "e6f28e79-056e-4995-9e6e-9747c06ae023", "name": "Twisted Spur Brewing", "brewery_type": "brewpub", "address_1": "705 Gervais St Ste A", "address_2": null, "address_3": null, "city": "Columbia", "state_province": "South Carolina", "postal_code": "29201-6012", "country": "United States", "longitude": null, "latitude": null, "phone": "8037640203", "website_url": null, "state": "South Carolina", "street": "705 Gervais St Ste A"}, {"id": "7570bfc2-7a5e-444e-bbb4-995703ea572b", "name": "Twisted Trunk Brewing Company", "brewery_type": "micro", "address_1": "2000 Pga Blvd Ste 5506", "address_2": null, "address_3": null, "city": "North Palm Beach", "state_province": "Florida", "postal_code": "33408-2726", "country": "United States", "longitude": null, "latitude": null, "phone": "5616712337", "website_url": "http://www.twistedtrunkbrewing.com", "state": "Florida", "street": "2000 Pga Blvd Ste 5506"}, {"id": "cee9d52e-b11f-489e-ace5-d67641dbd713", "name": "Twisted Vine Brewery", "brewery_type": "micro", "address_1": "3320 Westown Pkwy", "address_2": null, "address_3": null, "city": "West Des Moines", "state_province": "Iowa", "postal_code": "50266-1111", "country": "United States", "longitude": "-93.7489517", "latitude": "41.5936597", "phone": "5157202940", "website_url": "http://www.twistedvinebrewery.com", "state": "Iowa", "street": "3320 Westown Pkwy"}, {"id": "90131c8a-a9c4-4c9f-86ea-08d631535a56", "name": "Twisted X Brewing Co", "brewery_type": "micro", "address_1": "23455 West RR 150", "address_2": null, "address_3": null, "city": "Dripping Springs", "state_province": "Texas", "postal_code": "78620", "country": "United States", "longitude": null, "latitude": null, "phone": "5128295323", "website_url": "http://www.twistedxbrewing.com", "state": "Texas", "street": "23455 West RR 150"}, {"id": "56959793-d728-4902-809a-5d075c5b2836", "name": "Two Bald Guys Beverage Co", "brewery_type": "contract", "address_1": "18090 Hazelnut Dr", "address_2": null, "address_3": null, "city": "Reno", "state_province": "Nevada", "postal_code": "89508-6898", "country": "United States", "longitude": null, "latitude": null, "phone": null, "website_url": "http://www.drinktwobaldguys.com", "state": "Nevada", "street": "18090 Hazelnut Dr"}, {"id": "183f1e6c-ef70-449f-a77b-de8913b19e2b", "name": "Two Bandits Brewing Company", "brewery_type": "brewpub", "address_1": "106 E High St", "address_2": null, "address_3": null, "city": "Hicksville", "state_province": "Ohio", "postal_code": "43526", "country": "United States", "longitude": "-84.76170108", "latitude": "41.29361163", "phone": "4195421087", "website_url": null, "state": "Ohio", "street": "106 E High St"}, {"id": "1bc963a8-bc05-4e51-ad51-79bf80e8e426", "name": "Two Beagles Brewpub", "brewery_type": "brewpub", "address_1": "910 2nd Ave N", "address_2": null, "address_3": null, "city": "Onalaska", "state_province": "Wisconsin", "postal_code": "54650-2277", "country": "United States", "longitude": null, "latitude": null, "phone": "6085191921", "website_url": "http://www.twobeaglesbrewpub.com", "state": "Wisconsin", "street": "910 2nd Ave N"}, {"id": "b658090d-6800-432d-9825-2988f375bc13", "name": "Two Blokes Brewing Co.", "brewery_type": "micro", "address_1": "547 Long Point Rd Ste 101", "address_2": null, "address_3": null, "city": "Mount Pleasant", "state_province": "South Carolina", "postal_code": "29464-8337", "country": "United States", "longitude": null, "latitude": null, "phone": "8436544564", "website_url": "http://www.twoblokesbrewing.com", "state": "South Carolina", "street": "547 Long Point Rd Ste 101"}, {"id": "5c8ee4a7-a254-4325-9715-1110c71753d3", "name": "Two Brothers Brewing Co", "brewery_type": "regional", "address_1": "30W315 Calumet Ave W", "address_2": null, "address_3": null, "city": "Warrenville", "state_province": "Illinois", "postal_code": "60555-1565", "country": "United States", "longitude": null, "latitude": null, "phone": "6303934800", "website_url": "http://www.TwoBrothersBrewing.com", "state": "Illinois", "street": "30W315 Calumet Ave W"}, {"id": "287e8cd1-bfb6-4c9c-b38f-bcde56ccb472", "name": "Two Brothers Scottsdale Tap House and Brewery", "brewery_type": "brewpub", "address_1": "4321 N Scottsdale Rd", "address_2": null, "address_3": null, "city": "Scottsdale", "state_province": "Arizona", "postal_code": "85251-3329", "country": "United States", "longitude": "-111.9254955", "latitude": "33.658427", "phone": "4803783001", "website_url": null, "state": "Arizona", "street": "4321 N Scottsdale Rd"}, {"id": "353afc36-cb18-4de5-a77f-1a065ab1d6d1", "name": "Two Coast Brewing Co.", "brewery_type": "micro", "address_1": "14928 S Figueroa St", "address_2": null, "address_3": null, "city": "Gardena", "state_province": "California", "postal_code": "90248", "country": "United States", "longitude": "-118.2819715", "latitude": "33.89680488", "phone": "3107300055", "website_url": "http://www.twocoastbrewing.com", "state": "California", "street": "14928 S Figueroa St"}, {"id": "e151bd5e-806b-44d0-aa9e-c321f7a566b9", "name": "Two Docs Brewing Co.", "brewery_type": "planning", "address_1": null, "address_2": null, "address_3": null, "city": "Lubbock", "state_province": "Texas", "postal_code": "79401", "country": "United States", "longitude": null, "latitude": null, "phone": null, "website_url": "http://twodocsbrewing.com", "state": "Texas", "street": null}, {"id": "5cccb3f6-eb09-4a57-9709-d6ea09547e9c", "name": "Two Dude Brew", "brewery_type": "planning", "address_1": null, "address_2": null, "address_3": null, "city": "Clearlake", "state_province": "California", "postal_code": "95422-8159", "country": "United States", "longitude": "-122.6263728", "latitude": "38.9582307", "phone": "7075337600", "website_url": null, "state": "California", "street": null}, {"id": "1b2e6967-a506-4e9e-9a34-470ae9101074", "name": "Two Fathers Beer Co", "brewery_type": "contract", "address_1": "2016 Belvidere Rd", "address_2": null, "address_3": null, "city": "Virginia Beach", "state_province": "Virginia", "postal_code": "23454-2233", "country": "United States", "longitude": "-76.0389065", "latitude": "36.86874825", "phone": "7573092518", "website_url": "http://www.twofathersbeer.com", "state": "Virginia", "street": "2016 Belvidere Rd"}, {"id": "fa21605f-18f8-48da-9302-97dcf2d3ac64", "name": "Two Frogs Brewing Company", "brewery_type": "micro", "address_1": "151 E Tarpon Ave", "address_2": null, "address_3": null, "city": "Tarpon Springs", "state_province": "Florida", "postal_code": "34689-3451", "country": "United States", "longitude": "-82.75503088", "latitude": "28.14632482", "phone": "7279406077", "website_url": null, "state": "Florida", "street": "151 E Tarpon Ave"}, {"id": "b30278b8-ab10-4bc3-b983-2203008e7b12", "name": "Two Goats Brewing", "brewery_type": "brewpub", "address_1": "5027 State Route 414", "address_2": null, "address_3": null, "city": "Burdett", "state_province": "New York", "postal_code": "14818-9816", "country": "United States", "longitude": null, "latitude": null, "phone": "607546", "website_url": "http://www.twogoatsbrewing.com", "state": "New York", "street": "5027 State Route 414"}, {"id": "36b75972-6f6a-4e3e-b1ac-0b137f9c6410", "name": "Two Gramps Brewing", "brewery_type": "brewpub", "address_1": "266 Water St", "address_2": null, "address_3": null, "city": "Gardiner", "state_province": "Maine", "postal_code": "04345", "country": "United States", "longitude": "-69.77292634", "latitude": "44.22957832", "phone": "2075920776", "website_url": "http://www.twogrampsbrewing.com", "state": "Maine", "street": "266 Water St"}, {"id": "02c2b09f-d059-4888-9164-e7d963c709e5", "name": "Two Henrys Brewing Company", "brewery_type": "micro", "address_1": "5210 Thonotosassa Rd", "address_2": null, "address_3": null, "city": "Plant City", "state_province": "Florida", "postal_code": "33565-5700", "country": "United States", "longitude": "-82.1366836", "latitude": "28.0158875", "phone": "8137529100", "website_url": null, "state": "Florida", "street": "5210 Thonotosassa Rd"}, {"id": "f5723c43-2256-4abb-9d9e-66d388050870", "name": "Two Kilts Brewing", "brewery_type": "micro", "address_1": "14841 SW Tualatin Sherwood Rd Ste 501", "address_2": null, "address_3": null, "city": "Sherwood", "state_province": "Oregon", "postal_code": "97140-7127", "country": "United States", "longitude": "-122.8308802", "latitude": "45.36773305", "phone": "5036251700", "website_url": "http://www.twokiltsbrewing.com", "state": "Oregon", "street": "14841 SW Tualatin Sherwood Rd Ste 501"}, {"id": "8b8dec5f-62d9-4970-8425-446c9f72026f", "name": "Two Knights Brewing", "brewery_type": "planning", "address_1": null, "address_2": null, "address_3": null, "city": "Austin", "state_province": "Texas", "postal_code": "78701-3720", "country": "United States", "longitude": null, "latitude": null, "phone": "5124176561", "website_url": null, "state": "Texas", "street": null}, {"id": "5edd07f2-5db8-4527-b234-227b23129c43", "name": "Two Monks Brewing Company", "brewery_type": "micro", "address_1": "352 Massillon Rd", "address_2": null, "address_3": null, "city": "Akron", "state_province": "Ohio", "postal_code": "44312-2021", "country": "United States", "longitude": "-81.46292368", "latitude": "41.05205025", "phone": "2347382337", "website_url": "http://www.2monksbru.com", "state": "Ohio", "street": "352 Massillon Rd"}, {"id": "a893c395-8dab-41a1-9b57-eee9e396ecb9", "name": "Two Plumbers Brewery and Arcade", "brewery_type": "micro", "address_1": "2236 1st Capitol Dr", "address_2": null, "address_3": null, "city": "Saint Charles", "state_province": "Missouri", "postal_code": "63301", "country": "United States", "longitude": "-90.511795", "latitude": "38.791625", "phone": "6362248626", "website_url": "http://www.twoplumbers.com", "state": "Missouri", "street": "2236 1st Capitol Dr"}, {"id": "1f1af7ee-3a2a-4c3e-ae68-584d60381d80", "name": "Two Rascals Brewing Co", "brewery_type": "micro", "address_1": "147 N 1st St", "address_2": null, "address_3": null, "city": "Montrose", "state_province": "Colorado", "postal_code": "81401-3601", "country": "United States", "longitude": "-107.8800003", "latitude": "38.4788199", "phone": "9702498689", "website_url": "http://www.tworascalsbrewing.com", "state": "Colorado", "street": "147 N 1st St"}, {"id": "1d4b058c-f5ac-4884-9ab5-d0d0d5cbf11c", "name": "Two Rivers Brewing Co", "brewery_type": "brewpub", "address_1": "542 Northampton St", "address_2": null, "address_3": null, "city": "Easton", "state_province": "Pennsylvania", "postal_code": "18042-3517", "country": "United States", "longitude": "-75.214292", "latitude": "40.69072655", "phone": "6108291131", "website_url": "http://www.tworiversbrewing.com", "state": "Pennsylvania", "street": "542 Northampton St"}, {"id": "0c45746b-fe2f-4171-b1e7-181027857e22", "name": "Two Roads Brewing Co", "brewery_type": "regional", "address_1": "1700 Stratford Ave", "address_2": null, "address_3": null, "city": "Stratford", "state_province": "Connecticut", "postal_code": "06615-6419", "country": "United States", "longitude": "-73.151247", "latitude": "41.184374", "phone": "2033352010", "website_url": "http://www.tworoadsbrewing.com", "state": "Connecticut", "street": "1700 Stratford Ave"}, {"id": "3c6ba9ee-3f7e-475f-a3d5-76d9924068ad", "name": "Two Rows Restaurant and Brewery - Allen", "brewery_type": "contract", "address_1": "711 Central Expy S", "address_2": null, "address_3": null, "city": "Allen", "state_province": "Texas", "postal_code": "75013-8012", "country": "United States", "longitude": "-96.67987289", "latitude": "33.0921542", "phone": "9723968670", "website_url": "http://www.tworows.com/", "state": "Texas", "street": "711 Central Expy S"}, {"id": "ec650c63-7266-4177-abe7-9eabdc5a6c73", "name": "Two Tides Brewing Company", "brewery_type": "micro", "address_1": "12 West 41st St", "address_2": null, "address_3": null, "city": "Savannah", "state_province": "Georgia", "postal_code": "31401", "country": "United States", "longitude": "-81.10216092", "latitude": "32.054127", "phone": "9126670706", "website_url": "http://www.twotidesbrewing.com", "state": "Georgia", "street": "12 West 41st St"}, {"id": "ad179174-6550-4b63-8055-301c822af22b", "name": "Two Ton Brewing", "brewery_type": "micro", "address_1": "730 Federal Ave", "address_2": null, "address_3": null, "city": "Kenilworth", "state_province": "New Jersey", "postal_code": "07033", "country": "United States", "longitude": "-74.28663992", "latitude": "40.67871822", "phone": null, "website_url": "http://www.twotonbrewing.com", "state": "New Jersey", "street": "730 Federal Ave"}, {"id": "7712331d-cff9-48e9-a76a-da423aadc841", "name": "Two Wheel Brewing Company", "brewery_type": "micro", "address_1": "535 S Loop 4", "address_2": null, "address_3": null, "city": "Buda", "state_province": "Texas", "postal_code": "78610-9388", "country": "United States", "longitude": null, "latitude": null, "phone": "5123613401", "website_url": "http://www.twowheelbrewing.com", "state": "Texas", "street": "535 S Loop 4"}, {"id": "64d344a6-fdd2-4e92-9838-2c360f783fd5", "name": "Two-Shy Brewing", "brewery_type": "micro", "address_1": "1308 NW Park St Ste 100", "address_2": null, "address_3": null, "city": "Roseburg", "state_province": "Oregon", "postal_code": "97470-2058", "country": "United States", "longitude": "-123.3553263", "latitude": "43.22538387", "phone": "5412362055", "website_url": "http://www.twoshybrewing.com", "state": "Oregon", "street": "1308 NW Park St Ste 100"}, {"id": "91673432-855c-469a-a703-18f8451b6365", "name": "Two22 Brew", "brewery_type": "micro", "address_1": "4550 S Reservoir Rd", "address_2": null, "address_3": null, "city": "Centennial", "state_province": "Colorado", "postal_code": "80015-2878", "country": "United States", "longitude": "-104.7601698", "latitude": "39.63429093", "phone": "7203289038", "website_url": "http://www.two22brew.com", "state": "Colorado", "street": "4550 S Reservoir Rd"}, {"id": "179899fd-256c-42c1-8fc5-7b68c340320b", "name": "TwoDEEP Brewing", "brewery_type": "brewpub", "address_1": "714 N Capitol Ave", "address_2": null, "address_3": null, "city": "Indianapolis", "state_province": "Indiana", "postal_code": "46204-1114", "country": "United States", "longitude": "-86.161428", "latitude": "39.777426", "phone": "3176531884", "website_url": "http://www.twodeepbrewing.com", "state": "Indiana", "street": "714 N Capitol Ave"}, {"id": "de49adbf-37b7-4f7f-8ae1-58210e67f073", "name": "TwoGuys Brewing", "brewery_type": "brewpub", "address_1": "2356 Porter St SW", "address_2": null, "address_3": null, "city": "Wyoming", "state_province": "Michigan", "postal_code": "49519", "country": "United States", "longitude": "-85.72355013", "latitude": "42.92114925", "phone": "6165529690", "website_url": "http://www.twoguysbrewing.beer", "state": "Michigan", "street": "2356 Porter St SW"}, {"id": "33178929-9e93-4e46-ab90-72c5a91a128f", "name": "Tyranena Brewing Co", "brewery_type": "micro", "address_1": "1025 Owen St", "address_2": null, "address_3": null, "city": "Lake Mills", "state_province": "Wisconsin", "postal_code": "53551-0736", "country": "United States", "longitude": "-88.8965312", "latitude": "43.0861774", "phone": "9206488699", "website_url": "http://www.tyranena.com", "state": "Wisconsin", "street": "1025 Owen St"}, {"id": "f997d03c-9301-4ce2-b71c-ac67dca594bd", "name": "U4ic Brewing, Inc.", "brewery_type": "micro", "address_1": "23436 Union Trl Ste 1", "address_2": null, "address_3": null, "city": "Belle Plaine", "state_province": "Minnesota", "postal_code": "56011-9008", "country": "United States", "longitude": "-93.8017001", "latitude": "44.6232246", "phone": "9528733303", "website_url": "http://www.u4icbrewing.com", "state": "Minnesota", "street": "23436 Union Trl Ste 1"}, {"id": "2f4e3d86-1b06-4a0e-9335-acfb6abfed37", "name": "Uberbrew", "brewery_type": "brewpub", "address_1": "2305 Montana Ave", "address_2": null, "address_3": null, "city": "Billings", "state_province": "Montana", "postal_code": "59101-2421", "country": "United States", "longitude": "-108.4990456", "latitude": "45.78417106", "phone": "4065346960", "website_url": "http://uberbrewmt.com", "state": "Montana", "street": "2305 Montana Ave"}, {"id": "a14412d4-f656-45df-a0ea-453201dc5f31", "name": "UBrew Nanobrewery", "brewery_type": "micro", "address_1": "3054 Cass Rd Unit F", "address_2": null, "address_3": null, "city": "Traverse City", "state_province": "Michigan", "postal_code": "49684-8800", "country": "United States", "longitude": null, "latitude": null, "phone": "2319432016", "website_url": "http://www.ubrewtc.com", "state": "Michigan", "street": "3054 Cass Rd Unit F"}, {"id": "611f8c45-a929-433d-b1a1-a590f85c456f", "name": "Uinta Brewing Co", "brewery_type": "regional", "address_1": "1722 S Fremont Dr", "address_2": null, "address_3": null, "city": "Salt Lake City", "state_province": "Utah", "postal_code": "84104-4215", "country": "United States", "longitude": "-111.954182", "latitude": "40.732607", "phone": "8014670909", "website_url": "http://www.uintabrewing.com", "state": "Utah", "street": "1722 S Fremont Dr"}, {"id": "591996cc-7431-45a1-b7f4-3b1f9c506cd5", "name": "Ukiah Brewing Co", "brewery_type": "brewpub", "address_1": "102 S State St", "address_2": null, "address_3": null, "city": "Ukiah", "state_province": "California", "postal_code": "95482-4903", "country": "United States", "longitude": "-123.2076383", "latitude": "39.14945851", "phone": "7074685898", "website_url": "http://www.ukiahbrewingco.com", "state": "California", "street": "102 S State St"}, {"id": "f3e74162-e002-43ad-acc8-2e55d563cd4a", "name": "Ulele Spring Brewery", "brewery_type": "brewpub", "address_1": "1810 N Highland Ave", "address_2": null, "address_3": null, "city": "Tampa", "state_province": "Florida", "postal_code": "33602-2605", "country": "United States", "longitude": "-82.46281904", "latitude": "27.9599097", "phone": null, "website_url": null, "state": "Florida", "street": "1810 N Highland Ave"}, {"id": "637f25db-22ec-4376-ac90-c723340287c1", "name": "UnBarred Brewery", "brewery_type": "taproom", "address_1": "Elder Place", "address_2": null, "address_3": null, "city": "Brighton", "state_province": "East Sussex", "postal_code": "BN1 4GF", "country": "England", "longitude": "-0.138599", "latitude": "50.832867", "phone": "1273894563", "website_url": "https://www.unbarredbrewery.com/", "state": "East Sussex", "street": "Elder Place"}, {"id": "c339e1ba-09e5-4f0e-933a-b18fff765eba", "name": "Uncle Bear's Brewery", "brewery_type": "brewpub", "address_1": "4921 E Ray Rd Ste 103", "address_2": null, "address_3": null, "city": "Phoenix", "state_province": "Arizona", "postal_code": "85044-6495", "country": "United States", "longitude": null, "latitude": null, "phone": "4802770765", "website_url": "http://www.unclebearsaz.com", "state": "Arizona", "street": "4921 E Ray Rd Ste 103"}, {"id": "d9a65f61-f901-40fe-85d1-620af49e72fb", "name": "Uncle Billy's Brewery", "brewery_type": "micro", "address_1": "1530 Barton Springs Rd", "address_2": null, "address_3": null, "city": "Austin", "state_province": "Texas", "postal_code": "78704-1013", "country": "United States", "longitude": "-97.76126939", "latitude": "30.262109", "phone": "5124760100", "website_url": "http://www.unclebillys.com", "state": "Texas", "street": "1530 Barton Springs Rd"}, {"id": "a980eb42-934a-4bca-8044-43fc23b43eb9", "name": "Uncle Buck's Brewery And Steakhouse", "brewery_type": "brewpub", "address_1": "2501 Bass Pro Dr", "address_2": null, "address_3": null, "city": "Grapevine", "state_province": "Texas", "postal_code": "76051-2009", "country": "United States", "longitude": null, "latitude": null, "phone": "9726915100", "website_url": "http://restaurants.basspro.com/UncleBucksSteakhouse/", "state": "Texas", "street": "2501 Bass Pro Dr"}, {"id": "684dfd0e-c132-413a-bb46-9daf08ed35e7", "name": "Uncle Ernies Bayfront Grill & Brew House", "brewery_type": "contract", "address_1": "1151 Bayview Ave", "address_2": null, "address_3": null, "city": "Panama City", "state_province": "Florida", "postal_code": "32401-1452", "country": "United States", "longitude": "-85.702765", "latitude": "30.1698125", "phone": "8507638427", "website_url": "http://uncleerniesbayfrontgrill.com/welcome/", "state": "Florida", "street": "1151 Bayview Ave"}, {"id": "45e1a706-1fb7-4a98-8007-817f9ffce1c8", "name": "Uncommon Brewers", "brewery_type": "closed", "address_1": "303 Potrero St Ste 40H", "address_2": null, "address_3": null, "city": "Santa Cruz", "state_province": "California", "postal_code": "95060-2778", "country": "United States", "longitude": "-122.0310356", "latitude": "36.98208037", "phone": "8316216270", "website_url": "http://www.uncommonbrewers.com", "state": "California", "street": "303 Potrero St Ste 40H"}, {"id": "bb57eee2-6d46-4318-a503-e3b003f9a5b6", "name": "Under Pressure Brewing Company", "brewery_type": "planning", "address_1": null, "address_2": null, "address_3": null, "city": "Plymouth", "state_province": "Minnesota", "postal_code": "55442-3211", "country": "United States", "longitude": null, "latitude": null, "phone": "6128509779", "website_url": "http://www.underpressurebrewing.com", "state": "Minnesota", "street": null}, {"id": "b212b659-6819-42c5-b5f2-93e735486d10", "name": "Under The Radar Brewery", "brewery_type": "micro", "address_1": "1506 Truxillo St", "address_2": null, "address_3": null, "city": "Houston", "state_province": "Texas", "postal_code": "77004-3960", "country": "United States", "longitude": "-95.3759411", "latitude": "29.7342113", "phone": "7133202766", "website_url": "http://www.undertheradarbrewery.com", "state": "Texas", "street": "1506 Truxillo St"}, {"id": "2a549416-59b9-4ed0-9b76-4a649f29ee80", "name": "Under the Rose Brewing Company", "brewery_type": "micro", "address_1": "559 E 4th St", "address_2": null, "address_3": null, "city": "Reno", "state_province": "Nevada", "postal_code": "89512-3317", "country": "United States", "longitude": "-119.8063947", "latitude": "39.5315258", "phone": "7756576619", "website_url": null, "state": "Nevada", "street": "559 E 4th St"}, {"id": "2dbbcfbc-636d-4cd8-9a57-7ae324adb66c", "name": "Under the Rose Brewing Company MidTown Location", "brewery_type": "brewpub", "address_1": "1041 S Virginia St", "address_2": null, "address_3": null, "city": "Reno", "state_province": "Nevada", "postal_code": "89502", "country": "United States", "longitude": "-119.8072604", "latitude": "39.51387478", "phone": null, "website_url": null, "state": "Nevada", "street": "1041 S Virginia St"}, {"id": "6cb41bae-ffe9-4d38-b89c-b272be7070aa", "name": "Underbite Brewing", "brewery_type": "planning", "address_1": null, "address_2": null, "address_3": null, "city": "Knoxville", "state_province": "Tennessee", "postal_code": "37909-1079", "country": "United States", "longitude": null, "latitude": null, "phone": null, "website_url": null, "state": "Tennessee", "street": null}, {"id": "c7e27537-ec4b-4e6c-9e3e-6d93ce2f3127", "name": "Underground Brewing", "brewery_type": "micro", "address_1": null, "address_2": null, "address_3": null, "city": "Woodinville", "state_province": "Washington", "postal_code": "98072", "country": "United States", "longitude": null, "latitude": null, "phone": null, "website_url": "http://www.underground-brewing.com", "state": "Washington", "street": null}, {"id": "43cbe517-bf1b-4a4d-b20b-b13ec74fff4d", "name": "Underground Brewing Co.", "brewery_type": "brewpub", "address_1": "3940 Broad St # 7415", "address_2": null, "address_3": null, "city": "San Luis Obispo", "state_province": "California", "postal_code": "93401-7017", "country": "United States", "longitude": "-120.6420324", "latitude": "35.2493387", "phone": null, "website_url": null, "state": "California", "street": "3940 Broad St # 7415"}, {"id": "4292bd71-a7f6-4cb8-88af-f1f1b60f2272", "name": "Une Annee Brewery", "brewery_type": "micro", "address_1": "9082 W Golf Rd", "address_2": null, "address_3": null, "city": "Niles", "state_province": "Illinois", "postal_code": "60714-5805", "country": "United States", "longitude": null, "latitude": null, "phone": "8476350655", "website_url": "http://uneannee.com", "state": "Illinois", "street": "9082 W Golf Rd"}, {"id": "a645a825-1f6a-4b58-884b-cc3b88276a73", "name": "Unified Beerworks", "brewery_type": "planning", "address_1": null, "address_2": null, "address_3": null, "city": "Ballston Lake", "state_province": "New York", "postal_code": "12019-1734", "country": "United States", "longitude": null, "latitude": null, "phone": "5184284185", "website_url": "http://unified-beerworks.com", "state": "New York", "street": null}, {"id": "83e8ad76-de1e-4d1d-9b78-05acc55b343c", "name": "Unify Brewing Company", "brewery_type": "planning", "address_1": null, "address_2": null, "address_3": null, "city": "Glenwood Springs", "state_province": "Colorado", "postal_code": "81601-3215", "country": "United States", "longitude": null, "latitude": null, "phone": "8164566374", "website_url": "http://www.UnifyBrewing.com", "state": "Colorado", "street": null}, {"id": "03f236ab-d400-4a43-b4b9-e91adf9dc13f", "name": "Union 32 Crafthouse", "brewery_type": "micro", "address_1": "2864 Highway 55 Ste 200", "address_2": null, "address_3": null, "city": "Eagan", "state_province": "Minnesota", "postal_code": "55121-1455", "country": "United States", "longitude": null, "latitude": null, "phone": "9528079777", "website_url": "http://www.union32crafthouse.com", "state": "Minnesota", "street": "2864 Highway 55 Ste 200"}, {"id": "378ffe8e-5cb8-4749-b5d6-797064394436", "name": "Union Barrel Works", "brewery_type": "brewpub", "address_1": "6 N Reamstown Rd", "address_2": null, "address_3": null, "city": "Stevens", "state_province": "Pennsylvania", "postal_code": "17578", "country": "United States", "longitude": null, "latitude": null, "phone": "7173357837", "website_url": null, "state": "Pennsylvania", "street": "6 N Reamstown Rd"}, {"id": "e8bb776f-eaeb-4132-ac76-54d9c5f4c8ec", "name": "Union Bear Brewing Co.", "brewery_type": "brewpub", "address_1": "5880 State Highway 121 Ste 101", "address_2": null, "address_3": null, "city": "Plano", "state_province": "Texas", "postal_code": "75024", "country": "United States", "longitude": "-96.8494045", "latitude": "33.083072", "phone": "2142972337", "website_url": "http://www.unionbear.com", "state": "Texas", "street": "5880 State Highway 121 Ste 101"}, {"id": "6f07acc5-3db8-4380-b30f-98d256184c56", "name": "Union Brewing", "brewery_type": "micro", "address_1": "622 S Rangeline Rd Ste Q", "address_2": null, "address_3": null, "city": "Carmel", "state_province": "Indiana", "postal_code": "46032-2152", "country": "United States", "longitude": null, "latitude": null, "phone": "3175644466", "website_url": "http://www.unionbrewingco.com", "state": "Indiana", "street": "622 S Rangeline Rd Ste Q"}, {"id": "09d390e3-f8db-47d3-a37f-039f67950c76", "name": "Union Craft Brewing", "brewery_type": "micro", "address_1": "1700 Union Ave Ste D", "address_2": null, "address_3": null, "city": "Baltimore", "state_province": "Maryland", "postal_code": "21211-1499", "country": "United States", "longitude": null, "latitude": null, "phone": "4106169282", "website_url": "http://www.unioncraftbrewing.com", "state": "Maryland", "street": "1700 Union Ave Ste D"}, {"id": "b1ef75c0-ad17-4e34-aaf1-761af30aee08", "name": "Union House Brewing LLC", "brewery_type": "planning", "address_1": null, "address_2": null, "address_3": null, "city": "Plum City", "state_province": "Wisconsin", "postal_code": "54761-0055", "country": "United States", "longitude": null, "latitude": null, "phone": null, "website_url": null, "state": "Wisconsin", "street": null}, {"id": "85fca49d-7715-4238-b3ab-4252a5299795", "name": "Union Pizza & Brewing Co", "brewery_type": "brewpub", "address_1": "114 S Union Ave", "address_2": null, "address_3": null, "city": "Fergus Falls", "state_province": "Minnesota", "postal_code": "56537-", "country": "United States", "longitude": "-96.07792093", "latitude": "46.28264407", "phone": "2189988888", "website_url": "http://www.unionpizzaandbrewing.com", "state": "Minnesota", "street": "114 S Union Ave"}, {"id": "6fba2263-8f73-4ed4-805f-d25d63f18cde", "name": "Union Station Brewery", "brewery_type": "brewpub", "address_1": "36 Exchange Ter Ste 2", "address_2": null, "address_3": null, "city": "Providence", "state_province": "Rhode Island", "postal_code": "02903-1798", "country": "United States", "longitude": "-71.414009", "latitude": "41.825558", "phone": "4012742739", "website_url": "https://www.unionstationpvd.com", "state": "Rhode Island", "street": "36 Exchange Ter Ste 2"}, {"id": "0101bc6d-8868-4673-9ed5-f15c5e545b96", "name": "Union Works Brewery LLC", "brewery_type": "planning", "address_1": null, "address_2": null, "address_3": null, "city": "Humboldt", "state_province": "Kansas", "postal_code": "66748-1050", "country": "United States", "longitude": null, "latitude": null, "phone": null, "website_url": null, "state": "Kansas", "street": null}, {"id": "6812f970-918c-4d57-be26-4b33baff46f0", "name": "Uniontown Brewing Co.", "brewery_type": "brewpub", "address_1": "105 W Main St", "address_2": null, "address_3": null, "city": "Ashland", "state_province": "Ohio", "postal_code": "44805-2221", "country": "United States", "longitude": "-82.31638932", "latitude": "40.8686238", "phone": "4199088542", "website_url": "http://www.uniontownbrewing.com", "state": "Ohio", "street": "105 W Main St"}, {"id": "1a2e0257-a0c5-4ea9-b786-5d5585674596", "name": "Unknown Brewing Company", "brewery_type": "micro", "address_1": "1327 S Mint St", "address_2": null, "address_3": null, "city": "Charlotte", "state_province": "North Carolina", "postal_code": "28203-4121", "country": "United States", "longitude": "-80.8575419", "latitude": "35.2205129", "phone": "9802372628", "website_url": "http://www.unknownbrewing.com", "state": "North Carolina", "street": "1327 S Mint St"}, {"id": "eddf1dc7-c32f-490f-8180-afe44f36438a", "name": "Unlawful Assembly Brewing Company", "brewery_type": "brewpub", "address_1": "7800 Windrose Ave", "address_2": null, "address_3": null, "city": "Plano", "state_province": "Texas", "postal_code": "75024-0114", "country": "United States", "longitude": "-96.8267889", "latitude": "33.078317", "phone": "9728967668", "website_url": "http://www.unlawfulassembly.com", "state": "Texas", "street": "7800 Windrose Ave"}, {"id": "89f7f1eb-3dbd-40d1-b530-aad3166b8ef0", "name": "Unleashed Brewing Company", "brewery_type": "planning", "address_1": null, "address_2": null, "address_3": null, "city": "Stonington", "state_province": "Connecticut", "postal_code": "06378-1628", "country": "United States", "longitude": null, "latitude": null, "phone": null, "website_url": "http://www.unleashedbrewing.com", "state": "Connecticut", "street": null}, {"id": "6eab32b5-1f19-44bf-9901-285deb3581f8", "name": "Unmapped Brewing Co.", "brewery_type": "micro", "address_1": "14625 Excelsior Blvd", "address_2": null, "address_3": null, "city": "Minnetonka", "state_province": "Minnesota", "postal_code": "55345-6605", "country": "United States", "longitude": "-93.46551151", "latitude": "44.90425928", "phone": "9525009622", "website_url": "http://www.unmappedbrewing.com", "state": "Minnesota", "street": "14625 Excelsior Blvd"}, {"id": "00ea9c67-130c-4fa0-9b92-8cfb2b6ca81f", "name": "Unnamed Beer Company, LLC", "brewery_type": "planning", "address_1": null, "address_2": null, "address_3": null, "city": "Boulder", "state_province": "Colorado", "postal_code": "80301", "country": "United States", "longitude": null, "latitude": null, "phone": null, "website_url": "http://www.unnamedbeer.com", "state": "Colorado", "street": null}, {"id": "a2a27dba-f20a-4d98-a29c-005a2dfbe724", "name": "Unruly Brewing Company", "brewery_type": "micro", "address_1": "360 W Western Ave", "address_2": null, "address_3": null, "city": "Muskegon", "state_province": "Michigan", "postal_code": "49440-1273", "country": "United States", "longitude": "-86.25381541", "latitude": "43.23504367", "phone": "2312881068", "website_url": "http://www.unrulybrewing.com", "state": "Michigan", "street": "360 W Western Ave"}]