[{"id": "3fa2f628-3f13-49be-a49c-b6177d912497", "name": "San Gabriel River Brewery Inc", "brewery_type": "micro", "address_1": "500 Chaparral Dr", "address_2": null, "address_3": null, "city": "Liberty Hill", "state_province": "Texas", "postal_code": "78642-4610", "country": "United States", "longitude": null, "latitude": null, "phone": "5126279384", "website_url": "http://www.sangabrielriverbrewery.com", "state": "Texas", "street": "500 Chaparral Dr"}, {"id": "81ab1434-2c88-4803-9cf3-6f1339c785bf", "name": "San Jacinto Brewing Company", "brewery_type": "planning", "address_1": null, "address_2": null, "address_3": null, "city": "Montgomery", "state_province": "Texas", "postal_code": "77316-9200", "country": "United States", "longitude": null, "latitude": null, "phone": "2813808200", "website_url": null, "state": "Texas", "street": null}, {"id": "7b341956-e6d2-42ac-8bd9-92768a5b3813", "name": "San Juan Island Brewing Company", "brewery_type": "brewpub", "address_1": "410 A St", "address_2": null, "address_3": null, "city": "Friday Harbor", "state_province": "Washington", "postal_code": "98250", "country": "United States", "longitude": "-123.0150233", "latitude": "48.53276541", "phone": "3603782017", "website_url": "http://www.sanjuanbrew.com", "state": "Washington", "street": "410 A St"}, {"id": "b700e34a-5e67-416c-8815-af29b022e719", "name": "San Luis Valley Brewing Co", "brewery_type": "brewpub", "address_1": "631 Main St", "address_2": null, "address_3": null, "city": "Alamosa", "state_province": "Colorado", "postal_code": "81101-2557", "country": "United States", "longitude": "-105.8742898", "latitude": "37.4681813", "phone": "7195872337", "website_url": "http://www.slvbrewco.com", "state": "Colorado", "street": "631 Main St"}, {"id": "4c2264d2-8a00-45a5-8b96-32afe58d4901", "name": "San Marcos Brewery and Grill", "brewery_type": "closed", "address_1": "1080 W San Marcos Blvd Ste 180", "address_2": null, "address_3": null, "city": "San Marcos", "state_province": "California", "postal_code": "92078-4099", "country": "United States", "longitude": "-117.190881", "latitude": "33.13459973", "phone": "7604710050", "website_url": null, "state": "California", "street": "1080 W San Marcos Blvd Ste 180"}, {"id": "c9931839-cd28-466a-8cde-d26a831b71bd", "name": "San Pedro Brewing Co", "brewery_type": "brewpub", "address_1": "331 W 6th St", "address_2": null, "address_3": null, "city": "San Pedro", "state_province": "California", "postal_code": "90731-3317", "country": "United States", "longitude": "-118.2842712", "latitude": "33.7386421", "phone": "3108315663", "website_url": "http://www.sanpedrobrewing.com", "state": "California", "street": "331 W 6th St"}, {"id": "c5b7b93b-7ce2-4e53-8515-12ec1bd8475d", "name": "Sanctuary Brewing Company", "brewery_type": "micro", "address_1": "147 1st Ave E", "address_2": null, "address_3": null, "city": "Hendersonville", "state_province": "North Carolina", "postal_code": "28792-5191", "country": "United States", "longitude": "-82.45881412", "latitude": "35.31453259", "phone": "8285959956", "website_url": "http://www.sanctuarybrewco.com", "state": "North Carolina", "street": "147 1st Ave E"}, {"id": "b2d75de8-293f-4e95-a6fb-fce2df0d81f8", "name": "Sanctuary Spirits", "brewery_type": "micro", "address_1": "902 E Saginaw Hwy", "address_2": null, "address_3": null, "city": "Grand Ledge", "state_province": "Michigan", "postal_code": "48837-9419", "country": "United States", "longitude": "-84.73453638", "latitude": "42.7407777", "phone": "5179251930", "website_url": "http://www.sanctuaryspirits.com", "state": "Michigan", "street": "902 E Saginaw Hwy"}, {"id": "572aab42-ff5c-4136-86ae-82c8f3218f6f", "name": "Sanctum Alehouse", "brewery_type": "brewpub", "address_1": "2638 Main St Ste M", "address_2": null, "address_3": null, "city": "Chula Vista", "state_province": "California", "postal_code": "91911", "country": "United States", "longitude": "-117.0767872", "latitude": "32.59580926", "phone": null, "website_url": null, "state": "California", "street": "2638 Main St Ste M"}, {"id": "278660c9-4773-468f-aa9f-19216b762d37", "name": "Sanctum Brewing Co", "brewery_type": "closed", "address_1": "560 E Commercial St Ste 21", "address_2": null, "address_3": null, "city": "Pomona", "state_province": "California", "postal_code": "91767-5649", "country": "United States", "longitude": "-117.7405025", "latitude": "34.05970244", "phone": "9093450253", "website_url": "http://www.sanctumbrewing.com", "state": "California", "street": "560 E Commercial St Ste 21"}, {"id": "5dbae73d-6b77-43fe-ac8b-034105c154a0", "name": "Sand City Brewing Co.", "brewery_type": "micro", "address_1": "60 Main St", "address_2": null, "address_3": null, "city": "Northport", "state_province": "New York", "postal_code": "11768-1722", "country": "United States", "longitude": "-73.3508587", "latitude": "40.8998983", "phone": "9177965672", "website_url": "http://www.sandcitybeer.com", "state": "New York", "street": "60 Main St"}, {"id": "cf190fc8-5842-4e12-8fd3-80b1fda0bf4e", "name": "Sand Creek Brewing Co", "brewery_type": "micro", "address_1": "320 Pierce St", "address_2": null, "address_3": null, "city": "Black River Falls", "state_province": "Wisconsin", "postal_code": "54615", "country": "United States", "longitude": "-90.85115523", "latitude": "44.29279126", "phone": "7152847553", "website_url": "http://www.sandcreekbrewing.com", "state": "Wisconsin", "street": "320 Pierce St"}, {"id": "6e944425-d2e8-4005-8d04-2d68bacf6d73", "name": "Sand Mtn brewery", "brewery_type": "planning", "address_1": null, "address_2": null, "address_3": null, "city": "Section", "state_province": "Alabama", "postal_code": "35771", "country": "United States", "longitude": "-85.986644", "latitude": "34.5789747", "phone": "2564180658", "website_url": "http://Www.sandmtnbrewery.com", "state": "Alabama", "street": null}, {"id": "75b2ab04-6d86-4928-8953-d60c4b1c172e", "name": "Sandhill Crane Vineyards", "brewery_type": "micro", "address_1": "4724 Walz Rd", "address_2": null, "address_3": null, "city": "Jackson", "state_province": "Michigan", "postal_code": "49201-9613", "country": "United States", "longitude": null, "latitude": null, "phone": "5177640679", "website_url": "http://www.sandhillcranevineyards.com", "state": "Michigan", "street": "4724 Walz Rd"}, {"id": "e6a58a3a-06ff-4f7e-a54d-a025199a176f", "name": "Sandude Brewing Co", "brewery_type": "micro", "address_1": "1401 Freitas Park", "address_2": null, "address_3": null, "city": "Turlock", "state_province": "California", "postal_code": "95380-6254", "country": "United States", "longitude": "-120.859873", "latitude": "37.479896", "phone": "2096781547", "website_url": null, "state": "California", "street": "1401 Freitas Park"}, {"id": "1cb033df-d217-475d-8b40-90af3a179934", "name": "Sandy Springs Brewing Company", "brewery_type": "brewpub", "address_1": "232 N Market St", "address_2": null, "address_3": null, "city": "Minerva", "state_province": "Ohio", "postal_code": "44657-1616", "country": "United States", "longitude": "-81.10382014", "latitude": "40.72956679", "phone": "3304516926", "website_url": "http://www.sandyspringsbrewery.com", "state": "Ohio", "street": "232 N Market St"}, {"id": "e0e79155-5263-49c9-b001-df29d38fe160", "name": "Sandy Valley Brewing Co", "brewery_type": "micro", "address_1": "3660 Linhorst Rd", "address_2": null, "address_3": null, "city": "Hillsboro", "state_province": "MIssouri", "postal_code": "63050", "country": "United States", "longitude": "-90.476661", "latitude": "38.30122", "phone": "6364755008", "website_url": "http://www.sandyvalleybrewingcompany.com", "state": "MIssouri", "street": "3660 Linhorst Rd"}, {"id": "2199b077-5cfa-4a8a-81bb-2be99e73338e", "name": "Sanford Brewing Company", "brewery_type": "brewpub", "address_1": "400 Sanford Ave", "address_2": null, "address_3": null, "city": "Sanford", "state_province": "Florida", "postal_code": "32771-1971", "country": "United States", "longitude": "-81.265044", "latitude": "28.808877", "phone": "4077326419", "website_url": "http://www.sanfordbrewing.com", "state": "Florida", "street": "400 Sanford Ave"}, {"id": "59639100-39ec-491e-bbe4-680013452e0b", "name": "Sanitas Brewing Co", "brewery_type": "micro", "address_1": "3550 Frontier Ave Ste A", "address_2": null, "address_3": null, "city": "Boulder", "state_province": "Colorado", "postal_code": "80301-2430", "country": "United States", "longitude": null, "latitude": null, "phone": "2152667762", "website_url": "http://www.sanitasbrewing.com/", "state": "Colorado", "street": "3550 Frontier Ave Ste A"}, {"id": "bdd2577c-fb11-4237-a32a-a9d0f3f680d2", "name": "Santa Barbara Brewing Co", "brewery_type": "brewpub", "address_1": "501 State St", "address_2": null, "address_3": null, "city": "Santa Barbara", "state_province": "California", "postal_code": "93101-1601", "country": "United States", "longitude": "-119.7526684", "latitude": "34.4404959", "phone": "8057301040", "website_url": "http://www.sbbrewco.com", "state": "California", "street": "501 State St"}, {"id": "b02f2e1a-349c-40f4-bca2-69aeaf0e3a68", "name": "Santa Clara Valley Brewing", "brewery_type": "micro", "address_1": "101 E Alma Ave", "address_2": null, "address_3": null, "city": "San Jose", "state_province": "California", "postal_code": "95112-5944", "country": "United States", "longitude": "-121.8738718", "latitude": "37.31635308", "phone": "4082885181", "website_url": "http://www.scvbrewing.com", "state": "California", "street": "101 E Alma Ave"}, {"id": "c9e0d728-076b-4867-a9d9-a2f20ff24e25", "name": "Santa Cruz Aleworks", "brewery_type": "closed", "address_1": "150 Dubois St Ste E", "address_2": null, "address_3": null, "city": "Santa Cruz", "state_province": "California", "postal_code": "95060-2114", "country": "United States", "longitude": "-122.0385924", "latitude": "36.98680136", "phone": "8314251182", "website_url": "http://www.santacruzaleworks.com", "state": "California", "street": "150 Dubois St Ste E"}, {"id": "446040d3-601c-4f9e-be86-ba4280b89b33", "name": "Santa Cruz Mountain Brewing", "brewery_type": "brewpub", "address_1": "402 Ingalls St Ste 27", "address_2": null, "address_3": null, "city": "Santa Cruz", "state_province": "California", "postal_code": "95060-5869", "country": "United States", "longitude": "-122.0481007", "latitude": "36.95925318", "phone": null, "website_url": null, "state": "California", "street": "402 Ingalls St Ste 27"}, {"id": "3a366221-e927-47b5-a137-a553b82c3245", "name": "Santa Fe Brewing Co", "brewery_type": "regional", "address_1": "35 Fire Place", "address_2": null, "address_3": null, "city": "Santa Fe", "state_province": "New Mexico", "postal_code": "87508-4493", "country": "United States", "longitude": "-106.0515883", "latitude": "35.59654205", "phone": "5054243333", "website_url": "http://www.santafebrewing.com", "state": "New Mexico", "street": "35 Fire Place"}, {"id": "abf360a2-84d7-491c-a372-e6eabc07f4a0", "name": "Santa Maria Brewing Co", "brewery_type": "micro", "address_1": "7935 San Luis Ave", "address_2": null, "address_3": null, "city": "Atascadero", "state_province": "California", "postal_code": "93422", "country": "United States", "longitude": "-120.6576002", "latitude": "35.47776332", "phone": "8055457702", "website_url": "http://www.santamariabrewingco.com", "state": "California", "street": "7935 San Luis Ave"}, {"id": "ede87167-b083-49b4-880e-6c8167e1662d", "name": "Santa Maria Brewing Co", "brewery_type": "brewpub", "address_1": "115 Cuyama Ln", "address_2": null, "address_3": null, "city": "Nipomo", "state_province": "California", "postal_code": "93444", "country": "United States", "longitude": "-120.4364431", "latitude": "34.99599466", "phone": "8059251555", "website_url": "http://www.santamariabrewingco.com", "state": "California", "street": "115 Cuyama Ln"}, {"id": "05f35e24-25fa-4cd8-9701-4b1ef9d6bc8b", "name": "Santa Maria Brewing Co", "brewery_type": "closed", "address_1": "1451 Fairway Dr", "address_2": null, "address_3": null, "city": "Santa Maria", "state_province": "California", "postal_code": "93455-1404", "country": "United States", "longitude": "-120.4628795", "latitude": "34.91399145", "phone": null, "website_url": "http://www.santamariabrewingco.com", "state": "California", "street": "1451 Fairway Dr"}, {"id": "804be063-5e93-4657-a2ee-b89d73f11a00", "name": "Santa Monica Brew Works", "brewery_type": "micro", "address_1": "1920 Colorado Ave Ste C", "address_2": null, "address_3": null, "city": "Santa Monica", "state_province": "California", "postal_code": "90404-3414", "country": "United States", "longitude": "-118.4765129", "latitude": "34.02565745", "phone": "3108287629", "website_url": "http://www.santamonicabrewworks.com", "state": "California", "street": "1920 Colorado Ave Ste C"}, {"id": "85619fb4-6a1c-48b5-8280-4962b2eb67df", "name": "SanTan Brewing Co", "brewery_type": "regional", "address_1": "8 S San Marcos Pl", "address_2": null, "address_3": null, "city": "Chandler", "state_province": "Arizona", "postal_code": "85225-7862", "country": "United States", "longitude": "-111.8423459", "latitude": "33.3032436", "phone": "4809178700", "website_url": "http://www.santanbrewing.com", "state": "Arizona", "street": "8 S San Marcos Pl"}, {"id": "6b294403-76c6-411c-b991-6d9c853f514f", "name": "SanTan Brewing Co", "brewery_type": "planning", "address_1": null, "address_2": null, "address_3": null, "city": "Phoenix", "state_province": "Arizona", "postal_code": "85014-2435", "country": "United States", "longitude": "-112.0773456", "latitude": "33.4485866", "phone": null, "website_url": null, "state": "Arizona", "street": null}, {"id": "a48a79db-2554-4e84-8112-088ceaa4f2ad", "name": "SanTan Brewing Co - Uptown Chandler", "brewery_type": "micro", "address_1": "495 E. Warner Rd.", "address_2": null, "address_3": null, "city": "Chandler", "state_province": "Arizona", "postal_code": "85225", "country": "United States", "longitude": "-111.8384052", "latitude": "33.3352048", "phone": "4809178700", "website_url": null, "state": "Arizona", "street": "495 E. Warner Rd."}, {"id": "229523be-7783-46ed-a5cc-ff15ea7f01eb", "name": "Sante Adairius Rustic Ales", "brewery_type": "micro", "address_1": "103 Kennedy Dr", "address_2": null, "address_3": null, "city": "Capitola", "state_province": "California", "postal_code": "95010-3641", "country": "United States", "longitude": "-121.9405748", "latitude": "36.9822865", "phone": "8313454867", "website_url": "http://www.rusticales.com", "state": "California", "street": "103 Kennedy Dr"}, {"id": "fcebcda3-2a5d-48a2-8cfb-2e86214550e2", "name": "Santiam Brewing Co", "brewery_type": "micro", "address_1": "2544 19th St SE", "address_2": null, "address_3": null, "city": "Salem", "state_province": "Oregon", "postal_code": "97302-1501", "country": "United States", "longitude": "-123.0209084", "latitude": "44.91644665", "phone": "5035075257", "website_url": "http://www.santiambrewing.com", "state": "Oregon", "street": "2544 19th St SE"}, {"id": "b1cb9fee-8488-43dd-9073-5cb426b580fc", "name": "Sapphire Mountain Brewing Co", "brewery_type": "contract", "address_1": "50 Slicers Ave", "address_2": null, "address_3": null, "city": "Sapphire", "state_province": "North Carolina", "postal_code": "28774-9405", "country": "United States", "longitude": null, "latitude": null, "phone": "8287430220", "website_url": "http://www.sapphiremountainbrewingcompany.com", "state": "North Carolina", "street": "50 Slicers Ave"}, {"id": "a29dd725-49eb-4f82-b7c0-28ae9cdf21b2", "name": "Sapporo Brewery USA", "brewery_type": "large", "address_1": null, "address_2": null, "address_3": null, "city": "La Crosse", "state_province": "Wisconsin", "postal_code": "54601", "country": "United States", "longitude": null, "latitude": null, "phone": null, "website_url": null, "state": "Wisconsin", "street": null}, {"id": "9d2d554a-e0e4-49d9-9fc7-617440346398", "name": "Saranac Brewery / Matt Brewing Co", "brewery_type": "regional", "address_1": "811 Edward St", "address_2": null, "address_3": null, "city": "Utica", "state_province": "New York", "postal_code": "13502-4001", "country": "United States", "longitude": "-75.24414622", "latitude": "43.10355567", "phone": "3156242400", "website_url": "http://www.saranac.com", "state": "New York", "street": "811 Edward St"}, {"id": "86e2d1b2-4613-441a-a543-e762718d3153", "name": "Sarasota Brewing Co", "brewery_type": "brewpub", "address_1": "6607 Gateway Ave", "address_2": null, "address_3": null, "city": "Sarasota", "state_province": "Florida", "postal_code": "34231-5805", "country": "United States", "longitude": "-82.5163259", "latitude": "27.26007897", "phone": "9419252337", "website_url": "http://www.sarasotabrewing.com", "state": "Florida", "street": "6607 Gateway Ave"}, {"id": "e590ffd3-4144-4edb-8a5b-cb24c3d84072", "name": "Sasquatch Brewery", "brewery_type": "micro", "address_1": "2531 NW 30th Ave", "address_2": null, "address_3": null, "city": "Portland", "state_province": "Oregon", "postal_code": "97210-2015", "country": "United States", "longitude": "-122.7125709", "latitude": "45.54008922", "phone": "5038415687", "website_url": "http://www.sasquatchbrewery.com", "state": "Oregon", "street": "2531 NW 30th Ave"}, {"id": "92208a7f-cada-48db-92cd-ecae370557a6", "name": "Sasquatch Pub", "brewery_type": "brewpub", "address_1": "6440 SW Capitol Hwy.", "address_2": null, "address_3": null, "city": "Portland", "state_province": "Oregon", "postal_code": "97239", "country": "United States", "longitude": "-122.6988132", "latitude": "45.4776303", "phone": "5038415687", "website_url": null, "state": "Oregon", "street": "6440 SW Capitol Hwy."}, {"id": "8d0e0a59-2799-4825-a275-bb109dc0fc10", "name": "Uncrafted Territory Brewing Company", "brewery_type": "planning", "address_1": null, "address_2": null, "address_3": null, "city": "Beaver Dam", "state_province": "Kentucky", "postal_code": "42320-1915", "country": "United States", "longitude": null, "latitude": null, "phone": "2707753131", "website_url": null, "state": "Kentucky", "street": null}, {"id": "6e9c8574-d73b-4da3-927a-275f91b0bc87", "name": "Sato Brewpub", "brewery_type": "brewpub", "address_1": "110 Pearl St", "address_2": null, "address_3": null, "city": "Buffalo", "state_province": "New York", "postal_code": "14202-4125", "country": "United States", "longitude": "-78.87693971", "latitude": "42.88186146", "phone": "7162481436", "website_url": "http://www.satobrewpub.com", "state": "New York", "street": "110 Pearl St"}, {"id": "c930a583-8540-418a-aaf2-d0042d20f5a6", "name": "Satulah Mountain Brewing Co", "brewery_type": "micro", "address_1": "454 Carolina Way", "address_2": null, "address_3": null, "city": "Highlands", "state_province": "North Carolina", "postal_code": "28741", "country": "United States", "longitude": "-83.19553951", "latitude": "35.05400622", "phone": "8284829794", "website_url": "http://www.satulahmountainbrewing.com", "state": "North Carolina", "street": "454 Carolina Way"}, {"id": "62723af7-e8b2-4831-b708-b39756691eeb", "name": "Sauced BBQ & Spirits", "brewery_type": "contract", "address_1": "2300 1st St Ste 120", "address_2": null, "address_3": null, "city": "Livermore", "state_province": "California", "postal_code": "94550-3141", "country": "United States", "longitude": "-121.7679156", "latitude": "37.68288154", "phone": "9259611300", "website_url": "http://www.saucedbbqandspirits.com", "state": "California", "street": "2300 1st St Ste 120"}, {"id": "2fa37cd3-a1d8-4a64-a244-f1059f2df9f7", "name": "Saucony Creek Brewing Company", "brewery_type": "micro", "address_1": "15032 Kutztown Rd", "address_2": null, "address_3": null, "city": "Kutztown", "state_province": "Pennsylvania", "postal_code": "19530-9275", "country": "United States", "longitude": "-75.79700353", "latitude": "40.50149993", "phone": "6106833128", "website_url": "http://www.sauconycreekbrewing.com", "state": "Pennsylvania", "street": "15032 Kutztown Rd"}, {"id": "6a08ad19-89d0-4c1a-b5ef-1cdb106a5f07", "name": "Saucy Brew Works", "brewery_type": "brewpub", "address_1": "2885 Detroit Ave", "address_2": null, "address_3": null, "city": "Cleveland", "state_province": "Ohio", "postal_code": "44113-2765", "country": "United States", "longitude": "-81.7105691", "latitude": "41.4894793", "phone": "2166662568", "website_url": "http://www.saucybrewworks.com", "state": "Ohio", "street": "2885 Detroit Ave"}, {"id": "3318789a-72b4-44fd-ba6c-64200fbe52bd", "name": "Saugatuck Brewing Co", "brewery_type": "micro", "address_1": "2948 Blue Star Hwy", "address_2": null, "address_3": null, "city": "Douglas", "state_province": "Michigan", "postal_code": "49406-5195", "country": "United States", "longitude": "-86.2120077", "latitude": "42.62989386", "phone": "2698577222", "website_url": "http://www.saugatuckbrewing.com", "state": "Michigan", "street": "2948 Blue Star Hwy"}, {"id": "c098878d-1e3d-4eb0-9d15-df944e2fbdbb", "name": "Savagewood Brewing Company", "brewery_type": "micro", "address_1": "9879 Hibert St Ste F", "address_2": null, "address_3": null, "city": "San Diego", "state_province": "California", "postal_code": "92131-1058", "country": "United States", "longitude": "-117.1130008", "latitude": "32.91329511", "phone": "8585770350", "website_url": "http://www.savagewoodbrewing.com", "state": "California", "street": "9879 Hibert St Ste F"}, {"id": "e948ab84-5a33-499b-9e34-203b6820fd3d", "name": "Savannah Beer Company", "brewery_type": "planning", "address_1": null, "address_2": null, "address_3": null, "city": "Savannah", "state_province": "Georgia", "postal_code": "31410", "country": "United States", "longitude": null, "latitude": null, "phone": "9124140187", "website_url": null, "state": "Georgia", "street": null}, {"id": "60fde094-f45d-4e98-a136-f342a35f7e8d", "name": "Savannah River Brewing Company", "brewery_type": "micro", "address_1": "813 5th St", "address_2": null, "address_3": null, "city": "Augusta", "state_province": "Georgia", "postal_code": "30901-2414", "country": "United States", "longitude": "-81.96288082", "latitude": "33.46534536", "phone": "7064268212", "website_url": "http://www.savannahriverbrew.com", "state": "Georgia", "street": "813 5th St"}, {"id": "e72050e0-715e-4333-b2a0-d8b04e2cd0f7", "name": "Save the World Brewing Co", "brewery_type": "micro", "address_1": "1510 Resource Pkwy", "address_2": null, "address_3": null, "city": "Marble Falls", "state_province": "Texas", "postal_code": "78654-3983", "country": "United States", "longitude": null, "latitude": null, "phone": "8306377654", "website_url": "http://www.savetheworldbrewing.com", "state": "Texas", "street": "1510 Resource Pkwy"}, {"id": "18f65032-7043-4c44-9df9-78a396be1572", "name": "Sawbriar Brewery", "brewery_type": "planning", "address_1": null, "address_2": null, "address_3": null, "city": "Lafayette", "state_province": "Louisiana", "postal_code": "70501", "country": "United States", "longitude": null, "latitude": null, "phone": "3373403308", "website_url": "http://www.sawbriarbrewery.com", "state": "Louisiana", "street": null}, {"id": "6a5802e9-b70d-425e-bf9e-028ff8efe332", "name": "Sawmill Brewing Co", "brewery_type": "micro", "address_1": "1110 E 10th St", "address_2": null, "address_3": null, "city": "Merrill", "state_province": "Wisconsin", "postal_code": "54452-1221", "country": "United States", "longitude": "-89.6830878", "latitude": "45.18859223", "phone": "7157720230", "website_url": "http://www.sawmillbrewing.net", "state": "Wisconsin", "street": "1110 E 10th St"}, {"id": "ecbd9c7e-4207-4b40-a9ca-682fa1bb77fc", "name": "Sawmill Pizza and Brew Shed", "brewery_type": "brewpub", "address_1": "805 30th Ave", "address_2": null, "address_3": null, "city": "Clear Lake", "state_province": "Wisconsin", "postal_code": "54005", "country": "United States", "longitude": "-92.29614", "latitude": "45.252594", "phone": null, "website_url": "http://www.weddingsinechovalley.com", "state": "Wisconsin", "street": "805 30th Ave"}, {"id": "32f0c8a3-8dcd-42d1-b442-0bb9daa32b1e", "name": "Sawtooth Brewery", "brewery_type": "brewpub", "address_1": "110 N River St", "address_2": null, "address_3": null, "city": "Hailey", "state_province": "Idaho", "postal_code": "83333-7027", "country": "United States", "longitude": "-114.319764", "latitude": "43.522311", "phone": "2087883213", "website_url": "http://www.sawtoothbrewery.com", "state": "Idaho", "street": "110 N River St"}, {"id": "b4425c01-a64b-4017-a203-36c1b55e9875", "name": "Sawtooth Brewery - Ketchum Public House", "brewery_type": "brewpub", "address_1": "631 Warm Springs Rd", "address_2": null, "address_3": null, "city": "Ketchum", "state_province": "Idaho", "postal_code": "83340", "country": "United States", "longitude": "-114.366822", "latitude": "43.683736", "phone": "2087266803", "website_url": "https://www.sawtoothbrewery.com", "state": "Idaho", "street": "631 Warm Springs Rd"}, {"id": "daf5e811-f7a2-4056-aa17-aa128febf931", "name": "Scale House Brewery", "brewery_type": "brewpub", "address_1": "5930 State Route 414", "address_2": null, "address_3": null, "city": "Hector", "state_province": "New York", "postal_code": "14841-9662", "country": "United States", "longitude": null, "latitude": null, "phone": "6075462030", "website_url": "http://www.scalehousebrews.com", "state": "New York", "street": "5930 State Route 414"}, {"id": "0b6d5f3a-a88a-48c1-9666-39f6296cccfd", "name": "Scale House Brewery & Pub", "brewery_type": "brewpub", "address_1": "23 Cinema Dr Ste C", "address_2": null, "address_3": null, "city": "Ithaca", "state_province": "New York", "postal_code": "14850-1682", "country": "United States", "longitude": null, "latitude": null, "phone": "6072570107", "website_url": "http://www.scalehousebrewpub.com", "state": "New York", "street": "23 Cinema Dr Ste C"}, {"id": "5fcdd943-951a-44ea-8b85-991d5693e870", "name": "Scamp Brewing Co", "brewery_type": "micro", "address_1": "402 16th St NE Ste 107", "address_2": null, "address_3": null, "city": "Auburn", "state_province": "Washington", "postal_code": "98002-1600", "country": "United States", "longitude": "-122.224267", "latitude": "47.321914", "phone": null, "website_url": "http://www.scampbrewing.com", "state": "Washington", "street": "402 16th St NE Ste 107"}, {"id": "7f3deb67-f5c3-41d3-87fb-e7cfad259674", "name": "Scantic River Brewery", "brewery_type": "micro", "address_1": "25 Mill Rd", "address_2": null, "address_3": null, "city": "Hampden", "state_province": "Massachusetts", "postal_code": "01036-9624", "country": "United States", "longitude": "-72.58331688", "latitude": "42.04303611", "phone": "4132049163", "website_url": "http://www.scanticriverbrewery.com", "state": "Massachusetts", "street": "25 Mill Rd"}, {"id": "f4dfd9ef-1936-4d1a-b0b5-9358543a3ede", "name": "Scarlet Lane Brewing Company LLC", "brewery_type": "micro", "address_1": "7724 Depot St", "address_2": null, "address_3": null, "city": "McCordsville", "state_province": "Indiana", "postal_code": "46055-6173", "country": "United States", "longitude": "-85.92438159", "latitude": "39.89477286", "phone": null, "website_url": "http://www.scarletlanebrew.com", "state": "Indiana", "street": "7724 Depot St"}, {"id": "2e2572a7-488b-410b-a5fd-63ec7988306f", "name": "Scatter Creek Brewing", "brewery_type": "micro", "address_1": "237 Sussex Ave W", "address_2": null, "address_3": null, "city": "Tenino", "state_province": "Washington", "postal_code": "98589-9360", "country": "United States", "longitude": null, "latitude": null, "phone": "3602649463", "website_url": "http://www.facebook.com/ScatterCreekBrewing/", "state": "Washington", "street": "237 Sussex Ave W"}, {"id": "1f876d25-9192-45b7-a71f-3c184d4608e0", "name": "Schilling Beer Co", "brewery_type": "brewpub", "address_1": "18 Mill St", "address_2": null, "address_3": null, "city": "Littleton", "state_province": "New Hampshire", "postal_code": "03561-4000", "country": "United States", "longitude": "-71.77281065", "latitude": "44.30592045", "phone": "6034444800", "website_url": "http://www.schillingbeer.com", "state": "New Hampshire", "street": "18 Mill St"}, {"id": "bd3648d3-4497-4f53-ac4f-c267a2c7f938", "name": "SchillingBridge Winery & Microbrewery", "brewery_type": "brewpub", "address_1": "62193 710th Rd", "address_2": null, "address_3": null, "city": "Pawnee City", "state_province": "Nebraska", "postal_code": "68420-3584", "country": "United States", "longitude": "-96.163742", "latitude": "40.115124", "phone": "4028522400", "website_url": "http://www.schillingbridgewinery.com", "state": "Nebraska", "street": "62193 710th Rd"}, {"id": "eb82907e-7f0d-4453-b07e-4e00763e1cf6", "name": "Schladminger Brauerei (Heineken)", "brewery_type": "large", "address_1": "Hammerfeldweg 163", "address_2": null, "address_3": null, "city": "Schladming", "state_province": "Steiermark", "postal_code": "8970", "country": "Austria", "longitude": "13.685049237310041", "latitude": "47.390297330890185", "phone": "+433687225910", "website_url": "https://www.schladmingerbier.at", "state": "Steiermark", "street": "Hammerfeldweg 163"}, {"id": "e918f066-b632-4423-96cf-b46c3aa3cf47", "name": "Schlafly Beer/The Saint Louis Brewery, LLC", "brewery_type": "regional", "address_1": "2100 Locust St", "address_2": null, "address_3": null, "city": "Saint Louis", "state_province": "Missouri", "postal_code": "63103-1616", "country": "United States", "longitude": "-90.20969425", "latitude": "38.63298865", "phone": "3142412337", "website_url": "http://www.schlafly.com", "state": "Missouri", "street": "2100 Locust St"}, {"id": "e1cf911d-240b-4393-9a85-9b70efb965ca", "name": "Schlafly Bottleworks", "brewery_type": "regional", "address_1": "1 Schlafly Plz", "address_2": null, "address_3": null, "city": "Saint Louis", "state_province": "Missouri", "postal_code": "63143-2454", "country": "United States", "longitude": null, "latitude": null, "phone": "3142412337", "website_url": "http://www.schlafly.com", "state": "Missouri", "street": "1 Schlafly Plz"}, {"id": "c69231e2-6ff1-4d14-a940-02a8b551d03b", "name": "Schlafly Bottleworks Maplewood", "brewery_type": "regional", "address_1": "7260 Southwest Ave", "address_2": null, "address_3": null, "city": "Maplewood", "state_province": "Missouri", "postal_code": "63143", "country": "United States", "longitude": "-90.314774", "latitude": "38.613184", "phone": "3142412337", "website_url": "http://www.schlafly.com", "state": "Missouri", "street": "7260 Southwest Ave"}, {"id": "c88759b6-88d6-4172-bed7-61dec61e50aa", "name": "Schleppe Brauerei (Heineken)", "brewery_type": "large", "address_1": "Schleppe-Platz 1", "address_2": null, "address_3": null, "city": "Klagenfurt am W\ufffdrthersee", "state_province": "K\ufffdrnten", "postal_code": "9020", "country": "Austria", "longitude": "14.286632028634074", "latitude": "46.6416966591789", "phone": "+4346342700", "website_url": "http://www.schleppe.at", "state": "K\ufffdrnten", "street": "Schleppe-Platz 1"}, {"id": "a239dc38-7483-4766-8ac7-5eace6440bf7", "name": "Schmohz Brewery", "brewery_type": "micro", "address_1": "2600 Patterson Ave SE Ste 1", "address_2": null, "address_3": null, "city": "Grand Rapids", "state_province": "Michigan", "postal_code": "49546-6394", "country": "United States", "longitude": null, "latitude": null, "phone": "6169490860", "website_url": "http://www.schmohz.com", "state": "Michigan", "street": "2600 Patterson Ave SE Ste 1"}, {"id": "a653b55e-ebee-4ec6-9fa2-c83bf8e28ad6", "name": "Schnitz Brewery", "brewery_type": "brewpub", "address_1": "2031 Newton St", "address_2": null, "address_3": null, "city": "Jasper", "state_province": "Indiana", "postal_code": "47546-1600", "country": "United States", "longitude": "-86.937703", "latitude": "38.405985", "phone": "8128482739", "website_url": "http://www.schnitzbrewery.com", "state": "Indiana", "street": "2031 Newton St"}, {"id": "dcc836be-93ad-4da8-a51a-2bcb1d07cb94", "name": "Scholb Premium Ales", "brewery_type": "micro", "address_1": "2964 Columbia St", "address_2": null, "address_3": null, "city": "Torrance", "state_province": "California", "postal_code": "90503-3806", "country": "United States", "longitude": "-118.339288", "latitude": "33.8431475", "phone": "4243507303", "website_url": "http://www.drinkscholb.com", "state": "California", "street": "2964 Columbia St"}, {"id": "c8b87f2f-ce4a-4fee-affc-f8015b83ef9d", "name": "Schooner Exact Brewing Co", "brewery_type": "micro", "address_1": "3901 1st Ave S", "address_2": null, "address_3": null, "city": "Seattle", "state_province": "Washington", "postal_code": "98134-2236", "country": "United States", "longitude": "-122.3354879", "latitude": "47.5678008", "phone": "2064329734", "website_url": null, "state": "Washington", "street": "3901 1st Ave S"}, {"id": "1331451d-a64f-49f8-adc1-ea7aac9cf68a", "name": "Schram Vineyards Winery & Brewery", "brewery_type": "micro", "address_1": "8785 Airport Rd", "address_2": null, "address_3": null, "city": "Waconia", "state_province": "Minnesota", "postal_code": "55387-9634", "country": "United States", "longitude": "-93.74364727", "latitude": "44.84415744", "phone": "9524425105", "website_url": "http://SchramVineyards.com", "state": "Minnesota", "street": "8785 Airport Rd"}, {"id": "a66c4f44-cf09-494e-90db-e427ef72d578", "name": "Schubros Brewery", "brewery_type": "closed", "address_1": "12893 Alcosta Blvd Ste N", "address_2": null, "address_3": null, "city": "San Ramon", "state_province": "California", "postal_code": "94583-1305", "country": "United States", "longitude": "-121.9631014", "latitude": "37.7790836", "phone": "9253270700", "website_url": "http://www.schubros.com", "state": "California", "street": "12893 Alcosta Blvd Ste N"}, {"id": "350717f8-b847-46ff-b577-8599466f7fb6", "name": "Schulz Brau Brewing Company", "brewery_type": "micro", "address_1": "126 Bernard Ave", "address_2": null, "address_3": null, "city": "Knoxville", "state_province": "Tennessee", "postal_code": "37917-7116", "country": "United States", "longitude": "-83.9273236", "latitude": "35.97675726", "phone": "8002459764", "website_url": "http://www.schulzbraubrewing.com", "state": "Tennessee", "street": "126 Bernard Ave"}, {"id": "4c8dff75-fa8c-41ce-9999-1f063b59addb", "name": "Schwechater Brauerei (Heineken)", "brewery_type": "large", "address_1": "Mautner-Markhof-Stra\ufffde 11", "address_2": null, "address_3": null, "city": "Schwechat", "state_province": "Nieder\ufffdsterreich", "postal_code": "2320", "country": "Austria", "longitude": "16.467172715971294", "latitude": "48.14492358439182", "phone": "+431701400", "website_url": "https://www.schwechater.at", "state": "Nieder\ufffdsterreich", "street": "Mautner-Markhof-Stra\ufffde 11"}, {"id": "71ded1fd-3d39-42df-b7e3-15aa83ab2d88", "name": "Science", "brewery_type": "planning", "address_1": null, "address_2": null, "address_3": null, "city": "Phoenix", "state_province": "Arizona", "postal_code": "85020-5620", "country": "United States", "longitude": "-112.0773456", "latitude": "33.4485866", "phone": null, "website_url": null, "state": "Arizona", "street": null}, {"id": "e0cef7d4-acb0-4097-ac31-a54ea15c5ea6", "name": "Scissortail Brewing Co.", "brewery_type": "planning", "address_1": null, "address_2": null, "address_3": null, "city": "Bartlesville", "state_province": "Oklahoma", "postal_code": "74003-7154", "country": "United States", "longitude": null, "latitude": null, "phone": "9186949948", "website_url": "http://www.scissortailbrew.com", "state": "Oklahoma", "street": null}, {"id": "f58d5583-7c68-4fb8-a080-54cfcec66cd7", "name": "Scofflaw Brewing Co", "brewery_type": "micro", "address_1": "1738 Macarthur Blvd NW", "address_2": null, "address_3": null, "city": "Atlanta", "state_province": "Georgia", "postal_code": "30318-2022", "country": "United States", "longitude": null, "latitude": null, "phone": "4049153392", "website_url": "http://www.scofflawbeer.com", "state": "Georgia", "street": "1738 Macarthur Blvd NW"}, {"id": "1d66e2c7-e688-4e8c-9892-cb55efcfd9ab", "name": "Sconnie Beverage", "brewery_type": "contract", "address_1": "1403 N SUMMIT AVE\u00c2\u00a0", "address_2": null, "address_3": null, "city": "Oconomowoc", "state_province": "Wisconsin", "postal_code": "53066", "country": "United States", "longitude": null, "latitude": null, "phone": "6085563112", "website_url": "http://www.sconniebeer.com", "state": "Wisconsin", "street": "1403 N SUMMIT AVE\u00c2\u00a0"}, {"id": "dbe83f45-6248-4232-bac6-8ade9979c56e", "name": "Scorched Earth Brewing Co.", "brewery_type": "micro", "address_1": "203 Berg St", "address_2": null, "address_3": null, "city": "Algonquin", "state_province": "Illinois", "postal_code": "60102-3537", "country": "United States", "longitude": "-88.3039697", "latitude": "42.17091094", "phone": "2242098472", "website_url": "http://scorchedearthbrewing.com", "state": "Illinois", "street": "203 Berg St"}, {"id": "068a0a40-a868-4525-9b1f-c895586877aa", "name": "Scorpion Brewing", "brewery_type": "micro", "address_1": "929 Skinners Turn Rd, Suite 100", "address_2": null, "address_3": null, "city": "Owings", "state_province": "Maryland", "postal_code": "20736", "country": "United States", "longitude": null, "latitude": null, "phone": "7033072400", "website_url": "http://www.scorpionbrewing.com", "state": "Maryland", "street": "929 Skinners Turn Rd, Suite 100"}, {"id": "f15270cc-923b-439a-98de-03634439e101", "name": "Scottish Bloodline Brewing", "brewery_type": "planning", "address_1": null, "address_2": null, "address_3": null, "city": "Lowell", "state_province": "Massachusetts", "postal_code": "01851-4638", "country": "United States", "longitude": null, "latitude": null, "phone": "9784556163", "website_url": "http://Www.scottishbloodlinebrewing.com", "state": "Massachusetts", "street": null}, {"id": "71b905fe-e308-47aa-a165-0c9f2c658b78", "name": "Scottsdale Beer Company", "brewery_type": "brewpub", "address_1": "8608 E Shea Blvd", "address_2": null, "address_3": null, "city": "Scottsdale", "state_province": "Arizona", "postal_code": "85260-6614", "country": "United States", "longitude": "-111.8951852", "latitude": "33.5828595", "phone": "4802191844", "website_url": "http://www.scottsdalebeercompany.com", "state": "Arizona", "street": "8608 E Shea Blvd"}, {"id": "07ef764b-6b3d-458b-b39e-7b352b36dd42", "name": "Scotty's Bierwerks", "brewery_type": "micro", "address_1": "901 E Industrial Cir Unit 1-3", "address_2": null, "address_3": null, "city": "Cape Coral", "state_province": "Florida", "postal_code": "33909-7446", "country": "United States", "longitude": null, "latitude": null, "phone": "2398885482", "website_url": "http://www.facebook.com/scottysbierwerks", "state": "Florida", "street": "901 E Industrial Cir Unit 1-3"}, {"id": "97776b9a-6d25-4cb8-8574-f4a2c3d3ad0d", "name": "Scout Beer", "brewery_type": "micro", "address_1": "1516 SE 10th Ave", "address_2": null, "address_3": null, "city": "Portland", "state_province": "Oregon", "postal_code": "97214-3585", "country": "United States", "longitude": "-122.6555905", "latitude": "45.51201892", "phone": "5032064735", "website_url": "http://www.scoutpdx.com", "state": "Oregon", "street": "1516 SE 10th Ave"}, {"id": "044daf89-a298-426b-8193-0d8e09ede364", "name": "Scrappy Punk Brewing", "brewery_type": "micro", "address_1": "9029A 112th Dr SE", "address_2": null, "address_3": null, "city": "Snohomish", "state_province": "Washington", "postal_code": "98290-", "country": "United States", "longitude": "-122.0801049", "latitude": "47.91365567", "phone": "5038101655", "website_url": "http://www.facebook.com/scrappypunkbrew", "state": "Washington", "street": "9029A 112th Dr SE"}, {"id": "6242defc-11ab-46ad-a435-eddc69d58756", "name": "Scratch Brewing Company", "brewery_type": "brewpub", "address_1": "264 Thompson Rd", "address_2": null, "address_3": null, "city": "Ava", "state_province": "Illinois", "postal_code": "62907-2658", "country": "United States", "longitude": null, "latitude": null, "phone": "6184261415", "website_url": "http://www.scratchbeer.com", "state": "Illinois", "street": "264 Thompson Rd"}, {"id": "cb1ffe91-e2d8-44fc-81e3-1e8a742a7843", "name": "Scratchtown Brewing Company", "brewery_type": "micro", "address_1": "141 S 16th St", "address_2": null, "address_3": null, "city": "Ord", "state_province": "Nebraska", "postal_code": "68862-1415", "country": "United States", "longitude": "-98.92940309", "latitude": "41.60253006", "phone": "3087285050", "website_url": "http://www.scratchtownbrewingcompany.com", "state": "Nebraska", "street": "141 S 16th St"}, {"id": "d5fb9c48-3b06-4de5-8074-cd11808cac23", "name": "Screamin Hill Brewery", "brewery_type": "micro", "address_1": "83 Emleys Hill Rd", "address_2": null, "address_3": null, "city": "Cream Ridge", "state_province": "New Jersey", "postal_code": "08514-1617", "country": "United States", "longitude": null, "latitude": null, "phone": null, "website_url": "http://www.screaminhill.com", "state": "New Jersey", "street": "83 Emleys Hill Rd"}, {"id": "f0feae2a-8472-4d11-bceb-c29b4bbeffa4", "name": "Screech Owl Brewing", "brewery_type": "micro", "address_1": "2323 Ralph Livengood Rd", "address_2": null, "address_3": null, "city": "Bruceton Mills", "state_province": "West Virginia", "postal_code": "26525-5889", "country": "United States", "longitude": "-79.5659678", "latitude": "39.5887952", "phone": "3043794777", "website_url": "http://www.screechowlbrewing.com", "state": "West Virginia", "street": "2323 Ralph Livengood Rd"}, {"id": "30d98f8f-0014-4fd4-9b6e-fcac439bc151", "name": "Scriptown Brewing Company", "brewery_type": "micro", "address_1": "3922 Farnam St Blackstone District", "address_2": null, "address_3": null, "city": "Omaha", "state_province": "Nebraska", "postal_code": "68131-3014", "country": "United States", "longitude": "-95.972931", "latitude": "41.257977", "phone": "4029910506", "website_url": "http://www.scriptownbrewing.com", "state": "Nebraska", "street": "3922 Farnam St Blackstone District"}, {"id": "1ed447e0-fcb5-4026-bc88-2c70814b52f1", "name": "Scuttlebutt Brewing Co", "brewery_type": "micro", "address_1": "3314 Cedar St", "address_2": null, "address_3": null, "city": "Everett", "state_province": "Washington", "postal_code": "98201-4518", "country": "United States", "longitude": "-122.1943218", "latitude": "47.9736304", "phone": "4252579316", "website_url": "http://www.scuttlebuttbrewing.com", "state": "Washington", "street": "3314 Cedar St"}, {"id": "189df38b-d6a6-40c0-917e-5b172be8d859", "name": "Sea Dog Brewing", "brewery_type": "micro", "address_1": "1 Main St", "address_2": null, "address_3": null, "city": "Camden", "state_province": "Maine", "postal_code": "04843-1703", "country": "United States", "longitude": "-69.064576", "latitude": "44.209809", "phone": null, "website_url": "http://www.seadogbrewing.com", "state": "Maine", "street": "1 Main St"}, {"id": "a573715c-9468-4d3f-b90c-4c5754e87531", "name": "Sea Dog Brewing Co", "brewery_type": "brewpub", "address_1": "1976 White Mountain Hwy #9", "address_2": null, "address_3": null, "city": "Conway", "state_province": "New Hampshire", "postal_code": "03860", "country": "United States", "longitude": "-71.1217669", "latitude": "44.0333227", "phone": "6033560590", "website_url": null, "state": "New Hampshire", "street": "1976 White Mountain Hwy #9"}, {"id": "d6accc58-89f9-43fd-bb06-e87a48ed9f2c", "name": "Sea Dog Brewing Co - Bangor", "brewery_type": "brewpub", "address_1": "26 Front St", "address_2": null, "address_3": null, "city": "Bangor", "state_province": "Maine", "postal_code": "04401-6418", "country": "United States", "longitude": "-68.770233", "latitude": "44.7966948", "phone": "2079478009", "website_url": "http://www.seadogbrewing.com", "state": "Maine", "street": "26 Front St"}, {"id": "bf3c0dbf-53cf-40d9-906a-baf2a57bc0a6", "name": "Sea Dog Brewing Co - Clearwater", "brewery_type": "micro", "address_1": "26200 US Highway 19 N", "address_2": null, "address_3": null, "city": "Clearwater", "state_province": "Florida", "postal_code": "33761-3580", "country": "United States", "longitude": null, "latitude": null, "phone": "7274664916", "website_url": "http://www.seadogbrewing.com", "state": "Florida", "street": "26200 US Highway 19 N"}, {"id": "85958926-717c-4fd4-a9b1-b57958058c21", "name": "Sea Dog Brewing Co - S. Portland", "brewery_type": "brewpub", "address_1": "125 Western Ave", "address_2": null, "address_3": null, "city": "S Portland", "state_province": "Maine", "postal_code": "04106-2413", "country": "United States", "longitude": "-70.31903067", "latitude": "43.63519195", "phone": "2078717000", "website_url": "http://www.seadogbrewing.com", "state": "Maine", "street": "125 Western Ave"}, {"id": "f7602a9d-bf7e-4e26-8c22-4aff954ad271", "name": "Sea Drift Ales and Lagers", "brewery_type": "micro", "address_1": "521 Commerce Dr", "address_2": null, "address_3": null, "city": "Largo", "state_province": "Florida", "postal_code": "33770-1834", "country": "United States", "longitude": null, "latitude": null, "phone": "7275847772", "website_url": "http://www.barleymowbrewingco.com", "state": "Florida", "street": "521 Commerce Dr"}, {"id": "dde59fe8-b384-4d8e-aaae-9d839bfad135", "name": "Seabright Brewery", "brewery_type": "brewpub", "address_1": "519 Seabright Ave Ste 107", "address_2": null, "address_3": null, "city": "Santa Cruz", "state_province": "California", "postal_code": "95062-3482", "country": "United States", "longitude": "-122.0083656", "latitude": "36.96771277", "phone": "8314262739", "website_url": "http://www.seabrightbrewery.com", "state": "California", "street": "519 Seabright Ave Ste 107"}, {"id": "dd5d5286-addb-4b10-86fd-4cc994d05850", "name": "Sean Patrick's Pub", "brewery_type": "planning", "address_1": null, "address_2": null, "address_3": null, "city": "San Marcos", "state_province": "Texas", "postal_code": "78666-5590", "country": "United States", "longitude": null, "latitude": null, "phone": null, "website_url": null, "state": "Texas", "street": null}, {"id": "cef54495-bcfb-4672-9335-78da5a59762c", "name": "Seapine Brewing Company", "brewery_type": "micro", "address_1": "2959 Utah Ave S", "address_2": null, "address_3": null, "city": "Seattle", "state_province": "Washington", "postal_code": "98134-1815", "country": "United States", "longitude": "-122.3355003", "latitude": "47.5760786", "phone": "5309028110", "website_url": "http://www.seapinebrewing.com", "state": "Washington", "street": "2959 Utah Ave S"}, {"id": "e42de666-0123-4bb0-a9bd-7fb4617eae11", "name": "Seaquake Brewing", "brewery_type": "brewpub", "address_1": "400 Front St", "address_2": null, "address_3": null, "city": "Crescent City", "state_province": "California", "postal_code": "95531-4369", "country": "United States", "longitude": "-124.200063", "latitude": "41.749045", "phone": "7074654444", "website_url": "http://www.seaquakebrewing.com", "state": "California", "street": "400 Front St"}, {"id": "0b81578c-acb4-4b15-b44d-3ea83bed8115", "name": "Seaside Brewery", "brewery_type": "brewpub", "address_1": "851 Broadway St", "address_2": null, "address_3": null, "city": "Seaside", "state_province": "Oregon", "postal_code": "97138-6823", "country": "United States", "longitude": "-123.9223842", "latitude": "45.99299261", "phone": "5037175451", "website_url": "http://www.seasidebrewery.com", "state": "Oregon", "street": "851 Broadway St"}, {"id": "693d0204-ed8c-4c03-a842-f385ca0c8a2b", "name": "Sebago Brewing Co", "brewery_type": "micro", "address_1": "48 Sanford Dr", "address_2": null, "address_3": null, "city": "Gorham", "state_province": "Maine", "postal_code": "04038-2646", "country": "United States", "longitude": null, "latitude": null, "phone": null, "website_url": null, "state": "Maine", "street": "48 Sanford Dr"}, {"id": "7a5a1362-fd09-4b1d-a98d-766ba4c069bd", "name": "Sebago Brewing Co", "brewery_type": "micro", "address_1": "616 Main St", "address_2": null, "address_3": null, "city": "Gorham", "state_province": "Maine", "postal_code": "04038", "country": "United States", "longitude": "-70.39706723", "latitude": "43.68956533", "phone": "2078562537", "website_url": "http://www.sebagobrewing.com", "state": "Maine", "street": "616 Main St"}, {"id": "1337fe4b-0f7d-411f-9d19-05eba5370567", "name": "Secatogue Brewing Co.", "brewery_type": "micro", "address_1": "375 Union Blvd", "address_2": null, "address_3": null, "city": "West Islip", "state_province": "New York", "postal_code": "11795-3114", "country": "United States", "longitude": "-73.30289019", "latitude": "40.70717835", "phone": "6318714270", "website_url": "http://www.secatoguebrewing.com", "state": "New York", "street": "375 Union Blvd"}, {"id": "0abde004-c1ab-451f-9cb0-f7b3cce45477", "name": "Second Chance Beer Company", "brewery_type": "micro", "address_1": "15378 Ave of Science Ste 222", "address_2": null, "address_3": null, "city": "San Diego", "state_province": "California", "postal_code": "92128-3451", "country": "United States", "longitude": "-117.082033", "latitude": "32.994888", "phone": "8587056250", "website_url": "http://www.secondchancebeer.com", "state": "California", "street": "15378 Ave of Science Ste 222"}, {"id": "4d3e5abf-616d-49eb-87de-4a672d09511a", "name": "Second District Brewing Co.", "brewery_type": "brewpub", "address_1": "1939 S. Bancroft St.", "address_2": null, "address_3": null, "city": "Philadelphia", "state_province": "Pennsylvania", "postal_code": "19145", "country": "United States", "longitude": "-75.17297324", "latitude": "39.92679584", "phone": "2155755900", "website_url": "http://seconddistrictbrewing.com", "state": "Pennsylvania", "street": "1939 S. Bancroft St."}, {"id": "96a8eaad-4862-447e-a4ab-8a2a38bddc12", "name": "Second Line Brewing", "brewery_type": "micro", "address_1": "433 N Bernadotte St", "address_2": null, "address_3": null, "city": "New Orleans", "state_province": "Louisiana", "postal_code": "70119-4311", "country": "United States", "longitude": "-90.1056073", "latitude": "29.9825676", "phone": "5042488979", "website_url": "http://www.secondlinebrewing.com", "state": "Louisiana", "street": "433 N Bernadotte St"}, {"id": "4332bd29-a105-493e-807f-351ad41108b9", "name": "Second Profession Brewing Company", "brewery_type": "brewpub", "address_1": "5846 NE Sandy Blvd", "address_2": null, "address_3": null, "city": "Portland", "state_province": "Oregon", "postal_code": "97213-3436", "country": "United States", "longitude": "-122.498321", "latitude": "45.5499485", "phone": "5032885882", "website_url": "http://www.secondprofessionbrewing.com", "state": "Oregon", "street": "5846 NE Sandy Blvd"}, {"id": "5101fa06-b65a-453d-9d94-d1163065633b", "name": "Second Salem Brewing Company", "brewery_type": "brewpub", "address_1": "111 W Whitewater St", "address_2": null, "address_3": null, "city": "Whitewater", "state_province": "Wisconsin", "postal_code": "53190-1935", "country": "United States", "longitude": "-88.73175257", "latitude": "42.8327499", "phone": "2624732920", "website_url": "http://www.secondsalem.com", "state": "Wisconsin", "street": "111 W Whitewater St"}, {"id": "3441c0c8-b14d-4dea-8c3f-3034e2acc2b6", "name": "Second Self Brewing", "brewery_type": "micro", "address_1": "1311 Logan Cir NW", "address_2": null, "address_3": null, "city": "Atlanta", "state_province": "Georgia", "postal_code": "30318-2858", "country": "United States", "longitude": "-84.43006194", "latitude": "33.8055922", "phone": "6789168035", "website_url": "http://secondselfbeer.com", "state": "Georgia", "street": "1311 Logan Cir NW"}, {"id": "755ca0d8-9aa3-4626-8e94-09000e39a0b9", "name": "Second Son Brews", "brewery_type": "micro", "address_1": "12810 Road 38", "address_2": null, "address_3": null, "city": "Madera", "state_province": "California", "postal_code": "93636-8671", "country": "United States", "longitude": "-119.8580965", "latitude": "36.93416059", "phone": null, "website_url": null, "state": "California", "street": "12810 Road 38"}, {"id": "7607a45f-3839-41bf-9531-0af896826a2b", "name": "Second State Brewing Company", "brewery_type": "micro", "address_1": "203 State St", "address_2": null, "address_3": null, "city": "Cedar Falls", "state_province": "Iowa", "postal_code": "50613-3360", "country": "United States", "longitude": "-92.4442681", "latitude": "42.53674424", "phone": "3192400692", "website_url": null, "state": "Iowa", "street": "203 State St"}, {"id": "332bd2d1-af79-415e-827d-2b6d3d7cd0d4", "name": "Second Street Brewery", "brewery_type": "brewpub", "address_1": "1814 2nd St", "address_2": null, "address_3": null, "city": "Santa Fe", "state_province": "New Mexico", "postal_code": "87505-3848", "country": "United States", "longitude": "-105.9656754", "latitude": "35.66300492", "phone": "5059823030", "website_url": "http://www.secondstreetbrewery.com", "state": "New Mexico", "street": "1814 2nd St"}, {"id": "4b2a927f-b6ac-43ed-8bc5-42db70cc46ce", "name": "Second Street Brewery - Rufina", "brewery_type": "brewpub", "address_1": "2920 Rufina St", "address_2": null, "address_3": null, "city": "Santa Fe", "state_province": "New Mexico", "postal_code": "87507-2999", "country": "United States", "longitude": "-105.9909993", "latitude": "35.65875738", "phone": "5059823030", "website_url": "http://www.secondstreetbreweryrufina.com", "state": "New Mexico", "street": "2920 Rufina St"}, {"id": "881330a0-bd06-4d83-b003-ae429a44b761", "name": "Second Wind Brewing Company", "brewery_type": "micro", "address_1": "7 Howland St", "address_2": null, "address_3": null, "city": "Plymouth", "state_province": "Massachusetts", "postal_code": "02360-3810", "country": "United States", "longitude": "-70.6665478", "latitude": "41.9585551", "phone": "5085915915", "website_url": "http://www.secondwindbrewing.com", "state": "Massachusetts", "street": "7 Howland St"}, {"id": "53e129df-2d65-420c-94b4-0db516c97146", "name": "Secret Trail Brewing Company, LLC", "brewery_type": "micro", "address_1": "132 Meyers St Ste 120", "address_2": null, "address_3": null, "city": "Chico", "state_province": "California", "postal_code": "95928-8002", "country": "United States", "longitude": "-121.817279", "latitude": "39.71460198", "phone": "9167094820", "website_url": "http://www.secrettrailbrewing.com", "state": "California", "street": "132 Meyers St Ste 120"}, {"id": "09173c6a-63d6-435d-893a-d7fb2fff3f2d", "name": "Sedona Beer Company", "brewery_type": "planning", "address_1": null, "address_2": null, "address_3": null, "city": "Sedona", "state_province": "Arizona", "postal_code": "86336-4170", "country": "United States", "longitude": "-111.7929891", "latitude": "34.8657757", "phone": null, "website_url": "http://www.sedonabeerco.com", "state": "Arizona", "street": null}, {"id": "1df1b2b9-a0bd-40b2-8c24-72f365f5e901", "name": "Seedstock Brewery", "brewery_type": "micro", "address_1": "3610 W Colfax Ave", "address_2": null, "address_3": null, "city": "Denver", "state_province": "Colorado", "postal_code": "80204-1513", "country": "United States", "longitude": "-105.0348519", "latitude": "39.74025203", "phone": "7204767831", "website_url": "http://www.seedstockbrewery.com", "state": "Colorado", "street": "3610 W Colfax Ave"}, {"id": "dccc67cc-2dce-407a-b18c-2d73f4aa08a0", "name": "Seguin Brewing Company", "brewery_type": "micro", "address_1": "111 W Gonzales St", "address_2": null, "address_3": null, "city": "Seguin", "state_province": "Texas", "postal_code": "78155-5630", "country": "United States", "longitude": "-97.96528378", "latitude": "29.56957082", "phone": "2107713913", "website_url": "http://www.seguinbrewing.com", "state": "Texas", "street": "111 W Gonzales St"}, {"id": "f2b7097c-f5ee-48fd-ab4b-a554b17a21c0", "name": "Seismic Brewing Co", "brewery_type": "micro", "address_1": "2932 Dutton Ave", "address_2": null, "address_3": null, "city": "Santa Rosa", "state_province": "California", "postal_code": "95407-5711", "country": "United States", "longitude": "-122.7236203", "latitude": "38.4042275", "phone": "7075445996", "website_url": "http://www.seismicbrewingco.com/", "state": "California", "street": "2932 Dutton Ave"}, {"id": "6e69a117-bb47-44d3-b3ac-12b07e5e7e1f", "name": "Selins Grove Brewing Co", "brewery_type": "brewpub", "address_1": "119 N Market St", "address_2": null, "address_3": null, "city": "Selinsgrove", "state_province": "Pennsylvania", "postal_code": "17870-1905", "country": "United States", "longitude": "-76.86152979", "latitude": "40.80056952", "phone": "5703747308", "website_url": "http://www.selinsgrovebrewing.com", "state": "Pennsylvania", "street": "119 N Market St"}, {"id": "8555bc10-4f2e-4da7-b952-9adb87dae316", "name": "Selkirk Abbey Brewing", "brewery_type": "micro", "address_1": "6180 E Seltice Way Ste 102", "address_2": null, "address_3": null, "city": "Post Falls", "state_province": "Idaho", "postal_code": "83854-5052", "country": "United States", "longitude": "-116.8684085", "latitude": "47.70484371", "phone": "2082924901", "website_url": "http://www.selkirkabbey.com", "state": "Idaho", "street": "6180 E Seltice Way Ste 102"}, {"id": "ce82c6cb-f7ab-416a-882f-2ef0b20fb779", "name": "Seminar Brewing", "brewery_type": "brewpub", "address_1": "551 W Lucas St", "address_2": null, "address_3": null, "city": "Florence", "state_province": "South Carolina", "postal_code": "29501-2817", "country": "United States", "longitude": "-79.78837666", "latitude": "34.2209957", "phone": "8436659200", "website_url": "http://seminarbrewing.com", "state": "South Carolina", "street": "551 W Lucas St"}, {"id": "3c06c36d-4955-4728-9eba-a22c6bc5c83f", "name": "Seneca Lake Brewing Company", "brewery_type": "micro", "address_1": "5430 NY-14", "address_2": null, "address_3": null, "city": "Dundee", "state_province": "New York", "postal_code": "14837-8838", "country": "United States", "longitude": null, "latitude": null, "phone": "6072168369", "website_url": "http://www.senecalakebrewing.com", "state": "New York", "street": "5430 NY-14"}, {"id": "10f41208-26ee-4d28-b3b1-978d3e8a2340", "name": "Seneca Lodge Craft Brewing At Seneca Lodge", "brewery_type": "brewpub", "address_1": "3600 Walnut Rd", "address_2": null, "address_3": null, "city": "Watkins Glen", "state_province": "New York", "postal_code": "14891-0272", "country": "United States", "longitude": "-76.873392", "latitude": "42.369461", "phone": "6075352014", "website_url": "http://www.senecalodge.com", "state": "New York", "street": "3600 Walnut Rd"}, {"id": "deec4c7a-9677-436c-ad1e-b54d6a413955", "name": "Seneca Street Brew Pub", "brewery_type": "brewpub", "address_1": "315 E Seneca St Ste 1", "address_2": null, "address_3": null, "city": "Manlius", "state_province": "New York", "postal_code": "13104-1860", "country": "United States", "longitude": null, "latitude": null, "phone": "3156826968", "website_url": "http://www.senecastreetbrewpub.com", "state": "New York", "street": "315 E Seneca St Ste 1"}, {"id": "01360f98-4f2b-4893-bdb7-d44f75e152a6", "name": "Sentinel Peak Brewing Company", "brewery_type": "brewpub", "address_1": "4746 E Grant Rd", "address_2": null, "address_3": null, "city": "Tucson", "state_province": "Arizona", "postal_code": "85712-2703", "country": "United States", "longitude": "-110.8552229", "latitude": "32.2505857", "phone": "5207779456", "website_url": "http://www.sentinelpeakbrewing.com", "state": "Arizona", "street": "4746 E Grant Rd"}, {"id": "ce60ac64-f87c-4687-a362-36245e1fff8e", "name": "Separatist Beer Project", "brewery_type": "proprietor", "address_1": null, "address_2": null, "address_3": null, "city": "Emmaus", "state_province": "Pennsylvania", "postal_code": "18049", "country": "United States", "longitude": null, "latitude": null, "phone": "6103309114", "website_url": "http://www.soleales.com", "state": "Pennsylvania", "street": null}, {"id": "7fe4eeb2-a179-4792-a8ba-e1bb7429a6fc", "name": "Sequoia Brewing Co - Tower District", "brewery_type": "brewpub", "address_1": "777 E Olive Ave", "address_2": null, "address_3": null, "city": "Fresno", "state_province": "California", "postal_code": "93728-3350", "country": "United States", "longitude": "-119.8019622", "latitude": "36.75774408", "phone": "5592645521", "website_url": "http://www.sequoiabrewing.com", "state": "California", "street": "777 E Olive Ave"}, {"id": "ba05f051-e0b9-4d33-94a8-a578652175b7", "name": "Serda Brewing Company", "brewery_type": "micro", "address_1": "600 Government St", "address_2": null, "address_3": null, "city": "Mobile", "state_province": "Alabama", "postal_code": "36602-1720", "country": "United States", "longitude": "-88.04938713", "latitude": "30.6879563", "phone": "2519299349", "website_url": "http://www.serdabrewing.com", "state": "Alabama", "street": "600 Government St"}, {"id": "b5cfc899-2612-496e-9f79-62915618b2c9", "name": "Serious Brewing Co.", "brewery_type": "micro", "address_1": "116 Caverns Rd", "address_2": null, "address_3": null, "city": "Howes Cave", "state_province": "New York", "postal_code": "12092", "country": "United States", "longitude": null, "latitude": null, "phone": "5188264050", "website_url": null, "state": "New York", "street": "116 Caverns Rd"}, {"id": "4514373e-a5e0-4974-900e-f92e50d73ca0", "name": "Service Brewing Company", "brewery_type": "micro", "address_1": "574 Indian St", "address_2": null, "address_3": null, "city": "Savannah", "state_province": "Georgia", "postal_code": "31401-1121", "country": "United States", "longitude": "-81.0982783", "latitude": "32.0839717", "phone": "8452425355", "website_url": "http://www.servicebrewing.com", "state": "Georgia", "street": "574 Indian St"}, {"id": "7964c7f7-9a89-4360-867d-d6e828c67106", "name": "Seven Arrows Brewing Co.", "brewery_type": "micro", "address_1": "2508 Jefferson Hwy Ste 1", "address_2": null, "address_3": null, "city": "Waynesboro", "state_province": "Virginia", "postal_code": "22980-6500", "country": "United States", "longitude": null, "latitude": null, "phone": "5402216968", "website_url": "http://www.sevenarrowsbrewing.com", "state": "Virginia", "street": "2508 Jefferson Hwy Ste 1"}, {"id": "4423eef2-22e4-43f8-945b-37dfe91ae63d", "name": "Seven Brides Brewery", "brewery_type": "closed", "address_1": "990 North First Street", "address_2": null, "address_3": null, "city": "Silverton", "state_province": "Oregon", "postal_code": "97381", "country": "United States", "longitude": "-122.7845824", "latitude": "45.01410457", "phone": "5038744677", "website_url": "http://www.sevenbridesbrewing.com", "state": "Oregon", "street": "990 North First Street"}, {"id": "8a7ac609-cceb-47f1-8221-8ac257e3caa1", "name": "Seven Bridges Grille and Brewery", "brewery_type": "brewpub", "address_1": "9735 Gate Pkwy N", "address_2": null, "address_3": null, "city": "Jacksonville", "state_province": "Florida", "postal_code": "32246-8221", "country": "United States", "longitude": "-81.55312193", "latitude": "30.26129582", "phone": "9049971999", "website_url": "http://www.7bridgesgrille.com", "state": "Florida", "street": "9735 Gate Pkwy N"}, {"id": "625c43c9-7a7d-4434-abb2-fac1028b28ae", "name": "Seven Jars Products", "brewery_type": "micro", "address_1": "6148-B Brookshire Blvd", "address_2": null, "address_3": null, "city": "Charlotte", "state_province": "North Carolina", "postal_code": "28216", "country": "United States", "longitude": null, "latitude": null, "phone": "7049190278", "website_url": "http://sevenjars.com/brewery", "state": "North Carolina", "street": "6148-B Brookshire Blvd"}, {"id": "6a4851e9-4d90-4cdd-a96b-0b794f93e887", "name": "Seven Sirens Brewing Company", "brewery_type": "planning", "address_1": null, "address_2": null, "address_3": null, "city": "Bethlehem", "state_province": "Pennsylvania", "postal_code": "18015", "country": "United States", "longitude": null, "latitude": null, "phone": "4842396544", "website_url": null, "state": "Pennsylvania", "street": null}, {"id": "b1f636c4-b1b6-44dc-9ea5-637da406d097", "name": "Seven Stills", "brewery_type": "micro", "address_1": "100 Hooper St Ste. 4", "address_2": null, "address_3": null, "city": "San Francisco", "state_province": "California", "postal_code": "94107", "country": "United States", "longitude": "-122.3991969", "latitude": "37.76881492", "phone": "4157570178", "website_url": "http://www.sevenstillsofsf.com", "state": "California", "street": "100 Hooper St Ste. 4"}, {"id": "cf69d73b-a98d-456a-b50d-e65e88134e20", "name": "Seven Stills", "brewery_type": "micro", "address_1": "3645 Lawton St", "address_2": null, "address_3": null, "city": "San Francisco", "state_province": "California", "postal_code": "94112", "country": "United States", "longitude": "-122.5022326", "latitude": "37.75694059", "phone": "4153403654", "website_url": "http://www.sevenstillsofsf.com", "state": "California", "street": "3645 Lawton St"}, {"id": "efd1757f-4c9f-4bcc-a4b1-0b8dc5ae0326", "name": "Sevens Brew Pub", "brewery_type": "brewpub", "address_1": "5857 Route 96", "address_2": null, "address_3": null, "city": "Farmington", "state_province": "New York", "postal_code": "14425", "country": "United States", "longitude": null, "latitude": null, "phone": "5959243232", "website_url": "http://www.fingerlakesgaming.com", "state": "New York", "street": "5857 Route 96"}, {"id": "81491cd1-e954-4409-bc3c-b5a7b2dc7c3d", "name": "Seventh Son Brewing Co", "brewery_type": "micro", "address_1": "1101 N 4th St", "address_2": null, "address_3": null, "city": "Columbus", "state_province": "Ohio", "postal_code": "43201-3683", "country": "United States", "longitude": "-83.0019404", "latitude": "39.985351", "phone": "6144212337", "website_url": "http://www.seventhsonbrewing.com", "state": "Ohio", "street": "1101 N 4th St"}, {"id": "524df279-0a14-4e66-958e-f67a1e172731", "name": "Severance Brewing Company", "brewery_type": "micro", "address_1": "701 N Phillips Ave", "address_2": null, "address_3": null, "city": "Sioux Falls", "state_province": "South Dakota", "postal_code": "57104-1623", "country": "United States", "longitude": "-96.72724272", "latitude": "43.5560742", "phone": "6052715480", "website_url": "http://severancebeer.com/", "state": "South Dakota", "street": "701 N Phillips Ave"}, {"id": "b9f88dc8-a3b6-40b5-9875-b16095b2993c", "name": "Sew Hop'd Brewery LLC", "brewery_type": "planning", "address_1": null, "address_2": null, "address_3": null, "city": "Huntley", "state_province": "Illinois", "postal_code": "60142", "country": "United States", "longitude": null, "latitude": null, "phone": "8476694501", "website_url": "http://www.sewhopd.com", "state": "Illinois", "street": null}, {"id": "b54fad5f-9951-461c-b393-e1993698a69b", "name": "Seward Brewing", "brewery_type": "brewpub", "address_1": "139 4th Ave", "address_2": null, "address_3": null, "city": "Seward", "state_province": "Alaska", "postal_code": "99664", "country": "United States", "longitude": "-149.440886", "latitude": "60.101258", "phone": "9074220337", "website_url": "http://www.sewardbrewingcompany.com", "state": "Alaska", "street": "139 4th Ave"}, {"id": "a5252773-86c6-4b69-a224-8c9e07598c75", "name": "SFLBrewery In Planning", "brewery_type": "planning", "address_1": null, "address_2": null, "address_3": null, "city": "Weston", "state_province": "Florida", "postal_code": "33326-4041", "country": "United States", "longitude": null, "latitude": null, "phone": null, "website_url": null, "state": "Florida", "street": null}, {"id": "02585410-3bdb-41d1-96b9-e44ee53be372", "name": "Shade Tree Brewing", "brewery_type": "micro", "address_1": "19305 Indian Summer Rd", "address_2": null, "address_3": null, "city": "Bend", "state_province": "Oregon", "postal_code": "97702", "country": "United States", "longitude": "-121.3588559", "latitude": "43.99269969", "phone": "5413833730", "website_url": "http://www.shadetreebrewing.com", "state": "Oregon", "street": "19305 Indian Summer Rd"}, {"id": "9d2a7779-6e21-4052-8c9a-a7a14fe70af1", "name": "Shade Tree Saloon & Grill", "brewery_type": "brewpub", "address_1": "13530 Hwy 281 N", "address_2": null, "address_3": null, "city": "Spring Branch", "state_province": "Texas", "postal_code": "78070", "country": "United States", "longitude": null, "latitude": null, "phone": "8308855550", "website_url": "http://www.shadetreesaloon.com", "state": "Texas", "street": "13530 Hwy 281 N"}]