[{"id": "a7cbed0a-bbfb-4158-8032-4f44d680d7be", "name": "Dubtown Brewing Company", "brewery_type": "micro", "address_1": "201 Main Ave S", "address_2": null, "address_3": null, "city": "Renton", "state_province": "Washington", "postal_code": "98057-2602", "country": "United States", "longitude": "-122.2044462", "latitude": "47.48147827", "phone": "4252078707", "website_url": "https://dubtownbrewingcompany.com", "state": "Washington", "street": "201 Main Ave S"}, {"id": "c8a34b95-8a72-4f56-8c50-c790c01261ff", "name": "Dubuque Star Brands / Otter Tail Brewery", "brewery_type": "contract", "address_1": "132 Sheridan St", "address_2": null, "address_3": null, "city": "Muscatine", "state_province": "Iowa", "postal_code": "52761-5543", "country": "United States", "longitude": "-91.02937536", "latitude": "41.43346737", "phone": null, "website_url": null, "state": "Iowa", "street": "132 Sheridan St"}, {"id": "420b93d8-d15a-4db9-a072-28e22de5f1a9", "name": "Duck Foot Brewing Co.", "brewery_type": "micro", "address_1": "8920 Kenamar Dr Ste 210", "address_2": null, "address_3": null, "city": "San Diego", "state_province": "California", "postal_code": "92121-2454", "country": "United States", "longitude": "-117.1562181", "latitude": "32.88474835", "phone": "8584337916", "website_url": "http://www.duckfootbeer.com", "state": "California", "street": "8920 Kenamar Dr Ste 210"}, {"id": "a1ecd2e7-3b9c-4ad8-ac87-dfd78d234992", "name": "Duck Rabbit Craft Brewery", "brewery_type": "micro", "address_1": "4519 West Pine St", "address_2": null, "address_3": null, "city": "Farmville", "state_province": "North Carolina", "postal_code": "27828-8526", "country": "United States", "longitude": "-77.591863", "latitude": "35.5980644", "phone": "2527537745", "website_url": "http://duckrabbitbrewery.com", "state": "North Carolina", "street": "4519 West Pine St"}, {"id": "117dfbba-3145-4e39-b43d-5cc9964d2467", "name": "DuClaw Brewing Co", "brewery_type": "regional", "address_1": "8901 Yellow Brick Rd Ste B", "address_2": null, "address_3": null, "city": "Baltimore", "state_province": "Maryland", "postal_code": "21237-2349", "country": "United States", "longitude": null, "latitude": null, "phone": "4435599900", "website_url": "http://www.duclaw.com", "state": "Maryland", "street": "8901 Yellow Brick Rd Ste B"}, {"id": "ece54804-4295-4a37-a620-d98d556d29de", "name": "Dudes' Brewing Co", "brewery_type": "micro", "address_1": "1840 W 208th St", "address_2": null, "address_3": null, "city": "Torrance", "state_province": "California", "postal_code": "90501-1807", "country": "United States", "longitude": "-118.3115036", "latitude": "33.8417185", "phone": "4242712915", "website_url": "http://www.thedudesbrew.com", "state": "California", "street": "1840 W 208th St"}, {"id": "b62722b0-6f7f-4a83-9330-ca1a8942d118", "name": "Due South Brewing Co", "brewery_type": "micro", "address_1": "2900 High Ridge Rd Ste 3", "address_2": null, "address_3": null, "city": "Boynton Beach", "state_province": "Florida", "postal_code": "33426-8708", "country": "United States", "longitude": null, "latitude": null, "phone": "5614632337", "website_url": "http://www.duesouthales.com", "state": "Florida", "street": "2900 High Ridge Rd Ste 3"}, {"id": "dc1dbe18-f446-43d9-8cdf-cb542bc087cf", "name": "Dueces Wild Brewery", "brewery_type": "micro", "address_1": "660 Peterson Rd", "address_2": null, "address_3": null, "city": "Colorado Springs", "state_province": "Colorado", "postal_code": "80915-4002", "country": "United States", "longitude": "-104.7034318", "latitude": "38.8877651", "phone": "6079729260", "website_url": "http://www.dwbbrewery.com", "state": "Colorado", "street": "660 Peterson Rd"}, {"id": "5e0fa2b7-af5d-4aae-889d-8b9a3a1bf10f", "name": "Duel Brewing Company", "brewery_type": "brewpub", "address_1": "1228 Parkway Dr Ste D", "address_2": null, "address_3": null, "city": "Santa Fe", "state_province": "New Mexico", "postal_code": "87507-7319", "country": "United States", "longitude": null, "latitude": null, "phone": "5054745301", "website_url": "http://www.duelbrewing.com", "state": "New Mexico", "street": "1228 Parkway Dr Ste D"}, {"id": "06915497-8cab-4ba0-9f11-2394c6717e08", "name": "Dueling Barrels", "brewery_type": "micro", "address_1": "745 Hambley Blvd", "address_2": null, "address_3": null, "city": "Pikeville", "state_province": "Kentucky", "postal_code": "41501-9078", "country": "United States", "longitude": "-82.518819", "latitude": "37.48176335", "phone": "6067663835", "website_url": "http://www.duelingbarrels.com", "state": "Kentucky", "street": "745 Hambley Blvd"}, {"id": "cf3a71af-2553-4f3f-887b-acbe0d34ea2d", "name": "Dueling Dogs Brewing Company", "brewery_type": "planning", "address_1": null, "address_2": null, "address_3": null, "city": "Lincoln", "state_province": "California", "postal_code": "95648-8503", "country": "United States", "longitude": "-121.29318", "latitude": "38.8915741", "phone": "9164348141", "website_url": "http://www.duelingdogsbrewing.com", "state": "California", "street": null}, {"id": "3587e92a-c342-4eae-8212-6b324f02d903", "name": "Dunagan Irish Pub & Brewery", "brewery_type": "brewpub", "address_1": "3222 56th St", "address_2": null, "address_3": null, "city": "Gig Harbor", "state_province": "Washington", "postal_code": "98335-1359", "country": "United States", "longitude": "-122.4394246", "latitude": "47.25292454", "phone": null, "website_url": "http://www.dunaganbrewing.com", "state": "Washington", "street": "3222 56th St"}, {"id": "b649f4c6-c14a-4ee6-a1cd-85adc75ddc83", "name": "Dunbar Brewing", "brewery_type": "micro", "address_1": "2200 El Camino Real", "address_2": null, "address_3": null, "city": "Santa Margarita", "state_province": "California", "postal_code": "93453-8668", "country": "United States", "longitude": "-120.6112948", "latitude": "35.389717", "phone": "8057049050", "website_url": null, "state": "California", "street": "2200 El Camino Real"}, {"id": "dd078788-4ff2-4a01-a075-8c9c84076380", "name": "Duncan's Abbey", "brewery_type": "micro", "address_1": null, "address_2": null, "address_3": null, "city": "Tarrytown", "state_province": "New York", "postal_code": "10591", "country": "United States", "longitude": null, "latitude": null, "phone": null, "website_url": "http://www.duncansabbey.com", "state": "New York", "street": null}, {"id": "715cad58-79ad-4a69-bf61-b5cf15fdfe67", "name": "Dunedin Brewery & Public House", "brewery_type": "brewpub", "address_1": "937 Douglas Ave", "address_2": null, "address_3": null, "city": "Dunedin", "state_province": "Florida", "postal_code": "34698-4945", "country": "United States", "longitude": "-82.78782561", "latitude": "28.01418231", "phone": "7277360606", "website_url": "http://www.dunedinbrewery.com", "state": "Florida", "street": "937 Douglas Ave"}, {"id": "10e6848c-4cbb-4d37-b56e-7bddea848778", "name": "Dunedin Brewery Production Facility", "brewery_type": "planning", "address_1": null, "address_2": null, "address_3": null, "city": "Dunedin", "state_province": "Florida", "postal_code": "34698-5061", "country": "United States", "longitude": null, "latitude": null, "phone": null, "website_url": null, "state": "Florida", "street": null}, {"id": "bedeb77e-ec21-49a3-9caf-874786adb180", "name": "Dungarvan Brewing", "brewery_type": "micro", "address_1": "Unit 5 No. 2", "address_2": "Westgate Business Park", "address_3": null, "city": "Dungarvan", "state_province": "Waterford", "postal_code": "X35 HY48", "country": "Ireland", "longitude": "-7.6330624", "latitude": "52.0960325", "phone": "3535824000", "website_url": "https://dungarvanbrewingcompany.com/", "state": "Waterford", "street": "Unit 5 No. 2"}, {"id": "8eaa6a32-0504-43d6-a18a-4005355bebf6", "name": "Dungeness Brewing Company", "brewery_type": "micro", "address_1": "4017 S Mount Angeles Rd", "address_2": null, "address_3": null, "city": "Port Angeles", "state_province": "Washington", "postal_code": "98362-8966", "country": "United States", "longitude": "-123.418449", "latitude": "48.087279", "phone": "3607751877", "website_url": "http://www.dungenessbrewing.com", "state": "Washington", "street": "4017 S Mount Angeles Rd"}, {"id": "ebb7e49d-a6ed-48e1-a9cb-4a9343e8034b", "name": "Dungeon Hollow Brewing", "brewery_type": "micro", "address_1": "572 County Rd 22A", "address_2": null, "address_3": null, "city": "Bloomingdale", "state_province": "Ohio", "postal_code": "43910", "country": "United States", "longitude": null, "latitude": null, "phone": "7403371510", "website_url": "http://www.dungeonhollow.com", "state": "Ohio", "street": "572 County Rd 22A"}, {"id": "7d1d7713-0c0a-4ece-814d-7b7920897879", "name": "Dunloe Brewing LLC", "brewery_type": "micro", "address_1": "1606 Olive Dr", "address_2": null, "address_3": null, "city": "Davis", "state_province": "California", "postal_code": "95616-4741", "country": "United States", "longitude": "-121.7311242", "latitude": "38.5447433", "phone": "5302313502", "website_url": "http://Dunloebrewing.com", "state": "California", "street": "1606 Olive Dr"}, {"id": "9b2af98d-4f0a-4c35-87d3-1e574f24ec67", "name": "Dunsmuir Brewery Works", "brewery_type": "brewpub", "address_1": "5701 Dunsmuir Ave", "address_2": null, "address_3": null, "city": "Dunsmuir", "state_province": "California", "postal_code": "96025-2008", "country": "United States", "longitude": "-122.271862", "latitude": "41.211366", "phone": "5302351900", "website_url": "http://www.dunsmuirbreweryworks.com", "state": "California", "street": "5701 Dunsmuir Ave"}, {"id": "2b5d9ce9-b8bd-4ece-98af-9d3eb6f5896f", "name": "Duque Brewpub", "brewery_type": "brewpub", "address_1": "Cal\u00e7ada do Duque n\u00ba49-51", "address_2": null, "address_3": null, "city": "Lisboa", "state_province": "Lisboa", "postal_code": "1200-156", "country": "Portugal", "longitude": "-9.142480929038104", "latitude": "38.713453267381496", "phone": null, "website_url": "https://www.duquebrewpub.com", "state": "Lisboa", "street": "Cal\u00e7ada do Duque n\u00ba49-51"}, {"id": "450263c6-c95c-426c-aee9-c82f5ec11fbb", "name": "Duquesne Brewing of Pittsburgh", "brewery_type": "contract", "address_1": "932 W North Ave", "address_2": null, "address_3": null, "city": "Pittsburgh", "state_province": "Pennsylvania", "postal_code": "15233-1606", "country": "United States", "longitude": "-80.01790691", "latitude": "40.45346755", "phone": "4128312779", "website_url": null, "state": "Pennsylvania", "street": "932 W North Ave"}, {"id": "52761616-efb8-4d3f-beff-7661b8fc7087", "name": "Durango Brewing Co", "brewery_type": "brewpub", "address_1": "3000 Main Ave", "address_2": null, "address_3": null, "city": "Durango", "state_province": "Colorado", "postal_code": "81301-4245", "country": "United States", "longitude": "-107.871981", "latitude": "37.297647", "phone": "9702473396", "website_url": "http://www.durangobrewing.com", "state": "Colorado", "street": "3000 Main Ave"}, {"id": "ae111ea0-b5a2-46f0-9e64-bcc1ecadca27", "name": "Durty Bull Brewing Co.", "brewery_type": "micro", "address_1": "206 Broadway St Ste 104", "address_2": null, "address_3": null, "city": "Durham", "state_province": "North Carolina", "postal_code": "27701-2404", "country": "United States", "longitude": null, "latitude": null, "phone": "9196882337", "website_url": "http://www.durtybull.com", "state": "North Carolina", "street": "206 Broadway St Ste 104"}, {"id": "cbf07548-d3c6-4cb2-92a6-cf16e1375846", "name": "Dust Bowl Brewing Co", "brewery_type": "micro", "address_1": "3000 Fulkerth Rd", "address_2": null, "address_3": null, "city": "Turlock", "state_province": "California", "postal_code": "95380-9403", "country": "United States", "longitude": "-120.8826535", "latitude": "37.50655825", "phone": "2096341934", "website_url": "http://www.dustbowlbrewing.com", "state": "California", "street": "3000 Fulkerth Rd"}, {"id": "33ca4264-c729-4345-b454-8a6d7a04da88", "name": "Dutch's BrewHouse", "brewery_type": "brewpub", "address_1": "4244 Atlantic Ave", "address_2": null, "address_3": null, "city": "Long Beach", "state_province": "California", "postal_code": "90807-2802", "country": "United States", "longitude": "-118.1859647", "latitude": "33.8781951", "phone": "5623361326", "website_url": "http://dutchsbrewhouse.com", "state": "California", "street": "4244 Atlantic Ave"}, {"id": "5d2bad15-ad08-486d-b92a-4c70fc276f7e", "name": "Duvig Brewing Co", "brewery_type": "micro", "address_1": "59 School Ground Rd Ste 10", "address_2": null, "address_3": null, "city": "Branford", "state_province": "Connecticut", "postal_code": "06405-2868", "country": "United States", "longitude": null, "latitude": null, "phone": "2032082213", "website_url": "http://www.duvig.com", "state": "Connecticut", "street": "59 School Ground Rd Ste 10"}, {"id": "c50af63f-c38a-4d1d-a15e-bd676e055505", "name": "Dwinell Country Ales", "brewery_type": "micro", "address_1": "206 W Broadway St", "address_2": null, "address_3": null, "city": "Goldendale", "state_province": "Washington", "postal_code": "98620-9130", "country": "United States", "longitude": "-120.8247773", "latitude": "45.822927", "phone": "5097733138", "website_url": "http://www.countryales.com", "state": "Washington", "street": "206 W Broadway St"}, {"id": "b691e779-d2ff-46dc-9171-46b99a9043e1", "name": "Dyckman Beer Co", "brewery_type": "contract", "address_1": null, "address_2": null, "address_3": null, "city": "Bronx", "state_province": "New York", "postal_code": "10451", "country": "United States", "longitude": null, "latitude": null, "phone": null, "website_url": "http://www.dyckmanbeerco.com", "state": "New York", "street": null}, {"id": "8870078b-8ebf-4c47-9ae5-1db667dc247d", "name": "Dynasty Brewing Company", "brewery_type": "planning", "address_1": null, "address_2": null, "address_3": null, "city": "Ashburn", "state_province": "Virginia", "postal_code": "20147", "country": "United States", "longitude": null, "latitude": null, "phone": "7037279229", "website_url": "http://www.dynastybrewing.com", "state": "Virginia", "street": null}, {"id": "c5e25b7e-f1ba-422f-aa26-44096d022060", "name": "Dystopian State Brewing", "brewery_type": "micro", "address_1": "611 S Baker St", "address_2": null, "address_3": null, "city": "Tacoma", "state_province": "Washington", "postal_code": "98402-2318", "country": "United States", "longitude": "-122.4433066", "latitude": "47.25836061", "phone": "2533023466", "website_url": "http://www.dystopianstate.com", "state": "Washington", "street": "611 S Baker St"}, {"id": "2e01294c-1845-456d-a4a9-176f5efc294e", "name": "E.J. Phair Brewing Co.", "brewery_type": "micro", "address_1": "225 Alamo Plaza", "address_2": null, "address_3": null, "city": "Alamo", "state_province": "California", "postal_code": "94507", "country": "United States", "longitude": "-122.0340499", "latitude": "37.85105324", "phone": "9256804253", "website_url": "http://www.ejphair.com", "state": "California", "street": "225 Alamo Plaza"}, {"id": "bdd40512-5b13-4ac9-9d5a-ca6cfa304d2b", "name": "E.J. Phair Brewing Co.", "brewery_type": "micro", "address_1": "2151 Salvio St Ste L", "address_2": null, "address_3": null, "city": "Concord", "state_province": "California", "postal_code": "94520-2470", "country": "United States", "longitude": "-122.0338182", "latitude": "37.97810431", "phone": "9256804253", "website_url": "http://www.ejphair.com", "state": "California", "street": "2151 Salvio St Ste L"}, {"id": "570346e2-4896-48f6-b233-89b2a06a2906", "name": "E.J. Phair Brewing Co.", "brewery_type": "micro", "address_1": "300 Cumberland St", "address_2": null, "address_3": null, "city": "Pittsburg", "state_province": "California", "postal_code": "94565-2234", "country": "United States", "longitude": "-121.8824742", "latitude": "38.0330804", "phone": "9252529895", "website_url": "http://www.ejphair.com", "state": "California", "street": "300 Cumberland St"}, {"id": "dad5cb3d-3e6d-4099-b9d9-1a89b7b1d714", "name": "E2W Brewing", "brewery_type": "micro", "address_1": "12913 Shady Glen Ave SE", "address_2": null, "address_3": null, "city": "Olalla", "state_province": "Washington", "postal_code": "98359", "country": "United States", "longitude": "-122.594069", "latitude": "47.432463", "phone": "2532147463", "website_url": "https://www.facebook.com/E2WBrewing", "state": "Washington", "street": "12913 Shady Glen Ave SE"}, {"id": "60548726-66cb-4e76-ac56-935de154b4b7", "name": "E9 Brewing Company", "brewery_type": "micro", "address_1": "2506 Fawcett Avenue", "address_2": null, "address_3": null, "city": "Tacoma", "state_province": "Washington", "postal_code": "98402", "country": "United States", "longitude": "-122.44", "latitude": "47.238169", "phone": "2533837707", "website_url": "https://e9brewingco.com/", "state": "Washington", "street": "2506 Fawcett Avenue"}, {"id": "c88ab21e-2a9a-4d12-a50f-9b0c478d26ea", "name": "Eagle Creek Brewing Company", "brewery_type": "micro", "address_1": "106 Savannah Ave Ste B", "address_2": null, "address_3": null, "city": "Statesboro", "state_province": "Georgia", "postal_code": "30458-7162", "country": "United States", "longitude": null, "latitude": null, "phone": "9124892337", "website_url": "http://www.eaglecreekbrewingco.com", "state": "Georgia", "street": "106 Savannah Ave Ste B"}, {"id": "c3bd1af8-2ca2-4a14-b733-8c4d788c4752", "name": "Eagle Park Brewing Company", "brewery_type": "brewpub", "address_1": "823 E Hamilton St", "address_2": null, "address_3": null, "city": "Milwaukee", "state_province": "Wisconsin", "postal_code": "53202", "country": "United States", "longitude": "-87.90143961", "latitude": "43.0542106", "phone": "4145850123", "website_url": "http://www.eagleparkbrewing.com", "state": "Wisconsin", "street": "823 E Hamilton St"}, {"id": "32fba728-f8b1-47e4-8cf4-78ad87bd4640", "name": "Eagle Rock Brewery", "brewery_type": "micro", "address_1": "3056 Roswell St", "address_2": null, "address_3": null, "city": "Los Angeles", "state_province": "California", "postal_code": "90065-2214", "country": "United States", "longitude": "-118.2440377", "latitude": "34.11473143", "phone": "3232577866", "website_url": "http://www.eaglerockbrewery.com", "state": "California", "street": "3056 Roswell St"}, {"id": "1996e0fa-b821-4d44-a6ea-d5fda91c7d47", "name": "EagleMonk Pub and Brewery", "brewery_type": "brewpub", "address_1": "4906 W Mount Hope Hwy", "address_2": null, "address_3": null, "city": "Lansing", "state_province": "Michigan", "postal_code": "48917-9588", "country": "United States", "longitude": "-84.662048", "latitude": "42.712054", "phone": "5177087350", "website_url": null, "state": "Michigan", "street": "4906 W Mount Hope Hwy"}, {"id": "381795a6-ff78-48b4-a49c-b46ed2ed423f", "name": "Earlybird Brewing Company", "brewery_type": "contract", "address_1": "737 Bolivar Rd Ste 4100", "address_2": null, "address_3": null, "city": "Cleveland", "state_province": "Ohio", "postal_code": "44115-1259", "country": "United States", "longitude": null, "latitude": null, "phone": null, "website_url": "http://www.earlybirdbrewing.com", "state": "Ohio", "street": "737 Bolivar Rd Ste 4100"}, {"id": "5b238658-1684-4f51-bc1c-6059ba35c9b9", "name": "Earnest Brew Works", "brewery_type": "micro", "address_1": "4342 S Detroit Ave", "address_2": null, "address_3": null, "city": "Toledo", "state_province": "Ohio", "postal_code": "43614-5367", "country": "United States", "longitude": "-83.61522535", "latitude": "41.590252", "phone": "4193402589", "website_url": "http://www.earnestbrewworks.com", "state": "Ohio", "street": "4342 S Detroit Ave"}, {"id": "e50a6745-e422-4e58-9d76-a906b3b37e10", "name": "Earth And Fire Brewing Company", "brewery_type": "closed", "address_1": "825 Riverside Ave Ste 1", "address_2": null, "address_3": null, "city": "Paso Robles", "state_province": "California", "postal_code": "93446-2660", "country": "United States", "longitude": "-120.6868512", "latitude": "35.62375364", "phone": "8052702959", "website_url": "http://Www.earthandfirebrewing.com", "state": "California", "street": "825 Riverside Ave Ste 1"}, {"id": "18b29afa-682c-4c5e-8ecb-ba0f61cf9f16", "name": "Earth Bread + Brewery", "brewery_type": "brewpub", "address_1": "7136 Germantown Ave", "address_2": null, "address_3": null, "city": "Philadelphia", "state_province": "Pennsylvania", "postal_code": "19119-1843", "country": "United States", "longitude": "-75.1903546", "latitude": "40.0591996", "phone": "2152426666", "website_url": "http://www.earthbreadbrewery.com", "state": "Pennsylvania", "street": "7136 Germantown Ave"}, {"id": "b9304a09-0ecf-488b-a437-e4654edf1148", "name": "Earth Eagle Brewing", "brewery_type": "brewpub", "address_1": "165 High Street", "address_2": null, "address_3": null, "city": "Portsmouth", "state_province": "New Hampshire", "postal_code": "03801", "country": "United States", "longitude": "-70.75957196", "latitude": "43.0792548", "phone": null, "website_url": "http://www.eartheaglebrewings.com", "state": "New Hampshire", "street": "165 High Street"}, {"id": "e5b6ac32-d6df-4bd8-929a-46d2b5828a2d", "name": "Earth Rider Brewing Co", "brewery_type": "micro", "address_1": "1617 N 3rd St", "address_2": null, "address_3": null, "city": "Superior", "state_province": "Wisconsin", "postal_code": "54880-1016", "country": "United States", "longitude": "-92.10117749", "latitude": "46.73528116", "phone": "7153947391", "website_url": "http://www.earthrider.beer", "state": "Wisconsin", "street": "1617 N 3rd St"}, {"id": "c89278ec-ce5b-41a6-9386-e28fa07599ea", "name": "Earthbound Beer", "brewery_type": "brewpub", "address_1": "2724 Cherokee St", "address_2": null, "address_3": null, "city": "Saint Louis", "state_province": "Missouri", "postal_code": "63118-3036", "country": "United States", "longitude": "-90.22866959", "latitude": "38.5935863", "phone": "3147699576", "website_url": "http://www.earthboundbeer.com", "state": "Missouri", "street": "2724 Cherokee St"}, {"id": "21a0d567-e70c-49fa-bb93-a073ed29e93b", "name": "Earthen Ales", "brewery_type": "micro", "address_1": "1371 Gray Dr Ste 200", "address_2": null, "address_3": null, "city": "Traverse City", "state_province": "Michigan", "postal_code": "49684-7805", "country": "United States", "longitude": "-85.6454249", "latitude": "44.755294", "phone": "2312524270", "website_url": "http://www.earthenales.com", "state": "Michigan", "street": "1371 Gray Dr Ste 200"}, {"id": "67ef1ce6-35c8-482d-b054-0b5e6b568e5b", "name": "East Branch Brewing Company", "brewery_type": "brewpub", "address_1": "202 E Lancaster Ave", "address_2": null, "address_3": null, "city": "Downingtown", "state_province": "Pennsylvania", "postal_code": "19335-2957", "country": "United States", "longitude": "-75.70076097", "latitude": "40.0067258", "phone": "6102831989", "website_url": "http://www.eastbranchbrewing.com", "state": "Pennsylvania", "street": "202 E Lancaster Ave"}, {"id": "04425330-f69b-40db-ae1b-176bb1c91d8c", "name": "East Brother Beer Company", "brewery_type": "micro", "address_1": "1001 Canal Blvd # C-2", "address_2": null, "address_3": null, "city": "Richmond", "state_province": "California", "postal_code": "94804-3533", "country": "United States", "longitude": "-122.3754067", "latitude": "37.91772583", "phone": "5102304081", "website_url": "http://www.eastbrotherbeer.com", "state": "California", "street": "1001 Canal Blvd # C-2"}, {"id": "98890002-074d-438f-9d82-ffc4317bc079", "name": "East Channel Brewing Company", "brewery_type": "micro", "address_1": "209 Maple St", "address_2": null, "address_3": null, "city": "Munising", "state_province": "Michigan", "postal_code": "49862-1084", "country": "United States", "longitude": "-86.65452518", "latitude": "46.40934141", "phone": "9063873007", "website_url": "http://www.eastchannelbrewery.com", "state": "Michigan", "street": "209 Maple St"}, {"id": "bb27831d-d4ee-41e0-b11b-7faa561b12ca", "name": "East Cliff Brewing Company", "brewery_type": "micro", "address_1": "21517 E Cliff Dr", "address_2": null, "address_3": null, "city": "Santa Cruz", "state_province": "California", "postal_code": "95062-4844", "country": "United States", "longitude": "-122.0136488", "latitude": "36.9684053", "phone": "8317135540", "website_url": "http://www.eastcliffbrewing.com/", "state": "California", "street": "21517 E Cliff Dr"}, {"id": "086f03da-c555-48a2-ae48-958ad65779e9", "name": "East End Brewing Co", "brewery_type": "micro", "address_1": "147 Julius St", "address_2": null, "address_3": null, "city": "Pittsburgh", "state_province": "Pennsylvania", "postal_code": "15206", "country": "United States", "longitude": "-79.91162696", "latitude": "40.45891137", "phone": "4125372337", "website_url": "http://www.eastendbrewing.com", "state": "Pennsylvania", "street": "147 Julius St"}, {"id": "c5659ccf-a0c9-42a8-9a1e-e5d99b73c9f0", "name": "East Fifth Brewing Company", "brewery_type": "planning", "address_1": null, "address_2": null, "address_3": null, "city": "Manasquan", "state_province": "New Jersey", "postal_code": "08736-1814", "country": "United States", "longitude": null, "latitude": null, "phone": null, "website_url": null, "state": "New Jersey", "street": null}, {"id": "0ec36f0b-bba3-48d9-bd47-716177bcb056", "name": "East Forty Brewing", "brewery_type": "micro", "address_1": "1201 W Main St", "address_2": null, "address_3": null, "city": "Blue Springs", "state_province": "Missouri", "postal_code": "64015-3613", "country": "United States", "longitude": "-94.279316", "latitude": "39.018709", "phone": "8169888217", "website_url": "http://www.eastfortybrewing.com", "state": "Missouri", "street": "1201 W Main St"}, {"id": "3835d485-c8a1-4cc8-a04f-36e870dcbe44", "name": "East Nashville Beer Works", "brewery_type": "brewpub", "address_1": "320 E Trinity Ln", "address_2": null, "address_3": null, "city": "Nashville", "state_province": "Tennessee", "postal_code": "37207-4524", "country": "United States", "longitude": "-86.76320383", "latitude": "36.20526205", "phone": "6158913108", "website_url": "http://www.eastnashbeerworks.com", "state": "Tennessee", "street": "320 E Trinity Ln"}, {"id": "08ecfcf4-428f-4e1d-8dd5-3436d8e7c9b7", "name": "East Rock Brewing Company", "brewery_type": "planning", "address_1": null, "address_2": null, "address_3": null, "city": "New Haven", "state_province": "Connecticut", "postal_code": "06511-2625", "country": "United States", "longitude": null, "latitude": null, "phone": "2035303484", "website_url": "http://www.eastrockbeer.com", "state": "Connecticut", "street": null}, {"id": "315b49b3-1996-4fa8-b249-2e917245fd72", "name": "East Troy Brewery", "brewery_type": "planning", "address_1": null, "address_2": null, "address_3": null, "city": "East Troy", "state_province": "Wisconsin", "postal_code": "53120-1245", "country": "United States", "longitude": null, "latitude": null, "phone": "2624703026", "website_url": "http://www.etbrew.com", "state": "Wisconsin", "street": null}, {"id": "ae17030a-3073-42f2-bdc2-ad4f468b3156", "name": "East West Brewing Co", "brewery_type": "brewpub", "address_1": "1400 Lake Dr SE", "address_2": null, "address_3": null, "city": "Grand Rapids", "state_province": "Michigan", "postal_code": "49506", "country": "United States", "longitude": "-85.634947", "latitude": "42.957318", "phone": "6162885250", "website_url": "http://www.eastwestbrewingcompany.com", "state": "Michigan", "street": "1400 Lake Dr SE"}, {"id": "cb3463ff-5e24-4676-9db3-3d37793593ac", "name": "Eastern Front Brewing Co", "brewery_type": "micro", "address_1": "425 Westphalin Rd", "address_2": null, "address_3": null, "city": "Mattituck", "state_province": "New York", "postal_code": "11952", "country": "United States", "longitude": null, "latitude": null, "phone": "6319051535", "website_url": "http://www.facebook.com/easternfrontbrewing/", "state": "New York", "street": "425 Westphalin Rd"}, {"id": "9ef70c89-a7e9-4759-a71e-4adca64c543a", "name": "Eastern Market Brewing Company", "brewery_type": "micro", "address_1": "2515 Riopelle St", "address_2": null, "address_3": null, "city": "Detroit", "state_province": "Michigan", "postal_code": "48207-4526", "country": "United States", "longitude": "-83.03876229", "latitude": "42.346625", "phone": null, "website_url": "http://www.easternmarket.beer", "state": "Michigan", "street": "2515 Riopelle St"}, {"id": "75378a8b-95fc-4a6a-8c7f-b00e4df75d64", "name": "Eastern Shore Brewing", "brewery_type": "micro", "address_1": "605 S Talbot St", "address_2": null, "address_3": null, "city": "Saint Michaels", "state_province": "Maryland", "postal_code": "21663", "country": "United States", "longitude": "-76.2219945", "latitude": "38.78113562", "phone": "4107458010", "website_url": "http://www.easternshorebrewing.com", "state": "Maryland", "street": "605 S Talbot St"}, {"id": "d5ff39b2-d63d-433b-aa9a-f5259f256d68", "name": "Eastlake Craft Brewery", "brewery_type": "micro", "address_1": "920 E Lake St Ste 123", "address_2": null, "address_3": null, "city": "Minneapolis", "state_province": "Minnesota", "postal_code": "55407-4129", "country": "United States", "longitude": null, "latitude": null, "phone": "6122174668", "website_url": "http://www.eastlakemgm.com", "state": "Minnesota", "street": "920 E Lake St Ste 123"}, {"id": "e3426d39-8838-4ead-aff4-8202f1797894", "name": "Eastwood Brewing Company", "brewery_type": "micro", "address_1": "108 Walter Dr", "address_2": null, "address_3": null, "city": "Syracuse", "state_province": "New York", "postal_code": "13206-2357", "country": "United States", "longitude": "-76.0980832", "latitude": "43.0701121", "phone": null, "website_url": "http://www.facebook.com/eastwoodbrewingcompany", "state": "New York", "street": "108 Walter Dr"}, {"id": "85c8ea1f-2db6-4ea3-9380-dcd26faa40a2", "name": "Eaton Pub & Grille Brewery / Charlotte Brewing Co", "brewery_type": "brewpub", "address_1": "214 S Cochran Ave", "address_2": null, "address_3": null, "city": "Charlotte", "state_province": "Michigan", "postal_code": "48813-1551", "country": "United States", "longitude": "-84.83579", "latitude": "42.549391", "phone": "5175438882", "website_url": "http://www.eatonpub.com", "state": "Michigan", "street": "214 S Cochran Ave"}, {"id": "8c2b0eff-6187-42b0-8b4e-f3a17f54f690", "name": "Eavesdrop Brewery", "brewery_type": "micro", "address_1": "7223 Centreville Rd Ste 115", "address_2": null, "address_3": null, "city": "Manassas", "state_province": "Virginia", "postal_code": "20111", "country": "United States", "longitude": "-77.469", "latitude": "38.752531", "phone": "7034208955", "website_url": "http://www.eavesdropbrewery.com", "state": "Virginia", "street": "7223 Centreville Rd Ste 115"}, {"id": "497485a3-1317-450d-894b-0c079b1668b6", "name": "EB Coffee and Pub", "brewery_type": "brewpub", "address_1": "8980 N Rodgers Ct SE", "address_2": null, "address_3": null, "city": "Caledonia", "state_province": "Michigan", "postal_code": "49316-8051", "country": "United States", "longitude": "-85.50839333", "latitude": "42.80145682", "phone": "6168917700", "website_url": "http://www.ebcoffeepub.com", "state": "Michigan", "street": "8980 N Rodgers Ct SE"}, {"id": "4545534c-40d6-41c5-85a5-b333d1bb1ae8", "name": "Ebullition Brew Works", "brewery_type": "brewpub", "address_1": "2628 Gateway Rd", "address_2": null, "address_3": null, "city": "Carlsbad", "state_province": "California", "postal_code": "92009", "country": "United States", "longitude": "-117.2542497", "latitude": "33.12846769", "phone": "7608421046", "website_url": "http://Www.ebullitionbrew.com", "state": "California", "street": "2628 Gateway Rd"}, {"id": "50af033e-f5bb-4d30-b3d5-60440e28ab50", "name": "Ebullition Brew Works", "brewery_type": "micro", "address_1": "2449 Cades Way Ste D", "address_2": null, "address_3": null, "city": "Vista", "state_province": "California", "postal_code": "92081", "country": "United States", "longitude": "-117.2241021", "latitude": "33.15438658", "phone": "7608421046", "website_url": "http://Www.ebullitionbrew.com", "state": "California", "street": "2449 Cades Way Ste D"}, {"id": "32a9af42-ac83-437c-8739-d2611177bf9e", "name": "Echo Brewing Cask and Barrel", "brewery_type": "brewpub", "address_1": "600 Briggs St", "address_2": null, "address_3": null, "city": "Erie", "state_province": "Colorado", "postal_code": "80516-0794", "country": "United States", "longitude": "-105.0477679", "latitude": "40.05042825", "phone": "7203612332", "website_url": null, "state": "Colorado", "street": "600 Briggs St"}, {"id": "4b5e0dae-9988-43d3-bdbc-4b0b1121f7ad", "name": "Echo Brewing Company", "brewery_type": "brewpub", "address_1": "5969 Iris Pkwy", "address_2": null, "address_3": null, "city": "Frederick", "state_province": "Colorado", "postal_code": "80530", "country": "United States", "longitude": "-104.944202", "latitude": "40.111448", "phone": null, "website_url": null, "state": "Colorado", "street": "5969 Iris Pkwy"}, {"id": "f31f30a7-6d1c-42b0-9428-a6164ded8c06", "name": "Echoes Brewing Company", "brewery_type": "micro", "address_1": "19479 Viking Ave NW", "address_2": null, "address_3": null, "city": "Poulsbo", "state_province": "Washington", "postal_code": "98370", "country": "United States", "longitude": "-122.6597498", "latitude": "47.74030477", "phone": "3609308152", "website_url": "https://www.echoesbrewing.com/", "state": "Washington", "street": "19479 Viking Ave NW"}, {"id": "a6543b42-2ccd-44fb-b6ae-57fde02754e6", "name": "Eckert Malting and Brewing Co", "brewery_type": "micro", "address_1": "2280 Ivy St Ste 130", "address_2": null, "address_3": null, "city": "Chico", "state_province": "California", "postal_code": "95928-8000", "country": "United States", "longitude": "-121.8241602", "latitude": "39.71428839", "phone": "5303422320", "website_url": "http://www.eckertmaltingandbrewing.com", "state": "California", "street": "2280 Ivy St Ste 130"}, {"id": "580722ab-9c8c-47bb-a2df-b6cfc3df6875", "name": "Eclipse Brewing", "brewery_type": "micro", "address_1": "25 E Park Ave", "address_2": null, "address_3": null, "city": "Merchantville", "state_province": "New Jersey", "postal_code": "08109-2607", "country": "United States", "longitude": "-75.04831308", "latitude": "39.95164416", "phone": "6093203979", "website_url": null, "state": "New Jersey", "street": "25 E Park Ave"}, {"id": "08cc0e41-1349-4d06-9fa6-33291a745d60", "name": "Eclipse Craft Brewing", "brewery_type": "planning", "address_1": null, "address_2": null, "address_3": null, "city": "Sunbury", "state_province": "Pennsylvania", "postal_code": "17801-5337", "country": "United States", "longitude": null, "latitude": null, "phone": null, "website_url": "http://curtisbenner@hotmail.com", "state": "Pennsylvania", "street": null}, {"id": "5e07c2a9-63b7-4c82-8167-13f350b811a6", "name": "Ecliptic Brewing", "brewery_type": "micro", "address_1": "825 N Cook St", "address_2": null, "address_3": null, "city": "Portland", "state_province": "Oregon", "postal_code": "97227-1503", "country": "United States", "longitude": "-122.6751185", "latitude": "45.54737005", "phone": "5032658002", "website_url": "http://www.eclipticbrewing.com", "state": "Oregon", "street": "825 N Cook St"}, {"id": "4c106efe-6804-48ef-8420-58a09829c931", "name": "Ecusta Brewing Co", "brewery_type": "micro", "address_1": "49 Pisgah Hwy Ste 3", "address_2": null, "address_3": null, "city": "Pisgah Forest", "state_province": "North Carolina", "postal_code": "28768", "country": "United States", "longitude": null, "latitude": null, "phone": "8289662337", "website_url": "http://www.ecustabrewing.com", "state": "North Carolina", "street": "49 Pisgah Hwy Ste 3"}, {"id": "356dcb41-83fd-41cd-9a0b-a65a770a2652", "name": "Ecusta Brewing Co - Drift Taproom", "brewery_type": "micro", "address_1": "49 Pisgah Hwy", "address_2": null, "address_3": null, "city": "Pisgah Forest", "state_province": "North Carolina", "postal_code": "28768-8817", "country": "United States", "longitude": null, "latitude": null, "phone": "8289662337", "website_url": null, "state": "North Carolina", "street": "49 Pisgah Hwy"}, {"id": "3dfa223c-f2e6-45e2-a2c3-bf9bcc5c53dd", "name": "Eddie McStiffs Brewing Co c/o Eddie Snyder", "brewery_type": "closed", "address_1": "57 S Main St", "address_2": null, "address_3": null, "city": "Moab", "state_province": "Utah", "postal_code": "84532-2502", "country": "United States", "longitude": null, "latitude": null, "phone": "4352592337", "website_url": "http://www.eddiemcstiffs.com", "state": "Utah", "street": "57 S Main St"}, {"id": "706a591a-5afb-4cc6-b005-b96e0bcd95fc", "name": "Eddyline Brewing LLC", "brewery_type": "micro", "address_1": "102 Linderman Ave", "address_2": null, "address_3": null, "city": "Buena Vista", "state_province": "Colorado", "postal_code": "81211-5106", "country": "United States", "longitude": "-106.131606", "latitude": "38.84025", "phone": "7199666018", "website_url": "http://eddylinebrewery.com", "state": "Colorado", "street": "102 Linderman Ave"}, {"id": "84e0a77b-3442-442d-a275-8f8135620905", "name": "Edelbrau Brewing Company", "brewery_type": "planning", "address_1": null, "address_2": null, "address_3": null, "city": "Ann Arbor", "state_province": "Michigan", "postal_code": "48108-3393", "country": "United States", "longitude": null, "latitude": null, "phone": "7347075184", "website_url": "http://www.edelbrau.com", "state": "Michigan", "street": null}, {"id": "6e525c51-c2aa-44b4-adaa-9fb869c1ae23", "name": "Edge Brewing Company", "brewery_type": "brewpub", "address_1": "525 N Steelhead Way", "address_2": null, "address_3": null, "city": "Boise", "state_province": "Idaho", "postal_code": "83704-8374", "country": "United States", "longitude": "-116.2906516", "latitude": "43.6094254", "phone": "2089952979", "website_url": "http://www.edgebrew.com", "state": "Idaho", "street": "525 N Steelhead Way"}, {"id": "c0b2740e-e4e0-41ca-9a4e-c72785a07767", "name": "Edge Brewing Company - Pub on 10th", "brewery_type": "brewpub", "address_1": "205 N 10th St", "address_2": null, "address_3": null, "city": "Boise", "state_province": "Idaho", "postal_code": "83702-5773", "country": "United States", "longitude": "-116.206021", "latitude": "43.623807", "phone": "2089725900", "website_url": "http://www.edgebrew.com", "state": "Idaho", "street": "205 N 10th St"}, {"id": "0898a2bf-6fc4-4156-8d97-08ce6b1ae29a", "name": "Edge Of The World Brewery", "brewery_type": "micro", "address_1": "70 N Central St", "address_2": null, "address_3": null, "city": "Colorado City", "state_province": "Arizona", "postal_code": "86021-1524", "country": "United States", "longitude": "-112.9740725", "latitude": "36.9941047", "phone": "9288758710", "website_url": "http://edgeoftheworld.bar", "state": "Arizona", "street": "70 N Central St"}, {"id": "78d2954b-5437-4a8d-ab39-eda4478644e1", "name": "Edgewater Brewery", "brewery_type": "brewpub", "address_1": "905 Struthers Ave", "address_2": null, "address_3": null, "city": "Grand Junction", "state_province": "Colorado", "postal_code": "81501-3804", "country": "United States", "longitude": "-108.5575144", "latitude": "39.05565588", "phone": "9702433659", "website_url": "http://www.kannahcreekbrewingco.com/edgewater-brewery", "state": "Colorado", "street": "905 Struthers Ave"}, {"id": "32db0465-4efa-4acc-a7b3-aa6678531e24", "name": "Edmund's Oast Brewing Co", "brewery_type": "brewpub", "address_1": "1505 King St Extension", "address_2": null, "address_3": null, "city": "Charleston", "state_province": "South Carolina", "postal_code": "29405", "country": "United States", "longitude": null, "latitude": null, "phone": "8437183224", "website_url": "http://www.edmundsoast.com", "state": "South Carolina", "street": "1505 King St Extension"}, {"id": "1a810992-ac1c-41b5-87ae-6da0f0900733", "name": "Edward Teach Brewing", "brewery_type": "micro", "address_1": "604 N 4th St", "address_2": null, "address_3": null, "city": "Wilmington", "state_province": "North Carolina", "postal_code": "28401", "country": "United States", "longitude": "-77.945422", "latitude": "34.242576", "phone": "9105235401", "website_url": null, "state": "North Carolina", "street": "604 N 4th St"}, {"id": "97826164-b0b6-4012-b8d7-a25d2eb3b252", "name": "Edwinton Brewing Company", "brewery_type": "closed", "address_1": "407 E Main Ave", "address_2": null, "address_3": null, "city": "Bismarck", "state_province": "North Dakota", "postal_code": "58501-4043", "country": "United States", "longitude": "-100.7859036", "latitude": "46.80535377", "phone": "7017127700", "website_url": "http://www.edwinton.com", "state": "North Dakota", "street": "407 E Main Ave"}, {"id": "649c8cd8-0c3c-4016-9944-02fda05f24bd", "name": "Eel River Brewing Co", "brewery_type": "micro", "address_1": "1777 Alamar Way", "address_2": null, "address_3": null, "city": "Fortuna", "state_province": "California", "postal_code": "95540-9548", "country": "United States", "longitude": "-124.1524471", "latitude": "40.57874196", "phone": "7077252739", "website_url": "http://www.eelriverbrewing.com", "state": "California", "street": "1777 Alamar Way"}, {"id": "3988f05a-d439-413e-8247-d274eeb70b44", "name": "Eel River Brewing Co - Facility and Warehouse", "brewery_type": "micro", "address_1": "600 K Bridge St", "address_2": null, "address_3": null, "city": "Scotia", "state_province": "California", "postal_code": "95565", "country": "United States", "longitude": "-124.1017905", "latitude": "40.48674854", "phone": "7077641772", "website_url": null, "state": "California", "street": "600 K Bridge St"}, {"id": "3b7796a9-c125-4743-8c60-f4a847264ed3", "name": "Egan & Sons", "brewery_type": "contract", "address_1": "118 Walnut St", "address_2": null, "address_3": null, "city": "Montclair", "state_province": "New Jersey", "postal_code": "07042-3852", "country": "United States", "longitude": "-74.21181832", "latitude": "40.81768748", "phone": "9737441413", "website_url": "http://www.eganandsons.com", "state": "New Jersey", "street": "118 Walnut St"}, {"id": "3838a411-f540-4b66-93cc-7ff3c9f5e128", "name": "Eight & Sand Beer Co", "brewery_type": "micro", "address_1": "1003 N Evergreen Ave", "address_2": null, "address_3": null, "city": "Woodbury", "state_province": "New Jersey", "postal_code": "08096-", "country": "United States", "longitude": "-75.14222034", "latitude": "39.84934725", "phone": "8565371339", "website_url": "http://www.eightandsandbeer.com", "state": "New Jersey", "street": "1003 N Evergreen Ave"}, {"id": "5c23b248-c3c5-4e39-8cd4-b06b6601bc9b", "name": "Eight Bridges Brewing", "brewery_type": "micro", "address_1": "332 Earhart Way", "address_2": null, "address_3": null, "city": "Livermore", "state_province": "California", "postal_code": "94551-9309", "country": "United States", "longitude": "-121.8145893", "latitude": "37.69895004", "phone": "9259619160", "website_url": "http://www.eightbridgesbrewing.com", "state": "California", "street": "332 Earhart Way"}, {"id": "be2c5ed3-2579-4ba1-8838-e68556b4ab71", "name": "Eight Degrees Brewing", "brewery_type": "micro", "address_1": "Unit 4", "address_2": "Coolnanave Industrial Park", "address_3": "Coolnanave", "city": "Mitchelstown", "state_province": "Cork", "postal_code": "P67 FR62", "country": "Ireland", "longitude": "-8.271831", "latitude": "52.2772804", "phone": "3532584933", "website_url": "https://www.eightdegrees.ie/", "state": "Cork", "street": "Unit 4"}, {"id": "0c4225cc-f91e-4955-a19c-07d6e43b9849", "name": "Eight Rivers Brewery", "brewery_type": "planning", "address_1": null, "address_2": null, "address_3": null, "city": "Hillsboro", "state_province": "West Virginia", "postal_code": "24946-0039", "country": "United States", "longitude": null, "latitude": null, "phone": "2022513083", "website_url": null, "state": "West Virginia", "street": null}, {"id": "46c262c0-2b6f-42d6-84df-1da1a1656095", "name": "Einstok Beer Company", "brewery_type": "contract", "address_1": "12381 Wilshire Blvd Suite 105", "address_2": null, "address_3": null, "city": "Los Angeles", "state_province": "California", "postal_code": "90025", "country": "United States", "longitude": "-118.4704166", "latitude": "34.0423497", "phone": "4242180179", "website_url": "http://einstokbeer.com", "state": "California", "street": "12381 Wilshire Blvd Suite 105"}, {"id": "776a7a9b-c542-4578-9990-4a5dd26f9204", "name": "El Dorado Brewing Co", "brewery_type": "micro", "address_1": "6051 Enterprise Dr", "address_2": null, "address_3": null, "city": "Diamond Springs", "state_province": "California", "postal_code": "95619-9447", "country": "United States", "longitude": "-120.8345161", "latitude": "38.6942363", "phone": "5305584188", "website_url": "http://www.eldobrew.com", "state": "California", "street": "6051 Enterprise Dr"}, {"id": "7a3aa913-807c-4395-9714-2d65d30ad9ee", "name": "El Paso Brewing Company", "brewery_type": "micro", "address_1": "810-B Texas Ave", "address_2": null, "address_3": null, "city": "El Paso", "state_province": "Texas", "postal_code": "79901-", "country": "United States", "longitude": "-106.4818378", "latitude": "31.76216161", "phone": "9152620687", "website_url": "http://www.elpasobrewing.com", "state": "Texas", "street": "810-B Texas Ave"}, {"id": "36389c21-d80a-468a-bd08-a394b0de74e8", "name": "El Rancho Brewing", "brewery_type": "brewpub", "address_1": "29260 US Highway 40", "address_2": null, "address_3": null, "city": "Evergreen", "state_province": "Colorado", "postal_code": "80439-3700", "country": "United States", "longitude": null, "latitude": null, "phone": "3036702739", "website_url": "http://www.elranchobrewing.com", "state": "Colorado", "street": "29260 US Highway 40"}, {"id": "5ff5bda9-bc0b-4794-a280-8e2a361066a2", "name": "El Segundo Brewing Co", "brewery_type": "micro", "address_1": "140 Main St", "address_2": null, "address_3": null, "city": "El Segundo", "state_province": "California", "postal_code": "90245-3801", "country": "United States", "longitude": "-118.4156967", "latitude": "33.91771", "phone": "3105293882", "website_url": "http://www.elsegundobrewing.com", "state": "California", "street": "140 Main St"}, {"id": "d4630be0-3ff3-4aeb-8e01-e920425ac6d8", "name": "El Toro Brewing Company Brewpub", "brewery_type": "brewpub", "address_1": "17605 Monterey Rd", "address_2": null, "address_3": null, "city": "Morgan Hill", "state_province": "California", "postal_code": "95037-3620", "country": "United States", "longitude": "-121.7082244", "latitude": "37.1864644", "phone": null, "website_url": null, "state": "California", "street": "17605 Monterey Rd"}, {"id": "614ec534-b889-4b25-8381-a57cac69c029", "name": "Elation Brewing", "brewery_type": "planning", "address_1": null, "address_2": null, "address_3": null, "city": "Norfolk", "state_province": "Virginia", "postal_code": "23508", "country": "United States", "longitude": null, "latitude": null, "phone": "7574696020", "website_url": null, "state": "Virginia", "street": null}, {"id": "f4fd3cd9-6837-4ed0-b7f7-5f9635caa68e", "name": "Elder Brewing Co.", "brewery_type": "micro", "address_1": "218 E Cass St", "address_2": null, "address_3": null, "city": "Joliet", "state_province": "Illinois", "postal_code": "60432-2813", "country": "United States", "longitude": "-88.076785", "latitude": "41.527834", "phone": null, "website_url": "http://www.elderbrewingco.com", "state": "Illinois", "street": "218 E Cass St"}, {"id": "44d62e5e-209d-4432-8149-715add60e6d4", "name": "Elder Pine Brewing and Blending Co", "brewery_type": "micro", "address_1": "4200 Sundown Rd", "address_2": null, "address_3": null, "city": "Gaithersburg", "state_province": "Maryland", "postal_code": "20882", "country": "United States", "longitude": null, "latitude": null, "phone": null, "website_url": "http://www.elderpine.com", "state": "Maryland", "street": "4200 Sundown Rd"}, {"id": "377038fb-785b-4d4c-bc17-2c8514340e76", "name": "Elder Son Brewing Co.", "brewery_type": "micro", "address_1": "946 N Shepherd Dr Suite A", "address_2": null, "address_3": null, "city": "Houston", "state_province": "Texas", "postal_code": "77008", "country": " United States", "longitude": null, "latitude": null, "phone": "7134855749", "website_url": "https://eldersonbrewing.com/", "state": "Texas", "street": "946 N Shepherd Dr Suite A"}, {"id": "77e1db72-3870-4bd4-ad7d-80ae108c5398", "name": "Elderbrew", "brewery_type": "micro", "address_1": "24 6th St", "address_2": null, "address_3": null, "city": "Bristol", "state_province": "Tennessee", "postal_code": "37620", "country": "United States", "longitude": "-82.18356135", "latitude": "36.594077", "phone": null, "website_url": "http://www.elderbrew.com", "state": "Tennessee", "street": "24 6th St"}, {"id": "e6693673-773f-4925-918d-8eab89a62daa", "name": "Electric Brewing Co", "brewery_type": "micro", "address_1": "41537 Cherry St", "address_2": null, "address_3": null, "city": "Murrieta", "state_province": "California", "postal_code": "92562-9193", "country": "United States", "longitude": "-117.172438", "latitude": "33.5268827", "phone": "9516962266", "website_url": "http://www.electricbrewingcompany.com", "state": "California", "street": "41537 Cherry St"}, {"id": "be78f4a5-2c4a-426b-8aa6-3577b0bde2ad", "name": "Element Brewing Co", "brewery_type": "micro", "address_1": "16 Bridge St", "address_2": null, "address_3": null, "city": "Millers Falls", "state_province": "Massachusetts", "postal_code": "01349-1336", "country": "United States", "longitude": "-72.49516039", "latitude": "42.57950929", "phone": "4138356340", "website_url": "http://www.elementbeer.com", "state": "Massachusetts", "street": "16 Bridge St"}, {"id": "59dee189-7a16-4a13-a913-620994d7b548", "name": "Elevate Your Passion Brewing", "brewery_type": "micro", "address_1": "2209 W 1st St # A107", "address_2": null, "address_3": null, "city": "Tempe", "state_province": "Arizona", "postal_code": "85281-7245", "country": "United States", "longitude": null, "latitude": null, "phone": "8883972337", "website_url": "http://www.elevateyourpassion.com", "state": "Arizona", "street": "2209 W 1st St # A107"}, {"id": "f8d43fea-de33-43f9-a243-2e3d4f6f6928", "name": "Elevation 66 Brewing Co", "brewery_type": "brewpub", "address_1": "10082 San Pablo Ave", "address_2": null, "address_3": null, "city": "El Cerrito", "state_province": "California", "postal_code": "94530-3927", "country": "United States", "longitude": "-122.3030241", "latitude": "37.9020418", "phone": "5308489176", "website_url": "http://www.elevation66.com", "state": "California", "street": "10082 San Pablo Ave"}, {"id": "f13fa652-5f4d-43f1-b48d-493a6c417e7d", "name": "Elevation Beer Company", "brewery_type": "micro", "address_1": "115 Pahlone Pkwy", "address_2": null, "address_3": null, "city": "Poncha Springs", "state_province": "Colorado", "postal_code": "81242", "country": "United States", "longitude": "-106.0659377", "latitude": "38.51804434", "phone": null, "website_url": null, "state": "Colorado", "street": "115 Pahlone Pkwy"}, {"id": "3037658d-3655-4682-a2f2-5b03d3f96090", "name": "Elevator Brewery and Draught Haus", "brewery_type": "brewpub", "address_1": "161 N High St", "address_2": null, "address_3": null, "city": "Columbus", "state_province": "Ohio", "postal_code": "43215-2402", "country": "United States", "longitude": "-83.0017892", "latitude": "39.9656697", "phone": "6142280500", "website_url": "http://www.elevatorbrewing.com", "state": "Ohio", "street": "161 N High St"}, {"id": "1f4af7fe-6b86-4d3c-95f2-c0fec87a67fb", "name": "Elevator Brewing Co - Production facility", "brewery_type": "micro", "address_1": "165 N 4th St", "address_2": null, "address_3": null, "city": "Columbus", "state_province": "Ohio", "postal_code": "43215-2906", "country": "United States", "longitude": "-82.9995686", "latitude": "39.9662282", "phone": "6146792337", "website_url": "http://elevatorbrewery.com", "state": "Ohio", "street": "165 N 4th St"}, {"id": "9f67414c-21a7-4be0-8f7f-9f3c7d1e82e2", "name": "Eleven Lakes Brewing Company", "brewery_type": "micro", "address_1": "10228 Bailey Rd Ste 201", "address_2": null, "address_3": null, "city": "Cornelius", "state_province": "North Carolina", "postal_code": "28031-9420", "country": "United States", "longitude": "-80.86054928", "latitude": "35.45400686", "phone": "7044000927", "website_url": "http://www.elevenlakesbrewing.com", "state": "North Carolina", "street": "10228 Bailey Rd Ste 201"}, {"id": "728c3c0c-df0f-4448-a826-1bd4b2e86e85", "name": "Eleventh Hour Brewing Co", "brewery_type": "micro", "address_1": "3711 Charlotte St", "address_2": null, "address_3": null, "city": "Pittsburgh", "state_province": "Pennsylvania", "postal_code": "15201-3201", "country": "United States", "longitude": "-79.96553317", "latitude": "40.46680403", "phone": "4127165107", "website_url": "http://www.11thhourbrews.com", "state": "Pennsylvania", "street": "3711 Charlotte St"}, {"id": "9366a4a1-222a-43ec-af7f-e8c1e3454b57", "name": "Eli Fish Brewing Company", "brewery_type": "brewpub", "address_1": "109 Main St", "address_2": null, "address_3": null, "city": "Batavia", "state_province": "New York", "postal_code": "14020-2110", "country": "United States", "longitude": "-78.18219898", "latitude": "42.99732747", "phone": "5858150401", "website_url": "http://www.elifishbrewing.com", "state": "New York", "street": "109 Main St"}, {"id": "357b4282-20a8-4fad-9de0-cdbdc3ed9879", "name": "Elk Avenue Brewing Company", "brewery_type": "brewpub", "address_1": "215 Elk Avenue", "address_2": null, "address_3": null, "city": "Crested Butte", "state_province": "Colorado", "postal_code": "81224", "country": "United States", "longitude": "-106.9861689", "latitude": "38.86984685", "phone": "7733307876", "website_url": null, "state": "Colorado", "street": "215 Elk Avenue"}, {"id": "a89d6a63-9639-405f-b783-c6dd4c5fbab0", "name": "Elk Brewing Co", "brewery_type": "brewpub", "address_1": "400 Dodge Rd NE", "address_2": null, "address_3": null, "city": "Comstock Park", "state_province": "Michigan", "postal_code": "49321-8041", "country": "United States", "longitude": null, "latitude": null, "phone": "6162385227", "website_url": null, "state": "Michigan", "street": "400 Dodge Rd NE"}, {"id": "ce34c0ef-c2ae-4f78-a4ee-de33c58c1744", "name": "Elk Brewing Co", "brewery_type": "brewpub", "address_1": "700 Wealthy St SE", "address_2": null, "address_3": null, "city": "Grand Rapids", "state_province": "Michigan", "postal_code": "49503-5539", "country": "United States", "longitude": "-85.6515221", "latitude": "42.9554463", "phone": "6162385227", "website_url": "http://www.elkbrewing.com", "state": "Michigan", "street": "700 Wealthy St SE"}, {"id": "c55c2083-6f77-4a62-8b1e-dd1053d2cdb0", "name": "Elk Creek Cafe + Aleworks", "brewery_type": "brewpub", "address_1": "100 W Main St", "address_2": null, "address_3": null, "city": "Millheim", "state_province": "Pennsylvania", "postal_code": "16854", "country": "United States", "longitude": "-77.47694623", "latitude": "40.8911574", "phone": "8143498850", "website_url": "http://www.elkcreekcafe.net", "state": "Pennsylvania", "street": "100 W Main St"}, {"id": "7d6e56b6-1b6b-497e-b4fc-6e19dbf099bb", "name": "Elk Head Brewing Co", "brewery_type": "micro", "address_1": "28120 State Route 410 E", "address_2": null, "address_3": null, "city": "Buckley", "state_province": "Washington", "postal_code": "98321-8721", "country": "United States", "longitude": "-122.0529573", "latitude": "47.15968788", "phone": "3608292739", "website_url": null, "state": "Washington", "street": "28120 State Route 410 E"}, {"id": "1f6f2780-aea7-4d70-ae11-73f99ff0f760", "name": "Elk Horn Brewery", "brewery_type": "brewpub", "address_1": "686 E Broadway", "address_2": null, "address_3": null, "city": "Eugene", "state_province": "Oregon", "postal_code": "97401-3340", "country": "United States", "longitude": "-123.0824349", "latitude": "44.04979409", "phone": "5415058356", "website_url": "http://www.elkhornbrewery.com", "state": "Oregon", "street": "686 E Broadway"}, {"id": "f3c553fd-04bc-4fd9-82f5-72e4647fcc83", "name": "Elk Ridge Brewing Company", "brewery_type": "micro", "address_1": "320 Main St", "address_2": null, "address_3": null, "city": "Deer Lodge", "state_province": "Montana", "postal_code": "59722-1057", "country": "United States", "longitude": "-112.9535547", "latitude": "46.12805905", "phone": "4068464650", "website_url": "http://www.elkridgebrewingcompany.com", "state": "Montana", "street": "320 Main St"}, {"id": "33420b64-b564-4d19-b134-364a4721e50f", "name": "Elk Street Brewery", "brewery_type": "brewpub", "address_1": "3 S Elk St", "address_2": null, "address_3": null, "city": "Sandusky", "state_province": "Michigan", "postal_code": "48471-1353", "country": "United States", "longitude": "-82.82977088", "latitude": "43.42036406", "phone": "8103008049", "website_url": "http://www.elkstreetbrewery.com", "state": "Michigan", "street": "3 S Elk St"}, {"id": "42536ff0-a7a8-4e41-8706-3411f1590482", "name": "Elk Valley Brewing", "brewery_type": "contract", "address_1": "1210 N Hudson Ave", "address_2": null, "address_3": null, "city": "Oklahoma City", "state_province": "Oklahoma", "postal_code": "73103", "country": "United States", "longitude": "-97.5189497", "latitude": "35.4804596", "phone": "4056006438", "website_url": "http://elkvalleybrew.com", "state": "Oklahoma", "street": "1210 N Hudson Ave"}, {"id": "18af371f-35b2-4398-a1b7-aa8cceeb021f", "name": "Elkhorn Slough Brewing Company", "brewery_type": "micro", "address_1": "65 Hangar Way Unit D", "address_2": null, "address_3": null, "city": "Watsonville", "state_province": "California", "postal_code": "95076-2476", "country": "United States", "longitude": "-121.7903344", "latitude": "36.92762275", "phone": "8312883152", "website_url": "http://www.elkhornsloughbrew.com", "state": "California", "street": "65 Hangar Way Unit D"}, {"id": "68a034ef-a640-4950-be85-deb482c883ce", "name": "Elkins Brewing Company", "brewery_type": "micro", "address_1": "1901 E Santa Fe Ave", "address_2": null, "address_3": null, "city": "Grants", "state_province": "New Mexico", "postal_code": "87020", "country": "United States", "longitude": null, "latitude": null, "phone": "5052878665", "website_url": "http://www.elkinsbrewing.com", "state": "New Mexico", "street": "1901 E Santa Fe Ave"}, {"id": "1b2d5858-07ec-4980-9d92-e64b2f726d04", "name": "Elkmont Exchange Brewery and Eating House", "brewery_type": "brewpub", "address_1": "745 N Broadway St", "address_2": null, "address_3": null, "city": "Knoxville", "state_province": "Tennessee", "postal_code": "37917-7202", "country": "United States", "longitude": null, "latitude": null, "phone": "8653600602", "website_url": "http://elkmontexchange.com", "state": "Tennessee", "street": "745 N Broadway St"}, {"id": "92d0b2ac-85a6-4f1a-a11e-4a05e1bf0767", "name": "Ellersick Brewing / Big E Ales", "brewery_type": "closed", "address_1": "5030 208th St SW Ste A", "address_2": null, "address_3": null, "city": "Lynnwood", "state_province": "Washington", "postal_code": "98036-7642", "country": "United States", "longitude": "-122.301844", "latitude": "47.810408", "phone": "4256727051", "website_url": "http://www.bigeales.com", "state": "Washington", "street": "5030 208th St SW Ste A"}, {"id": "cffb4a0f-1336-4544-b7f4-eb19b7087045", "name": "Ellicott Mills Brewing Co", "brewery_type": "brewpub", "address_1": "8308 Main St", "address_2": null, "address_3": null, "city": "Ellicott City", "state_province": "Maryland", "postal_code": "21043-4601", "country": "United States", "longitude": "-76.79944314", "latitude": "39.2681041", "phone": "4103138141", "website_url": "http://www.ellicottmillsbrewing.com", "state": "Maryland", "street": "8308 Main St"}, {"id": "3263ac26-78d6-47f7-970c-416ecea45ccc", "name": "Ellicottville Brewing Co", "brewery_type": "micro", "address_1": "28 Monroe St", "address_2": null, "address_3": null, "city": "Ellicottville", "state_province": "New York", "postal_code": "14731", "country": "United States", "longitude": "-78.67049701", "latitude": "42.27511725", "phone": "7166992537", "website_url": "http://www.ellicottvillebrewing.com", "state": "New York", "street": "28 Monroe St"}, {"id": "76772c7e-f116-416d-8646-0f824d12dec3", "name": "Elliott Bay Brewery and Pub - West Seattle", "brewery_type": "brewpub", "address_1": "4720 California Ave SW", "address_2": null, "address_3": null, "city": "Seattle", "state_province": "Washington", "postal_code": "98116-4413", "country": "United States", "longitude": "-122.3865765", "latitude": "47.5604072", "phone": "2069328695", "website_url": "http://www.elliottbaybrewing.com", "state": "Washington", "street": "4720 California Ave SW"}, {"id": "9f309558-6675-475c-bfac-bef4aee4858d", "name": "Elliott Bay Brewhouse & Pub - Burien", "brewery_type": "brewpub", "address_1": "255 SW 152nd St", "address_2": null, "address_3": null, "city": "Burien", "state_province": "Washington", "postal_code": "98166-2307", "country": "United States", "longitude": "-122.3373381", "latitude": "47.466775", "phone": "2062464211", "website_url": "http://www.elliottbaybrewing.com", "state": "Washington", "street": "255 SW 152nd St"}, {"id": "7d48f746-567e-43ab-8df2-a6a87db503dd", "name": "Elliott Bay Public House & Brewery - Lake City", "brewery_type": "brewpub", "address_1": "12537 Lake City Way NE", "address_2": null, "address_3": null, "city": "Seattle", "state_province": "Washington", "postal_code": "98125-4424", "country": "United States", "longitude": "-122.2948936", "latitude": "47.7203026", "phone": "2063652337", "website_url": "http://www.elliottbaybrewing.com", "state": "Washington", "street": "12537 Lake City Way NE"}, {"id": "c136997e-054a-4163-a60f-00aaaa91633a", "name": "Ellipsis Brewing", "brewery_type": "micro", "address_1": "7500 Tpc Blvd Ste 8", "address_2": null, "address_3": null, "city": "Orlando", "state_province": "Florida", "postal_code": "32822-5181", "country": "United States", "longitude": null, "latitude": null, "phone": "4072505848", "website_url": null, "state": "Florida", "street": "7500 Tpc Blvd Ste 8"}, {"id": "d7a5c7a9-e7b8-4b71-8b2f-fd9cbd0d0d06", "name": "Ellis Island Casino and Brewery", "brewery_type": "brewpub", "address_1": "4178 Koval Ln", "address_2": null, "address_3": null, "city": "Las Vegas", "state_province": "Nevada", "postal_code": "89109-4568", "country": "United States", "longitude": null, "latitude": null, "phone": null, "website_url": null, "state": "Nevada", "street": "4178 Koval Ln"}, {"id": "818be285-2a92-49d5-8164-6ab9c058d1ec", "name": "Ellison Brewery & Spirits", "brewery_type": "micro", "address_1": "4903 Dawn Ave", "address_2": null, "address_3": null, "city": "East Lansing", "state_province": "Michigan", "postal_code": "48823-5610", "country": "United States", "longitude": null, "latitude": null, "phone": "5172035498", "website_url": "http://www.ellisonbrewing.com", "state": "Michigan", "street": "4903 Dawn Ave"}, {"id": "c6211a84-875e-491b-8ba3-051fd0f6e0ea", "name": "Elm City Brewing Company", "brewery_type": "brewpub", "address_1": "222 West St Ste 46", "address_2": null, "address_3": null, "city": "Keene", "state_province": "New Hampshire", "postal_code": "03431-2459", "country": "United States", "longitude": null, "latitude": null, "phone": "6033553335", "website_url": "http://www.elmcitybrewing.com", "state": "New Hampshire", "street": "222 West St Ste 46"}, {"id": "f9db90cc-435a-4b8e-b390-4800da326bb0", "name": "Elmhurst Brewing Company", "brewery_type": "brewpub", "address_1": "171 N Addison Ave", "address_2": null, "address_3": null, "city": "Elmhurst", "state_province": "Illinois", "postal_code": "60126-2720", "country": "United States", "longitude": "-87.94146327", "latitude": "41.90285936", "phone": "6308342739", "website_url": "http://www.elmhurstbrewing.com", "state": "Illinois", "street": "171 N Addison Ave"}, {"id": "d94af8d2-575b-4a3d-859f-725985d59a36", "name": "Elst Brewing Company", "brewery_type": "planning", "address_1": null, "address_2": null, "address_3": null, "city": "Knoxville", "state_province": "Tennessee", "postal_code": "37921-5188", "country": "United States", "longitude": null, "latitude": null, "phone": "8658099618", "website_url": "http://www.elst.beer", "state": "Tennessee", "street": null}, {"id": "78ab1ee9-b1b7-437a-8175-4cd608de8451", "name": "Eluvium Brewing Co.", "brewery_type": "micro", "address_1": "11 Florida Ave", "address_2": null, "address_3": null, "city": "Weaverville", "state_province": "North Carolina", "postal_code": "28787", "country": "United States", "longitude": "-82.5615737", "latitude": "35.69741414", "phone": "8284841799", "website_url": "http://www.eluviumbrewing.com", "state": "North Carolina", "street": "11 Florida Ave"}, {"id": "06ba0b55-f5b4-490c-a10f-82ce08d8acca", "name": "Elysian Brewing Co", "brewery_type": "large", "address_1": "5510 Airport Way S", "address_2": null, "address_3": null, "city": "Seattle", "state_province": "Washington", "postal_code": "98108-2255", "country": "United States", "longitude": "-122.3205871", "latitude": "47.5533243", "phone": "2068601920", "website_url": "http://www.elysianbrewing.com", "state": "Washington", "street": "5510 Airport Way S"}, {"id": "261afb12-b46b-473e-9782-ec6447440e29", "name": "Elysian Brewing Co", "brewery_type": "large", "address_1": "1221 E Pike St", "address_2": null, "address_3": null, "city": "Seattle", "state_province": "Washington", "postal_code": "98122-3910", "country": "United States", "longitude": "-122.3157647", "latitude": "47.6139598", "phone": "2068601920", "website_url": "http://www.elysianbrewing.com", "state": "Washington", "street": "1221 E Pike St"}, {"id": "17bddc6f-706d-439a-80b7-602e814b529e", "name": "Elysian Brewing Co - Elysian Fields", "brewery_type": "large", "address_1": "542 1st Ave S Ste B", "address_2": null, "address_3": null, "city": "Seattle", "state_province": "Washington", "postal_code": "98104-2882", "country": "United States", "longitude": null, "latitude": null, "phone": "2063824498", "website_url": "http://www.elysianbrewing.com", "state": "Washington", "street": "542 1st Ave S Ste B"}, {"id": "2e09ce9b-c3ef-4bfd-a0ef-f64e283d7369", "name": "Elysian Brewing Co -Tangletown", "brewery_type": "closed", "address_1": "2106 N 55th St", "address_2": null, "address_3": null, "city": "Seattle", "state_province": "Washington", "postal_code": "98103-6202", "country": "United States", "longitude": "-122.333474", "latitude": "47.6687837", "phone": "2065475929", "website_url": null, "state": "Washington", "street": "2106 N 55th St"}, {"id": "f369e864-9712-40dc-8030-ffc76435069b", "name": "Emmett's Brewing Co - Downers Grove", "brewery_type": "brewpub", "address_1": "5200 Main St", "address_2": null, "address_3": null, "city": "Downers Grove", "state_province": "Illinois", "postal_code": "60515-4688", "country": "United States", "longitude": "-88.01051205", "latitude": "41.7925884", "phone": "6304348500", "website_url": "http://www.emmettsbrewingco.com", "state": "Illinois", "street": "5200 Main St"}, {"id": "4987fe4b-7bd7-4d18-857b-3e3c0cb3dafd", "name": "Emmett's Brewing Co - Palatine", "brewery_type": "brewpub", "address_1": "110 N Brockway St", "address_2": null, "address_3": null, "city": "Palatine", "state_province": "Illinois", "postal_code": "60067-5063", "country": "United States", "longitude": "-88.046297", "latitude": "42.11332289", "phone": "8473591533", "website_url": "http://www.emmettsbrewingco.com", "state": "Illinois", "street": "110 N Brockway St"}, {"id": "e1422bf2-0baf-41f8-a91a-50ae379acc8f", "name": "Emmett's Brewing Co - West Dundee", "brewery_type": "brewpub", "address_1": "128 W Main St", "address_2": null, "address_3": null, "city": "West Dundee", "state_province": "Illinois", "postal_code": "60118-2017", "country": "United States", "longitude": "-88.2784177", "latitude": "42.0984146", "phone": "8474284500", "website_url": "http://www.emmettsbrewingco.com", "state": "Illinois", "street": "128 W Main St"}, {"id": "8c207722-6895-4bbb-bb8a-eb0989c476ef", "name": "Emmett's Brewing Co - Wheaton", "brewery_type": "brewpub", "address_1": "121 W Front St", "address_2": null, "address_3": null, "city": "Wheaton", "state_province": "Illinois", "postal_code": "60187-5108", "country": "United States", "longitude": "-88.10705232", "latitude": "41.86494217", "phone": "6303832020", "website_url": "http://www.emmettsbrewingco.com", "state": "Illinois", "street": "121 W Front St"}]