[{"id": "6cfe7bce-ee7d-4fa4-ab54-1584566f9ac2", "name": "Unsung Brewing Company", "brewery_type": "closed", "address_1": "1332 Bell Ave Ste 2D", "address_2": null, "address_3": null, "city": "Tustin", "state_province": "California", "postal_code": "92780-6439", "country": "United States", "longitude": "-117.8385795", "latitude": "33.71474692", "phone": null, "website_url": null, "state": "California", "street": "1332 Bell Ave Ste 2D"}, {"id": "4000ba2a-c486-431c-a9ca-c4b170696aea", "name": "Unsung Brewing Company- Taproom", "brewery_type": "micro", "address_1": "500 S Anaheim Blvd Ste B", "address_2": null, "address_3": null, "city": "Anaheim", "state_province": "California", "postal_code": "92805-4725", "country": "United States", "longitude": "-117.9121478", "latitude": "33.83113335", "phone": null, "website_url": null, "state": "California", "street": "500 S Anaheim Blvd Ste B"}, {"id": "b9abbfd2-4a52-4d64-80ac-e236e2ce40da", "name": "Untapped Territory, LLC", "brewery_type": "contract", "address_1": "326 E Main St Ste 1735", "address_2": null, "address_3": null, "city": "Lincolnton", "state_province": "North Carolina", "postal_code": "28092-3335", "country": "United States", "longitude": null, "latitude": null, "phone": "7042586466", "website_url": null, "state": "North Carolina", "street": "326 E Main St Ste 1735"}, {"id": "0aa072bb-50cc-49b2-bda0-a4d8fd2ce34f", "name": "Untold Brewing", "brewery_type": "micro", "address_1": "6 Old Country Way", "address_2": null, "address_3": null, "city": "Scituate", "state_province": "Massachusetts", "postal_code": "02066-3773", "country": "United States", "longitude": "-70.74750286", "latitude": "42.18080776", "phone": "7813780559", "website_url": "http://www.untoldbrewing.com", "state": "Massachusetts", "street": "6 Old Country Way"}, {"id": "4064247b-325f-4f0a-8269-d7c061bf1c53", "name": "UpCountry Brewing", "brewery_type": "brewpub", "address_1": "1042 Haywood Rd", "address_2": null, "address_3": null, "city": "Asheville", "state_province": "North Carolina", "postal_code": "28806-2639", "country": "United States", "longitude": null, "latitude": null, "phone": "8285752400", "website_url": "http://upcountrybrewing.com/", "state": "North Carolina", "street": "1042 Haywood Rd"}, {"id": "fb26164e-82c1-4bf7-80a7-a60da692482e", "name": "Upland Brewing Co", "brewery_type": "micro", "address_1": "4060 W Profile Pkwy", "address_2": null, "address_3": null, "city": "Bloomington", "state_province": "Indiana", "postal_code": "47404-2554", "country": "United States", "longitude": null, "latitude": null, "phone": "8123362337", "website_url": null, "state": "Indiana", "street": "4060 W Profile Pkwy"}, {"id": "9a6ed651-787f-47de-9f0a-1a4fc3fb5d15", "name": "Upland Brewing Co - Bloomington Brewpub", "brewery_type": "regional", "address_1": "350 W 11th St", "address_2": null, "address_3": null, "city": "Bloomington", "state_province": "Indiana", "postal_code": "47404-3720", "country": "United States", "longitude": "-86.53747927", "latitude": "39.173423", "phone": "8123362337", "website_url": "http://www.uplandbeer.com", "state": "Indiana", "street": "350 W 11th St"}, {"id": "fe976b5b-744d-4ba8-b9b8-af2c2e249b8b", "name": "Upper Hand Brewery", "brewery_type": "micro", "address_1": "3525 Airport Rd", "address_2": null, "address_3": null, "city": "Escanaba", "state_province": "Michigan", "postal_code": "49829-1096", "country": "United States", "longitude": "-87.097528", "latitude": "45.7164279", "phone": "2693822338", "website_url": "http://www.upperhandbrewery.com", "state": "Michigan", "street": "3525 Airport Rd"}, {"id": "3c6dd3b5-0f9e-44f0-b21c-e664a66538e3", "name": "Upright Brewing Co", "brewery_type": "micro", "address_1": "240 N Broadway Ste 2", "address_2": null, "address_3": null, "city": "Portland", "state_province": "Oregon", "postal_code": "97227-1880", "country": "United States", "longitude": "-122.6703323", "latitude": "45.5346842", "phone": null, "website_url": "http://www.uprightbrewing.com", "state": "Oregon", "street": "240 N Broadway Ste 2"}, {"id": "8c96cee4-a3ef-411a-aacf-962370865f80", "name": "Uproar Brewing", "brewery_type": "brewpub", "address_1": "439 S 1st St", "address_2": null, "address_3": null, "city": "San Jose", "state_province": "California", "postal_code": "95113-2816", "country": "United States", "longitude": "-121.8856373", "latitude": "37.32939189", "phone": "4086732266", "website_url": "http://www.uproarbrewing.com", "state": "California", "street": "439 S 1st St"}, {"id": "4e18f3a1-a457-412a-a724-e48c5cf72dc2", "name": "Upside Brewing", "brewery_type": "brewpub", "address_1": "5692 N Main St", "address_2": null, "address_3": null, "city": "Sylvania", "state_province": "Ohio", "postal_code": "43560-1928", "country": "United States", "longitude": null, "latitude": null, "phone": "4198826061", "website_url": "http://www.facebook.com/UpsideBrewing", "state": "Ohio", "street": "5692 N Main St"}, {"id": "d6349994-f0fb-4b87-a49d-b1647f711e26", "name": "Upslope Brewing Company", "brewery_type": "planning", "address_1": null, "address_2": null, "address_3": null, "city": "Boulder", "state_province": "Colorado", "postal_code": "80301", "country": "United States", "longitude": null, "latitude": null, "phone": "3033961898", "website_url": null, "state": "Colorado", "street": null}, {"id": "05b3f6bc-e7cf-40bb-8bdb-1dfc1a619c5f", "name": "Upslope Brewing Company - Flatiron Park", "brewery_type": "micro", "address_1": "1898 S Flatiron Ct Ste 110", "address_2": null, "address_3": null, "city": "Boulder", "state_province": "Colorado", "postal_code": "80301-2860", "country": "United States", "longitude": "-105.2183136", "latitude": "40.0203098", "phone": null, "website_url": "http://www.upslopebrewing.com", "state": "Colorado", "street": "1898 S Flatiron Ct Ste 110"}, {"id": "ece6204a-29eb-47e1-868d-55c2a78bc06c", "name": "Upslope Brewing Company - Lee Hill", "brewery_type": "regional", "address_1": "1501 Lee Hill Rd Unit 20", "address_2": null, "address_3": null, "city": "Boulder", "state_province": "Colorado", "postal_code": "80304-5602", "country": "United States", "longitude": null, "latitude": null, "phone": "3033961898", "website_url": "http://www.upslopebrewing.com", "state": "Colorado", "street": "1501 Lee Hill Rd Unit 20"}, {"id": "4a555dfb-ea6b-4ee5-bc6a-fae6b0dd8395", "name": "Upstate Brewing Co", "brewery_type": "micro", "address_1": "3028 Lake Rd", "address_2": null, "address_3": null, "city": "Elmira", "state_province": "New York", "postal_code": "14903-1409", "country": "United States", "longitude": null, "latitude": null, "phone": "6175198381", "website_url": "http://www.upstatebrewing.com", "state": "New York", "street": "3028 Lake Rd"}, {"id": "aafdae25-0224-4d28-a276-9031cc550066", "name": "Upstate Craft Beer Company", "brewery_type": "brewpub", "address_1": "400 Augusta St Ste 120", "address_2": null, "address_3": null, "city": "Greenville", "state_province": "South Carolina", "postal_code": "29601-3552", "country": "United States", "longitude": null, "latitude": null, "phone": "8646094590", "website_url": "http://www.upstatecraftbeer.com", "state": "South Carolina", "street": "400 Augusta St Ste 120"}, {"id": "076ee5fa-1801-4360-9727-3a3620c1013d", "name": "Upstream Brewing Co (#1)", "brewery_type": "brewpub", "address_1": "514 S 11th St", "address_2": null, "address_3": null, "city": "Omaha", "state_province": "Nebraska", "postal_code": "68102-2808", "country": "United States", "longitude": "-95.9308408", "latitude": "41.2547107", "phone": "4023440200", "website_url": "http://www.upstreambrewing.com", "state": "Nebraska", "street": "514 S 11th St"}, {"id": "422294e8-cbf4-4e06-8983-603bf57b5a55", "name": "Uptown Brewing Co", "brewery_type": "micro", "address_1": "418 Evans St", "address_2": null, "address_3": null, "city": "Greenville", "state_province": "North Carolina", "postal_code": "27858-1834", "country": "United States", "longitude": null, "latitude": null, "phone": "2526712633", "website_url": "http://www.uptownbrewingcompany.com", "state": "North Carolina", "street": "418 Evans St"}, {"id": "b754ef5f-2b82-4523-b2e8-42df9d6a9b63", "name": "Uptown Market Brewing", "brewery_type": "micro", "address_1": "6620 SW Scholls Ferry Rd", "address_2": null, "address_3": null, "city": "Portland", "state_province": "Oregon", "postal_code": "97223-7166", "country": "United States", "longitude": "-122.7423002", "latitude": "45.4958797", "phone": "5033364783", "website_url": "http://www.uptownmarketpdx.com", "state": "Oregon", "street": "6620 SW Scholls Ferry Rd"}, {"id": "e10497e6-85a6-4ed8-a643-80696a566375", "name": "Upward Brewing Co.", "brewery_type": "planning", "address_1": null, "address_2": null, "address_3": null, "city": "Livingston Manor", "state_province": "New York", "postal_code": "12758-", "country": "United States", "longitude": null, "latitude": null, "phone": "8457980471", "website_url": "http://www.upwardbrewing.com", "state": "New York", "street": null}, {"id": "7b2fe435-2c61-4045-a631-c87c309ca8c2", "name": "Uranus Brewery", "brewery_type": "planning", "address_1": null, "address_2": null, "address_3": null, "city": "Saint Robert", "state_province": "Missouri", "postal_code": "65584", "country": "United States", "longitude": null, "latitude": null, "phone": "5735282924", "website_url": "http://www.UranusMissouri.com", "state": "Missouri", "street": null}, {"id": "c5f18c89-13af-4176-8e2d-9c58ffa7c4b2", "name": "Urban Artifact", "brewery_type": "micro", "address_1": "1660 Blue Rock St", "address_2": null, "address_3": null, "city": "Cincinnati", "state_province": "Ohio", "postal_code": "45223-2554", "country": "United States", "longitude": "-84.54196282", "latitude": "39.1607827", "phone": null, "website_url": "http://www.artifactbeer.com", "state": "Ohio", "street": "1660 Blue Rock St"}, {"id": "f336bf99-b21e-41ae-8c4a-717e66d35b93", "name": "Urban Chestnut Brewing Co", "brewery_type": "regional", "address_1": "4465 Manchester Ave", "address_2": null, "address_3": null, "city": "Saint Louis", "state_province": "Missouri", "postal_code": "63110-2113", "country": "United States", "longitude": "-90.261143", "latitude": "38.626662", "phone": "3142220143", "website_url": "http://www.urbanchestnut.com", "state": "Missouri", "street": "4465 Manchester Ave"}, {"id": "779fbf58-ba7b-4f78-858c-db3a19aa6a04", "name": "Urban Comfort Restaurant and Brewery", "brewery_type": "brewpub", "address_1": "2601 Central Ave", "address_2": null, "address_3": null, "city": "Saint Petersburg", "state_province": "Florida", "postal_code": "33713-8722", "country": "United States", "longitude": "-82.668678", "latitude": "27.771098", "phone": "7272018157", "website_url": "http://www.urbancomfortstpete.com", "state": "Florida", "street": "2601 Central Ave"}, {"id": "41359b46-ffc7-49db-ac25-7da9551462c0", "name": "Urban Family Brewing", "brewery_type": "micro", "address_1": "4441 26th Ave W", "address_2": null, "address_3": null, "city": "Seattle", "state_province": "Washington", "postal_code": "98199-1218", "country": "United States", "longitude": "-122.3902975", "latitude": "47.6605861", "phone": "2069468533", "website_url": "http://www.urbanfamilybrewing.com", "state": "Washington", "street": "4441 26th Ave W"}, {"id": "4b3ddf69-f7b2-4292-8966-2fca894c87b1", "name": "Urban Growler Brewing Co", "brewery_type": "brewpub", "address_1": "2325 Endicott St", "address_2": null, "address_3": null, "city": "Saint Paul", "state_province": "Minnesota", "postal_code": "55114-1223", "country": "United States", "longitude": "-93.19284766", "latitude": "44.9701392", "phone": "6513405793", "website_url": "http://www.urbangrowlerbrewing.com", "state": "Minnesota", "street": "2325 Endicott St"}, {"id": "28b9934a-0dcf-40eb-9a9c-815e9f3eb62b", "name": "Urban Harvest Brewing Company", "brewery_type": "micro", "address_1": "1024 S 5th St", "address_2": null, "address_3": null, "city": "Milwaukee", "state_province": "Wisconsin", "postal_code": "53204-1733", "country": "United States", "longitude": "-87.91672749", "latitude": "43.02080941", "phone": "4142494074", "website_url": "http://www.urbanharvestbrewing.com", "state": "Wisconsin", "street": "1024 S 5th St"}, {"id": "9000f7f7-dc89-442b-9e22-9a9cbf9ddd0d", "name": "Urban Lodge Brewery", "brewery_type": "brewpub", "address_1": "415 N Benton Dr", "address_2": null, "address_3": null, "city": "Sauk Rapids", "state_province": "Minnesota", "postal_code": "56379-1534", "country": "United States", "longitude": "-94.1628025", "latitude": "45.58571953", "phone": "3202815454", "website_url": "http://urbanlodgebrewery.com", "state": "Minnesota", "street": "415 N Benton Dr"}, {"id": "716c0a61-1880-4229-a2bf-41f061eb6d69", "name": "Urban Renewal Brewery", "brewery_type": "planning", "address_1": null, "address_2": null, "address_3": null, "city": "Chicago", "state_province": "Illinois", "postal_code": "60640", "country": "United States", "longitude": null, "latitude": null, "phone": "7744874619", "website_url": "http://www.urbanrenewbrew.com", "state": "Illinois", "street": null}, {"id": "bb7f7dc2-64dc-4d59-a13a-8162440a3f5a", "name": "Urban Research Brewery", "brewery_type": "brewpub", "address_1": "4501 Manchester Ave", "address_2": null, "address_3": null, "city": "Saint Louis", "state_province": "Missouri", "postal_code": "63110-2113", "country": "United States", "longitude": "-90.274034", "latitude": "38.627933", "phone": "3144740935", "website_url": "http://www.urbpizzaandbeer.com", "state": "Missouri", "street": "4501 Manchester Ave"}, {"id": "8a5276f4-1004-462f-8d1e-3adf53125343", "name": "Urban Roots Brewing", "brewery_type": "brewpub", "address_1": "1322 V St", "address_2": null, "address_3": null, "city": "Sacramento", "state_province": "California", "postal_code": "95818-1418", "country": "United States", "longitude": "-121.4945908", "latitude": "38.56579627", "phone": "9167063741", "website_url": "http://www.urbanrootsbrewing.com", "state": "California", "street": "1322 V St"}, {"id": "bfbcc407-1328-4791-bf71-7cc77e2a5feb", "name": "Urban South Brewery", "brewery_type": "micro", "address_1": "1645 Tchoupitoulas St", "address_2": null, "address_3": null, "city": "New Orleans", "state_province": "Louisiana", "postal_code": "70130-1852", "country": "United States", "longitude": "-90.0666607", "latitude": "29.9296799", "phone": null, "website_url": "http://www.urbansouthbrewery.com", "state": "Louisiana", "street": "1645 Tchoupitoulas St"}, {"id": "7eb42505-4dd3-452f-847b-2bf8f2155a79", "name": "Urban Village Brewing Company", "brewery_type": "brewpub", "address_1": "1001 N 2nd St", "address_2": null, "address_3": null, "city": "Philadelphia", "state_province": "Pennsylvania", "postal_code": "19123-1612", "country": "United States", "longitude": "-75.1400237", "latitude": "39.9662701", "phone": "2676871961", "website_url": "http://www.urbanvillagebrewing.com", "state": "Pennsylvania", "street": "1001 N 2nd St"}, {"id": "eae54355-ebca-400e-a9d9-7ce4ce866341", "name": "Urbanrest Brewing Company", "brewery_type": "micro", "address_1": "2615 Wolcott St", "address_2": null, "address_3": null, "city": "Ferndale", "state_province": "Michigan", "postal_code": "48220-1422", "country": "United States", "longitude": "-83.1274188", "latitude": "42.4679929", "phone": null, "website_url": "http://www.urbanrest.com", "state": "Michigan", "street": "2615 Wolcott St"}, {"id": "e16cb5ff-1d95-4cae-9719-ff9951b746a3", "name": "Urge Gastropub & Common House/Mason Ale Works", "brewery_type": "brewpub", "address_1": "255 Redel Rd", "address_2": null, "address_3": null, "city": "San Marcos", "state_province": "California", "postal_code": "92078-4347", "country": "United States", "longitude": "-117.158627", "latitude": "33.135679", "phone": null, "website_url": null, "state": "California", "street": "255 Redel Rd"}, {"id": "9b0f39aa-f7db-4378-a80c-7cfc88541776", "name": "Ursa Minor Brewing", "brewery_type": "planning", "address_1": null, "address_2": null, "address_3": null, "city": "Duluth", "state_province": "Minnesota", "postal_code": "55806", "country": "United States", "longitude": null, "latitude": null, "phone": "2182690537", "website_url": "http://www.ursaminorbrewing.com", "state": "Minnesota", "street": null}, {"id": "3ce0ed18-9044-4ffa-9b18-366d0cbc657e", "name": "Ursula Brewery", "brewery_type": "micro", "address_1": "2101 N Ursula St Unit 10", "address_2": null, "address_3": null, "city": "Aurora", "state_province": "Colorado", "postal_code": "80045-7448", "country": "United States", "longitude": null, "latitude": null, "phone": "7203248529", "website_url": "http://www.ursulabrewery.com", "state": "Colorado", "street": "2101 N Ursula St Unit 10"}, {"id": "f478a38b-fc50-485e-94ed-043655e2a716", "name": "US Beer Brewers At the Cellar Door", "brewery_type": "brewpub", "address_1": "17 W Cayuga St", "address_2": null, "address_3": null, "city": "Oswego", "state_province": "New York", "postal_code": "13126-4000", "country": "United States", "longitude": "-76.51260925", "latitude": "43.45769813", "phone": "3152072381", "website_url": "http://www.usbeerbrewers.beer", "state": "New York", "street": "17 W Cayuga St"}, {"id": "968d9c63-9c9b-4456-bb34-4c5b0eb255c0", "name": "Utah Brewers Cooperative", "brewery_type": "regional", "address_1": "1735 S 300 W", "address_2": null, "address_3": null, "city": "Salt Lake City", "state_province": "Utah", "postal_code": "84115-1802", "country": "United States", "longitude": "-111.8993199", "latitude": "40.73267145", "phone": "8014668855", "website_url": "http://www.wasatchbeers.com", "state": "Utah", "street": "1735 S 300 W"}, {"id": "41ade603-cf7a-4991-8ae9-bd87d8d9f56d", "name": "Ute Pass Brewing Co", "brewery_type": "brewpub", "address_1": "209 E Midland Ave", "address_2": null, "address_3": null, "city": "Woodland Park", "state_province": "Colorado", "postal_code": "80863-3101", "country": "United States", "longitude": "-105.0513357", "latitude": "38.9944899", "phone": "7196868722", "website_url": "http://www.utepassbrewingcompany.com", "state": "Colorado", "street": "209 E Midland Ave"}, {"id": "9ba3356c-8888-410b-ac2e-1f0550aeb43f", "name": "Utepils Brewing Co", "brewery_type": "micro", "address_1": "225 Thomas Ave N Apt 700", "address_2": null, "address_3": null, "city": "Minneapolis", "state_province": "Minnesota", "postal_code": "55405-3397", "country": "United States", "longitude": null, "latitude": null, "phone": "6122497800", "website_url": "http://www.utepilsbrewing.com", "state": "Minnesota", "street": "225 Thomas Ave N Apt 700"}, {"id": "cfd51d05-11a3-487f-af99-ce3ce3f4ee2f", "name": "Utility Brewing Company", "brewery_type": "brewpub", "address_1": "206 N. Vienna Street", "address_2": null, "address_3": null, "city": "Ruston", "state_province": "Louisiana", "postal_code": "71270", "country": "United States", "longitude": "-92.63790404", "latitude": "32.52986335", "phone": null, "website_url": "http://www.utilitybrewing.com", "state": "Louisiana", "street": "206 N. Vienna Street"}, {"id": "73fdbccc-dbf8-4b7d-bf03-49c0e4a4e28a", "name": "UTOG Brewing Company", "brewery_type": "brewpub", "address_1": "2331 Grant Ave", "address_2": null, "address_3": null, "city": "Ogden", "state_province": "Utah", "postal_code": "84401-1407", "country": "United States", "longitude": "-111.973557", "latitude": "41.224087", "phone": "8016893476", "website_url": "http://www.utogbrewing.com", "state": "Utah", "street": "2331 Grant Ave"}, {"id": "16af6b57-7519-47f6-a119-2e045a870fdd", "name": "Uturn BBQ", "brewery_type": "brewpub", "address_1": "599 Crossing Dr", "address_2": null, "address_3": null, "city": "Lafayette", "state_province": "Colorado", "postal_code": "80026-1797", "country": "United States", "longitude": "-105.1016163", "latitude": "40.0035307", "phone": "3039936033", "website_url": "http://www.uturnbbq.com", "state": "Colorado", "street": "599 Crossing Dr"}, {"id": "c9130fd3-a4f7-42f1-bc3f-fcfb74a945d1", "name": "V Twin Brewing Company", "brewery_type": "micro", "address_1": "2302 N Argonne Rd Ste H", "address_2": null, "address_3": null, "city": "Spokane", "state_province": "Washington", "postal_code": "99212-2366", "country": "United States", "longitude": null, "latitude": null, "phone": "5098680182", "website_url": "http://www.facebook.com/vtwinbrewingco", "state": "Washington", "street": "2302 N Argonne Rd Ste H"}, {"id": "4a20bd57-f979-4ad8-82a4-4da5b02f8147", "name": "V's Restaurant and Brewpub", "brewery_type": "brewpub", "address_1": "3461 Main St", "address_2": null, "address_3": null, "city": "Keokuk", "state_province": "Iowa", "postal_code": "52632-2227", "country": "United States", "longitude": "-91.40894211", "latitude": "40.42055614", "phone": "3193138384", "website_url": null, "state": "Iowa", "street": "3461 Main St"}, {"id": "bcc9f869-4952-4137-a502-5ac716b0a360", "name": "Vadia", "brewery_type": "brewpub", "address_1": "Rua Comendador Artur J. G. Barbosa n\u00ba576", "address_2": null, "address_3": null, "city": "Oliveira de Azemeis", "state_province": "Aveiro", "postal_code": "3720-005", "country": "Portugal", "longitude": "40.84133461624508", "latitude": "-8.434270976824363", "phone": "+351 256 482 151", "website_url": "https://www.cervejavadia.pt", "state": "Aveiro", "street": "Rua Comendador Artur J. G. Barbosa n\u00ba576"}, {"id": "f460d4f3-c666-425d-83b6-36692195ea49", "name": "Vagabond Brewing", "brewery_type": "brewpub", "address_1": "2195 Hyacinth St NE Ste 172", "address_2": null, "address_3": null, "city": "Salem", "state_province": "Oregon", "postal_code": "97301-3118", "country": "United States", "longitude": "-123.0010873", "latitude": "44.9820399", "phone": "5035129007", "website_url": "http://www.vagabondbrewing.com", "state": "Oregon", "street": "2195 Hyacinth St NE Ste 172"}, {"id": "093d96cf-2aa2-41f1-a941-39f7f16b37fa", "name": "Vail Brewing Company", "brewery_type": "micro", "address_1": "41290 US Hwy 6", "address_2": null, "address_3": null, "city": "Vail", "state_province": "Colorado", "postal_code": "81657", "country": "United States", "longitude": null, "latitude": null, "phone": "9704704351", "website_url": "http://www.vailbrewingco.com", "state": "Colorado", "street": "41290 US Hwy 6"}, {"id": "d2fa1ab7-b50a-4ffb-ab59-daa4110e1193", "name": "Valcour Brewing Company LLC", "brewery_type": "micro", "address_1": "49 Ohio Rd", "address_2": null, "address_3": null, "city": "Plattsburgh", "state_province": "New York", "postal_code": "12903-4409", "country": "United States", "longitude": null, "latitude": null, "phone": "5183242337", "website_url": "http://www.valcourbrewery.com", "state": "New York", "street": "49 Ohio Rd"}, {"id": "6e193741-61b7-4cc8-9731-45770307547a", "name": "Valholl Brewing Company", "brewery_type": "micro", "address_1": "18970 3rd Ave", "address_2": null, "address_3": null, "city": "Poulsbo", "state_province": "Washington", "postal_code": "98370", "country": "United States", "longitude": null, "latitude": null, "phone": "3609300172", "website_url": "http://www.valhollbrewing.com", "state": "Washington", "street": "18970 3rd Ave"}, {"id": "f009d054-be17-483a-a58c-d7f9021aea80", "name": "Valkyrie Brewing", "brewery_type": "micro", "address_1": "234 W Dallas St", "address_2": null, "address_3": null, "city": "Dallas", "state_province": "Wisconsin", "postal_code": "54733-9706", "country": "United States", "longitude": null, "latitude": null, "phone": "7158371824", "website_url": "http://www.valkyriebrewery.com", "state": "Wisconsin", "street": "234 W Dallas St"}, {"id": "be1fa1c4-ec5e-4cde-bf24-96858b2bc560", "name": "Vallensons Brewing Co.", "brewery_type": "micro", "address_1": "4081 Rice Drier Road", "address_2": null, "address_3": null, "city": "Pearland", "state_province": "Texas", "postal_code": "77581", "country": "United States", "longitude": "-95.28716205", "latitude": "29.57569295", "phone": "2817054063", "website_url": "http://www.vallensons.com", "state": "Texas", "street": "4081 Rice Drier Road"}, {"id": "49044ec6-74fc-4cca-8225-64035cec3922", "name": "Valley Brewing Co", "brewery_type": "brewpub", "address_1": "157 W Adams St", "address_2": null, "address_3": null, "city": "Stockton", "state_province": "California", "postal_code": "95204-5337", "country": "United States", "longitude": "-121.300391", "latitude": "37.97295175", "phone": "2094642739", "website_url": "http://www.valleybrew.com", "state": "California", "street": "157 W Adams St"}, {"id": "9a1bed12-a9be-4b59-a4b3-7760ed7380a8", "name": "Valley Brewing Co", "brewery_type": "micro", "address_1": "3215 River Rd", "address_2": null, "address_3": null, "city": "Yakima", "state_province": "Washington", "postal_code": "98902-1142", "country": "United States", "longitude": "-120.553068", "latitude": "46.618456", "phone": "5099495944", "website_url": "http://www.valleybrewingco.com", "state": "Washington", "street": "3215 River Rd"}, {"id": "ee527ffb-6e85-4a38-856c-10db17bb4b7e", "name": "Valley House Brewing", "brewery_type": "brewpub", "address_1": "16111 Main St NE", "address_2": null, "address_3": null, "city": "Duvall", "state_province": "Washington", "postal_code": "98019-8490", "country": "United States", "longitude": "-121.9858846", "latitude": "47.74315286", "phone": "4253186363", "website_url": "http://www.valleyhousebrewing.com", "state": "Washington", "street": "16111 Main St NE"}, {"id": "0d4174b9-66de-4f8c-8e61-8a5d38f3a999", "name": "Valley River Brewery & Eatery", "brewery_type": "brewpub", "address_1": "71 Tennessee St", "address_2": null, "address_3": null, "city": "Murphy", "state_province": "North Carolina", "postal_code": "28906-2938", "country": "United States", "longitude": "-84.03520817", "latitude": "35.08890404", "phone": "8288372337", "website_url": "http://www.valleyriverbrewery.com", "state": "North Carolina", "street": "71 Tennessee St"}, {"id": "76aca7b3-9521-49b0-bc20-96fa67e4b42f", "name": "Valley Vineyards Winery & Cellar Dweller Brewing", "brewery_type": "brewpub", "address_1": "2276 E US Highway 22 and 3", "address_2": null, "address_3": null, "city": "Morrow", "state_province": "Ohio", "postal_code": "45152-9414", "country": "United States", "longitude": null, "latitude": null, "phone": "5138992485", "website_url": "http://www.valleyvineyards.com", "state": "Ohio", "street": "2276 E US Highway 22 and 3"}, {"id": "032e8235-e88f-4a5c-97a5-77e536a29e2d", "name": "Van Der Brew", "brewery_type": "planning", "address_1": null, "address_2": null, "address_3": null, "city": "Winthrop", "state_province": "Maine", "postal_code": "04364-1253", "country": "United States", "longitude": null, "latitude": null, "phone": "2074411102", "website_url": null, "state": "Maine", "street": null}, {"id": "729aa416-177d-4e58-8700-9e9c51d6808d", "name": "Vander Mill", "brewery_type": "brewpub", "address_1": "505 Ball Ave NE", "address_2": null, "address_3": null, "city": "Grand Rapids", "state_province": "Michigan", "postal_code": "49503-2011", "country": "United States", "longitude": "-85.6305954", "latitude": "42.9712724", "phone": "6162598828", "website_url": "http://www.vandermill.com", "state": "Michigan", "street": "505 Ball Ave NE"}, {"id": "d9579c97-3ecd-4133-922a-d1bc5dc58b31", "name": "Vanessa House Beer Company", "brewery_type": "micro", "address_1": "118 NW 8th St", "address_2": null, "address_3": null, "city": "Oklahoma City", "state_province": "Oklahoma", "postal_code": "73107-5723", "country": "United States", "longitude": "-97.515375", "latitude": "35.475896", "phone": "4057249330", "website_url": "http://www.vanessahousebeerco.com", "state": "Oklahoma", "street": "118 NW 8th St"}, {"id": "8b6d0375-b572-4b21-9a81-504aa91d39c5", "name": "Vanguard Brewing Company", "brewery_type": "micro", "address_1": "27501 SW 95th Ave Ste 945", "address_2": null, "address_3": null, "city": "Wilsonville", "state_province": "Oregon", "postal_code": "97070-5705", "country": "United States", "longitude": "-122.7733742", "latitude": "45.3211582", "phone": "5039293774", "website_url": "http://www.vanguardbrewing.com", "state": "Oregon", "street": "27501 SW 95th Ave Ste 945"}, {"id": "4e1f9466-2173-458d-b58d-0656112eb918", "name": "Vanish Farmwoods Brewery", "brewery_type": "brewpub", "address_1": "42245  Black Hops Ln", "address_2": null, "address_3": null, "city": "Leesburg", "state_province": "Virginia", "postal_code": "20176-5498", "country": "United States", "longitude": null, "latitude": null, "phone": "7037797407", "website_url": "http://vanishbeer.com", "state": "Virginia", "street": "42245  Black Hops Ln"}, {"id": "6aa5bb2f-7b2f-43b6-8291-216bdc545f8e", "name": "Vanished Valley Brewing Company", "brewery_type": "micro", "address_1": "782 Center Street", "address_2": null, "address_3": null, "city": "Ludlow", "state_province": "Massachusetts", "postal_code": "01056", "country": "United States", "longitude": "-72.47021639", "latitude": "42.18292741", "phone": "4132710503", "website_url": "http://www.vanishedvalley.com", "state": "Massachusetts", "street": "782 Center Street"}, {"id": "7ce7a516-c6e4-42c2-b357-a4dfd53f7236", "name": "VanMax Brewing Company LLC", "brewery_type": "micro", "address_1": "103 N Phelps St", "address_2": null, "address_3": null, "city": "Decatur", "state_province": "Michigan", "postal_code": "49045-1008", "country": "United States", "longitude": "-85.97454749", "latitude": "42.10876694", "phone": "2692171720", "website_url": "http://www.vanmaxbrewing.com", "state": "Michigan", "street": "103 N Phelps St"}, {"id": "78cb7d62-ff5b-4e03-a5fc-0553b9fa3428", "name": "Vanport Brewing Company", "brewery_type": "planning", "address_1": null, "address_2": null, "address_3": null, "city": "Portland", "state_province": "Oregon", "postal_code": "97211-2907", "country": "United States", "longitude": null, "latitude": null, "phone": "5032670219", "website_url": null, "state": "Oregon", "street": null}, {"id": "b961ff9e-4495-4db5-aa88-dea50bc3a02b", "name": "Variant Brewing Company", "brewery_type": "micro", "address_1": "66 Norcross St", "address_2": null, "address_3": null, "city": "Roswell", "state_province": "Georgia", "postal_code": "30075-3866", "country": "United States", "longitude": "-84.35907858", "latitude": "34.02576775", "phone": "6782428189", "website_url": null, "state": "Georgia", "street": "66 Norcross St"}, {"id": "cefefb6f-577c-43e0-81e1-12f6125a86d6", "name": "Varietal Beer Company", "brewery_type": "micro", "address_1": "416 E Edison Ave", "address_2": null, "address_3": null, "city": "Sunnyside", "state_province": "Washington", "postal_code": "98944-1459", "country": "United States", "longitude": "-120.0157684", "latitude": "46.32370319", "phone": "5093074622", "website_url": "http://www.varietalbeer.com", "state": "Washington", "street": "416 E Edison Ave"}, {"id": "d521368b-3245-4084-9f94-4783ba1f3238", "name": "Vasen Brewing Company", "brewery_type": "micro", "address_1": "3331 Moore St", "address_2": null, "address_3": null, "city": "Richmond", "state_province": "Virginia", "postal_code": "23230-4423", "country": "United States", "longitude": "-77.4517779", "latitude": "37.5574905", "phone": "8045885678", "website_url": "http://www.vasenbrewing.com", "state": "Virginia", "street": "3331 Moore St"}, {"id": "615a73ce-eb1a-44bb-8a8d-0cc1b5573e72", "name": "Vashon Brewing Co", "brewery_type": "micro", "address_1": null, "address_2": null, "address_3": null, "city": "Vashon", "state_province": "Washington", "postal_code": "98070-5900", "country": "United States", "longitude": null, "latitude": null, "phone": null, "website_url": "http://www.vashonbrewingco.com", "state": "Washington", "street": null}, {"id": "86157812-980d-4f66-b355-5aed2438ccc5", "name": "Vault Brewing Co", "brewery_type": "brewpub", "address_1": "10 S Main St", "address_2": null, "address_3": null, "city": "Morrisville", "state_province": "Pennsylvania", "postal_code": "19067-1511", "country": "United States", "longitude": null, "latitude": null, "phone": "2675734291", "website_url": "http://www.vaultbrewing.com", "state": "Pennsylvania", "street": "10 S Main St"}, {"id": "5dafecff-6ef6-430d-87ed-1f9e315f3f92", "name": "Vecino Brewing", "brewery_type": "brewpub", "address_1": "300 E Main St", "address_2": null, "address_3": null, "city": "Carrboro", "state_province": "North Carolina", "postal_code": "27510-2359", "country": "United States", "longitude": "-79.0689722", "latitude": "35.9100127", "phone": "9196495101", "website_url": "http://www.vecinobrewing.com", "state": "North Carolina", "street": "300 E Main St"}, {"id": "376af0a3-abdd-42e8-850d-0635374c2e86", "name": "Velveteen Brewing Co", "brewery_type": "planning", "address_1": null, "address_2": null, "address_3": null, "city": "Mamaroneck", "state_province": "New York", "postal_code": "10543-4719", "country": "United States", "longitude": null, "latitude": null, "phone": null, "website_url": null, "state": "New York", "street": null}, {"id": "e4e8348e-71ba-41df-b571-b866fffbf050", "name": "Venice Ale House Brewing Co", "brewery_type": "contract", "address_1": "2 Rose Ave", "address_2": null, "address_3": null, "city": "Venice", "state_province": "California", "postal_code": "90291-2411", "country": "United States", "longitude": "-118.480274", "latitude": "33.994634", "phone": "3103148253", "website_url": "http://www.venicealehouse.com", "state": "California", "street": "2 Rose Ave"}, {"id": "be340e56-0609-44de-a684-eca999c2b5a4", "name": "Venice Duck Brewery", "brewery_type": "contract", "address_1": null, "address_2": null, "address_3": null, "city": "Venice", "state_province": "California", "postal_code": "90291-3833", "country": "United States", "longitude": "-118.4668875", "latitude": "33.995044", "phone": "3103834927", "website_url": "http://www.veniceduckbrewery.com", "state": "California", "street": null}, {"id": "cdb0ccdd-a7c9-457e-aaef-2aacb17954b9", "name": "Venn Brewing Company", "brewery_type": "micro", "address_1": "3550 E 46th St Suite 140", "address_2": null, "address_3": null, "city": "Minneapolis", "state_province": "Minnesota", "postal_code": "55406-3965", "country": "United States", "longitude": null, "latitude": null, "phone": null, "website_url": "http://www.vennbrewing.com", "state": "Minnesota", "street": "3550 E 46th St Suite 140"}, {"id": "f74cf0da-72f1-449c-b2ec-81b5fcd848bf", "name": "Ventura Coast Brewing Company", "brewery_type": "micro", "address_1": "76 S Oak St", "address_2": null, "address_3": null, "city": "Ventura", "state_province": "California", "postal_code": "93001-2702", "country": "United States", "longitude": "-119.2945588", "latitude": "34.27988394", "phone": "8056678640", "website_url": "http://www.vcbc.beer", "state": "California", "street": "76 S Oak St"}, {"id": "007923ef-19cb-4433-be8e-355ff64b34e7", "name": "Veracious Brewing Company", "brewery_type": "micro", "address_1": "246 Main St", "address_2": null, "address_3": null, "city": "Monroe", "state_province": "Connecticut", "postal_code": "06468-1171", "country": "United States", "longitude": null, "latitude": null, "phone": "2038805670", "website_url": "http://www.veraciousbrewing.com", "state": "Connecticut", "street": "246 Main St"}, {"id": "d217a26e-7eec-4618-b32c-2689c76b92c3", "name": "Verboten Brewing", "brewery_type": "micro", "address_1": "127 E 5th St", "address_2": null, "address_3": null, "city": "Loveland", "state_province": "Colorado", "postal_code": "80537-5503", "country": "United States", "longitude": "-105.0749674", "latitude": "40.39658612", "phone": "9707757371", "website_url": "http://www.verbotenbrewing.com", "state": "Colorado", "street": "127 E 5th St"}, {"id": "2d9ff9d8-6a92-49fd-b03c-d77bbb371600", "name": "Verde Brewing Company", "brewery_type": "micro", "address_1": "724 Industrial Dr Unit 7A", "address_2": null, "address_3": null, "city": "Camp Verde", "state_province": "Arizona", "postal_code": "86322", "country": "United States", "longitude": null, "latitude": null, "phone": "9285678626", "website_url": "http://www.verdebrewing.com", "state": "Arizona", "street": "724 Industrial Dr Unit 7A"}, {"id": "5504068e-77c6-41c1-a1a2-01b796b52cd1", "name": "Verdugo West Brewing Company", "brewery_type": "micro", "address_1": "156 W Verdugo Ave", "address_2": null, "address_3": null, "city": "Burbank", "state_province": "California", "postal_code": "91502-2132", "country": "United States", "longitude": "-118.3103682", "latitude": "34.17375015", "phone": "8188415040", "website_url": "http://www.verdugowestbrewing.com", "state": "California", "street": "156 W Verdugo Ave"}, {"id": "784b40eb-252d-4e8e-a002-e11de9c3b59a", "name": "Vermont Pub and Brewery", "brewery_type": "brewpub", "address_1": "144 College St", "address_2": null, "address_3": null, "city": "Burlington", "state_province": "Vermont", "postal_code": "05401-8416", "country": "United States", "longitude": "-73.2143746", "latitude": "44.4772683", "phone": "8028650500", "website_url": "http://www.vermontbrewery.com", "state": "Vermont", "street": "144 College St"}, {"id": "9a4d9c4e-fc5f-4af0-9fed-9374d1c2ee4f", "name": "Vernal Brewing Company", "brewery_type": "micro", "address_1": "510 E Main St", "address_2": null, "address_3": null, "city": "Vernal", "state_province": "Utah", "postal_code": "84078-2700", "country": "United States", "longitude": "-109.5161701", "latitude": "40.45578612", "phone": "4357812337", "website_url": "http://www.vernalbrewingcompany.com", "state": "Utah", "street": "510 E Main St"}, {"id": "427d559f-ec7b-4e5f-b973-c8cd9cbf15d9", "name": "Vertigo Brewing", "brewery_type": "micro", "address_1": "21420 NW Nicholas Ct Ste D-7", "address_2": null, "address_3": null, "city": "Hillsboro", "state_province": "Oregon", "postal_code": "97124-6633", "country": "United States", "longitude": "-122.8955804", "latitude": "45.53189006", "phone": "5036456644", "website_url": "http://www.vertigobrew.com", "state": "Oregon", "street": "21420 NW Nicholas Ct Ste D-7"}, {"id": "f48f194a-adbb-4309-8138-72f89f53d4c7", "name": "Very Nice Brewing Co", "brewery_type": "micro", "address_1": "20 Lakeview Drive Unit 112", "address_2": null, "address_3": null, "city": "Nederland", "state_province": "Colorado", "postal_code": "80466", "country": "United States", "longitude": null, "latitude": null, "phone": "3032583770", "website_url": "http://www.verynicebrewing.com", "state": "Colorado", "street": "20 Lakeview Drive Unit 112"}, {"id": "d3b92246-604a-45f4-bbe0-bd02451924b8", "name": "Vessel Ales & Taphouse", "brewery_type": "micro", "address_1": "19405 144th Ave NE Bldg D", "address_2": null, "address_3": null, "city": "Woodinville", "state_province": "Washington", "postal_code": "98072-6485", "country": "United States", "longitude": null, "latitude": null, "phone": "2066295024", "website_url": "http://www.vesselwines.com", "state": "Washington", "street": "19405 144th Ave NE Bldg D"}, {"id": "4c7bdc81-c8a2-49a4-90c5-5297e796e7a9", "name": "Veteran Beer Co / Veteran Beverage Company", "brewery_type": "proprietor", "address_1": "320 W Ohio St Ste 501", "address_2": null, "address_3": null, "city": "Chicago", "state_province": "Illinois", "postal_code": "60654-7816", "country": "United States", "longitude": null, "latitude": null, "phone": "6192498081", "website_url": "http://www.veteranbeercompany.com", "state": "Illinois", "street": "320 W Ohio St Ste 501"}, {"id": "aa0393b5-3623-4eeb-98c8-56547386d4eb", "name": "Veteran Brewhouse", "brewery_type": "micro", "address_1": "829 CR 801", "address_2": null, "address_3": null, "city": "Ashland", "state_province": "Ohio", "postal_code": "44805", "country": "United States", "longitude": null, "latitude": null, "phone": "4196064014", "website_url": "http://www.veteranbrewhouse.com", "state": "Ohio", "street": "829 CR 801"}, {"id": "75a0701e-0f94-4550-afaf-892cd31774ee", "name": "Veteran Brothers Brewing Company", "brewery_type": "brewpub", "address_1": "21 N Parish Ave", "address_2": null, "address_3": null, "city": "Johnstown", "state_province": "Colorado", "postal_code": "80534", "country": "United States", "longitude": "-104.9061919", "latitude": "40.33713", "phone": "9705876786", "website_url": "https://www.facebook.com/veteranbrothersbrew", "state": "Colorado", "street": "21 N Parish Ave"}, {"id": "2d3c288c-ecb1-47fc-bca3-c277c7728944", "name": "Veterans United Craft Brewery", "brewery_type": "micro", "address_1": "8999 Western Way Ste 104", "address_2": null, "address_3": null, "city": "Jacksonville", "state_province": "Florida", "postal_code": "32256", "country": "United States", "longitude": "-81.5570848", "latitude": "30.2008038", "phone": "9042533326", "website_url": "http://www.vubrew.com", "state": "Florida", "street": "8999 Western Way Ste 104"}, {"id": "3895d6bc-06f0-4440-8350-9b929b95cda2", "name": "Veza Sur Brewing Co", "brewery_type": "large", "address_1": "55 NW 25th St", "address_2": null, "address_3": null, "city": "Miami", "state_province": "Florida", "postal_code": "33127-4415", "country": "United States", "longitude": "-80.19614871", "latitude": "25.80089733", "phone": null, "website_url": null, "state": "Florida", "street": "55 NW 25th St"}, {"id": "add3dcfb-12fd-4d9f-be5d-5119961df9ce", "name": "Vibrant Shore Brewing Company", "brewery_type": "planning", "address_1": null, "address_2": null, "address_3": null, "city": "Virginia Beach", "state_province": "Virginia", "postal_code": "23451-2005", "country": "United States", "longitude": null, "latitude": null, "phone": "8082805895", "website_url": null, "state": "Virginia", "street": null}, {"id": "b9f63a8d-4145-4e1f-8613-1bb45dba84dc", "name": "Vice District Tap Room", "brewery_type": "micro", "address_1": "1454 S Michigan Ave Ste 1", "address_2": null, "address_3": null, "city": "Chicago", "state_province": "Illinois", "postal_code": "60605-2811", "country": "United States", "longitude": null, "latitude": null, "phone": "3122919022", "website_url": "http://www.vicedistrictbrewing.com", "state": "Illinois", "street": "1454 S Michigan Ave Ste 1"}, {"id": "4c321585-4c57-400b-9a56-fb95767b8cee", "name": "Vicious Fishes Brewery", "brewery_type": "micro", "address_1": "219 Fish Dr", "address_2": null, "address_3": null, "city": "Angier", "state_province": "North Carolina", "postal_code": "27501-6077", "country": "United States", "longitude": "-78.749408", "latitude": "35.507541", "phone": "9196393369", "website_url": "http://www.viciousfishes.com", "state": "North Carolina", "street": "219 Fish Dr"}, {"id": "ccae7ca3-7457-44cf-8138-f6f5d8959b8c", "name": "Victor 23 Craft Brewery", "brewery_type": "brewpub", "address_1": "2905 St Johns Blvd", "address_2": null, "address_3": null, "city": "Vancouver", "state_province": "Washington", "postal_code": "98661-3718", "country": "United States", "longitude": "-122.6464236", "latitude": "45.6426306", "phone": "3609845413", "website_url": "http://www.Victor23.com", "state": "Washington", "street": "2905 St Johns Blvd"}, {"id": "1b8122fc-3b03-49c0-9ae2-e344a3510030", "name": "Victory Brewing Co", "brewery_type": "regional", "address_1": "420 Acorn Ln", "address_2": null, "address_3": null, "city": "Downingtown", "state_province": "Pennsylvania", "postal_code": "19335-3040", "country": "United States", "longitude": null, "latitude": null, "phone": "6108730881", "website_url": "http://www.victorybeer.com", "state": "Pennsylvania", "street": "420 Acorn Ln"}, {"id": "caa654e3-bfa9-4019-8e83-2aca7a423720", "name": "Victory Brewing Co", "brewery_type": "brewpub", "address_1": "650 W Cypress St Ste 1", "address_2": null, "address_3": null, "city": "Kennett Square", "state_province": "Pennsylvania", "postal_code": "19348-3059", "country": "United States", "longitude": null, "latitude": null, "phone": "4847301870", "website_url": "http://www.victorybeer.com", "state": "Pennsylvania", "street": "650 W Cypress St Ste 1"}, {"id": "392b4940-7333-4a2e-9e64-3b12e0290354", "name": "Victory Brewing Co", "brewery_type": "regional", "address_1": "3127 Lower Valley Rd", "address_2": null, "address_3": null, "city": "Parkesburg", "state_province": "Pennsylvania", "postal_code": "19365-9617", "country": "United States", "longitude": null, "latitude": null, "phone": "6108730881", "website_url": "http://www.victorybeer.com", "state": "Pennsylvania", "street": "3127 Lower Valley Rd"}, {"id": "60fad081-4a4e-4415-95d8-b478cb0ce9c1", "name": "Vierling Restaurant & Marquette Harbor Brewery", "brewery_type": "brewpub", "address_1": "119 S Front St", "address_2": null, "address_3": null, "city": "Marquette", "state_province": "Michigan", "postal_code": "49855-4642", "country": "United States", "longitude": "-87.3928955", "latitude": "46.5425586", "phone": "9062283533", "website_url": "http://www.thevierling.com", "state": "Michigan", "street": "119 S Front St"}, {"id": "b3be1ab8-d34b-465c-9704-b50364cfd061", "name": "Viewpoint Brewing Co", "brewery_type": "brewpub", "address_1": "2201 San Dieguito Dr Ste F", "address_2": null, "address_3": null, "city": "del Mar", "state_province": "California", "postal_code": "92014-2257", "country": "United States", "longitude": "-117.2618232", "latitude": "32.970049", "phone": "8583569346", "website_url": "http://www.viewpointbrewing.com", "state": "California", "street": "2201 San Dieguito Dr Ste F"}, {"id": "9fb445cd-bd7c-4b97-a249-ef17e9856cc0", "name": "Viking Brewpub", "brewery_type": "brewpub", "address_1": "211 E Main St", "address_2": null, "address_3": null, "city": "Stoughton", "state_province": "Wisconsin", "postal_code": "53589-1700", "country": "United States", "longitude": "-89.2188242", "latitude": "42.9166357", "phone": "6087195041", "website_url": null, "state": "Wisconsin", "street": "211 E Main St"}, {"id": "f51b3f3d-be14-40da-914a-3b5c83f75bbf", "name": "Villacher Brauerei (Heineken)", "brewery_type": "large", "address_1": "Brauhausgasse 6", "address_2": null, "address_3": null, "city": "Villach", "state_province": "K\ufffdrnten", "postal_code": "9500", "country": "Austria", "longitude": "13.85168245858099", "latitude": "46.61662463422168", "phone": "+434242277770", "website_url": "https://www.villacher.com", "state": "K\ufffdrnten", "street": "Brauhausgasse 6"}, {"id": "4d87a123-b93b-4f06-9c57-8f197a9b2ad9", "name": "Village Idiot Brewing Company", "brewery_type": "micro", "address_1": "42 High St", "address_2": null, "address_3": null, "city": "Mount Holly", "state_province": "New Jersey", "postal_code": "08060-1702", "country": "United States", "longitude": "-74.78801924", "latitude": "39.99417605", "phone": "6099759270", "website_url": "http://www.villageidiotbrewing.com", "state": "New Jersey", "street": "42 High St"}, {"id": "71ac4ae1-27a3-45bb-a309-fa41cff28e4d", "name": "Village Vintner Winery & Brewery", "brewery_type": "brewpub", "address_1": "2380 Esplanade Dr Ste 100", "address_2": null, "address_3": null, "city": "Algonquin", "state_province": "Illinois", "postal_code": "60102-5450", "country": "United States", "longitude": "-88.33838098", "latitude": "42.14408948", "phone": "8476584900", "website_url": "http://www.thevillagevintner.com", "state": "Illinois", "street": "2380 Esplanade Dr Ste 100"}, {"id": "7acd06bc-672e-4bc0-85ae-efa205f92b25", "name": "Vine Park Brewing Co", "brewery_type": "micro", "address_1": "1254 7th St W", "address_2": null, "address_3": null, "city": "Saint Paul", "state_province": "Minnesota", "postal_code": "55102-4123", "country": "United States", "longitude": "-93.1655001", "latitude": "44.9040455", "phone": "6512281355", "website_url": "http://www.vinepark.com", "state": "Minnesota", "street": "1254 7th St W"}, {"id": "05d5110e-1f3c-40d0-b6b4-d00b5fdac6c1", "name": "Vine Street Pub & Brewery", "brewery_type": "brewpub", "address_1": "1700 Vine St", "address_2": null, "address_3": null, "city": "Denver", "state_province": "Colorado", "postal_code": "80206-1120", "country": "United States", "longitude": "-104.9627421", "latitude": "39.7434087", "phone": "3033882337", "website_url": "http://www.mountainsunpub.com", "state": "Colorado", "street": "1700 Vine St"}, {"id": "17995f06-7c5d-4a2c-b3cf-b8cc855ba10e", "name": "Vino's Pizza Pub Brewery", "brewery_type": "brewpub", "address_1": "923 W 7th St", "address_2": null, "address_3": null, "city": "Little Rock", "state_province": "Arkansas", "postal_code": "72201-4005", "country": "United States", "longitude": "-92.28140212", "latitude": "34.7434392", "phone": "5013758466", "website_url": "http://www.vinosbrewpub.com", "state": "Arkansas", "street": "923 W 7th St"}, {"id": "d2cf661a-d6dc-4e6e-b15d-a5100adc6ef4", "name": "Vintage Brewing Co", "brewery_type": "brewpub", "address_1": "674 S Whitney Way", "address_2": null, "address_3": null, "city": "Madison", "state_province": "Wisconsin", "postal_code": "53711-1035", "country": "United States", "longitude": "-89.47266345", "latitude": "43.05171633", "phone": "6082042739", "website_url": "http://www.vintagebrewingco.com", "state": "Wisconsin", "street": "674 S Whitney Way"}, {"id": "f7660e19-369a-41f8-b77e-10d094e67142", "name": "Vintage Brewing Co", "brewery_type": "brewpub", "address_1": "600 Water Street", "address_2": null, "address_3": null, "city": "Sauk City", "state_province": "Wisconsin", "postal_code": "53583", "country": "United States", "longitude": "-89.7180892", "latitude": "43.2820804", "phone": "6082042739", "website_url": null, "state": "Wisconsin", "street": "600 Water Street"}, {"id": "e66239b3-a3ec-4b2b-8738-0710ec300f25", "name": "Vinyl Brewing Company, LLC", "brewery_type": "micro", "address_1": "300B 12th St", "address_2": null, "address_3": null, "city": "Hammonton", "state_province": "New Jersey", "postal_code": "08037-", "country": "United States", "longitude": "-74.80690714", "latitude": "39.6330492", "phone": "6096665460", "website_url": "http://www.vinylbrewingnj.com", "state": "New Jersey", "street": "300B 12th St"}, {"id": "1c9765e4-b86d-4127-8403-ba0eaa4a6e68", "name": "Virant Family Winery / Black Angus Brewery", "brewery_type": "micro", "address_1": "541 Atkins Rd", "address_2": null, "address_3": null, "city": "Geneva", "state_province": "Ohio", "postal_code": "44041", "country": "United States", "longitude": null, "latitude": null, "phone": "4404666279", "website_url": "http://www.virantfamilywinery.com", "state": "Ohio", "street": "541 Atkins Rd"}, {"id": "0c325218-d9f7-47c5-8305-d4a6058ec3bc", "name": "Virginia City Brewery & Taphouse", "brewery_type": "brewpub", "address_1": "62 North C Street", "address_2": null, "address_3": null, "city": "Virginia City", "state_province": "Nevada", "postal_code": "89440", "country": "United States", "longitude": "-119.648264", "latitude": "39.314358", "phone": "7758477064", "website_url": "http://www.virginiacitybreweryandtaphouse.com", "state": "Nevada", "street": "62 North C Street"}, {"id": "e3f7a311-cddb-4810-9fb8-32bca371f72c", "name": "Vis Major Brewing Co", "brewery_type": "brewpub", "address_1": "3501 Center St", "address_2": null, "address_3": null, "city": "Omaha", "state_province": "Nebraska", "postal_code": "68105-2423", "country": "United States", "longitude": "-95.964461", "latitude": "41.241419", "phone": "4028844082", "website_url": "http://www.vismajorbrewing.com", "state": "Nebraska", "street": "3501 Center St"}, {"id": "b8005ec5-1fc7-43bd-96e6-a5b185c927d8", "name": "Vision Quest Brewing Company", "brewery_type": "micro", "address_1": "2510 47th St Ste A2", "address_2": null, "address_3": null, "city": "Boulder", "state_province": "Colorado", "postal_code": "80301-2301", "country": "United States", "longitude": null, "latitude": null, "phone": "3038986802", "website_url": "http://www.visionquestbrewing.com", "state": "Colorado", "street": "2510 47th St Ste A2"}, {"id": "c09360db-487f-487c-9c6b-d3acca6cef44", "name": "Vista Brewing", "brewery_type": "brewpub", "address_1": "13551 Ranch To Market Rd 150", "address_2": null, "address_3": null, "city": "Driftwood", "state_province": "Texas", "postal_code": "78619", "country": "United States", "longitude": null, "latitude": null, "phone": "5127661842", "website_url": "http://www.vistabrewingtx.com", "state": "Texas", "street": "13551 Ranch To Market Rd 150"}, {"id": "affe57b1-0891-4df3-aef1-28a3546e6571", "name": "Vitamin Sea Brewing", "brewery_type": "planning", "address_1": null, "address_2": null, "address_3": null, "city": "Hull", "state_province": "Massachusetts", "postal_code": "02045-2907", "country": "United States", "longitude": null, "latitude": null, "phone": "7815894569", "website_url": null, "state": "Massachusetts", "street": null}, {"id": "ba813e75-fa19-44a3-bab2-7927849962c2", "name": "Vivio's Food", "brewery_type": "planning", "address_1": null, "address_2": null, "address_3": null, "city": "Detroit", "state_province": "Michigan", "postal_code": "48207-4516", "country": "United States", "longitude": null, "latitude": null, "phone": "3133931711", "website_url": "http://www.viviosdetroit.com", "state": "Michigan", "street": null}, {"id": "38ea89d3-a701-473e-a3cb-f46ede4706e7", "name": "Volunteer Brewing Company", "brewery_type": "micro", "address_1": "120 W Main St", "address_2": null, "address_3": null, "city": "Middletown", "state_province": "Delaware", "postal_code": "19709-1040", "country": "United States", "longitude": "-75.71959161", "latitude": "39.44942786", "phone": "3024640822", "website_url": "http://www.VolunteerBrewing.com", "state": "Delaware", "street": "120 W Main St"}, {"id": "70fe5224-37e2-431e-81ef-8b28168d4da4", "name": "Von Ebert Brewing", "brewery_type": "planning", "address_1": "14021 NE Glisan St", "address_2": null, "address_3": null, "city": "Portland", "state_province": "Oregon", "postal_code": "97230", "country": "United States", "longitude": "-122.5187026", "latitude": "45.52726898", "phone": null, "website_url": null, "state": "Oregon", "street": "14021 NE Glisan St"}, {"id": "4d346ad7-4bc6-4f61-b993-f066f610b7ef", "name": "Von Ebert Brewing", "brewery_type": "brewpub", "address_1": "131 NW 13th Ave", "address_2": null, "address_3": null, "city": "Portland", "state_province": "Oregon", "postal_code": "97209-4110", "country": "United States", "longitude": "-122.6843058", "latitude": "45.52389727", "phone": "5038207721", "website_url": "http://vonebertbrewing.com", "state": "Oregon", "street": "131 NW 13th Ave"}, {"id": "8b66ecf1-22be-4088-a57a-40cc876b554b", "name": "Von Jakob Winery", "brewery_type": "brewpub", "address_1": "230 Illinois Hwy 127", "address_2": null, "address_3": null, "city": "Alto Pass", "state_province": "Illinois", "postal_code": "62905", "country": "United States", "longitude": null, "latitude": null, "phone": "6188934600", "website_url": "http://www.vonjakob.com", "state": "Illinois", "street": "230 Illinois Hwy 127"}, {"id": "bc0330df-68a5-497a-9a11-9ebb97352733", "name": "Von Scheidt Brewing Co", "brewery_type": "closed", "address_1": "157 2nd Ave W", "address_2": null, "address_3": null, "city": "Twin Falls", "state_province": "Idaho", "postal_code": "83301-6015", "country": "United States", "longitude": "-114.471756", "latitude": "42.55561943", "phone": "2083299608", "website_url": "http://www.vonscheidtbrewing.com", "state": "Idaho", "street": "157 2nd Ave W"}, {"id": "77a8265c-2d3b-4f30-babe-87a1e0a4c37d", "name": "Von Trapp Brewing", "brewery_type": "micro", "address_1": "1333 Luce Hill Rd", "address_2": null, "address_3": null, "city": "Stowe", "state_province": "Vermont", "postal_code": "05672", "country": "United States", "longitude": "-72.791432", "latitude": "44.470714", "phone": "8022535750", "website_url": "http://www.trappfamily.com", "state": "Vermont", "street": "1333 Luce Hill Rd"}, {"id": "c665c18b-4117-4c25-a4c9-df815a5bc1e0", "name": "VonSeitz TheoreticAles", "brewery_type": "micro", "address_1": "175 Hurricane Ridge Rd", "address_2": null, "address_3": null, "city": "Smithville", "state_province": "Tennessee", "postal_code": "37166", "country": "United States", "longitude": null, "latitude": null, "phone": "6153184008", "website_url": "http://www.theoreticales.com", "state": "Tennessee", "street": "175 Hurricane Ridge Rd"}, {"id": "496767e9-72ae-432a-aa87-a530acb459ea", "name": "Voodoo Brewing Co", "brewery_type": "brewpub", "address_1": "215 1/2 Arch St", "address_2": null, "address_3": null, "city": "Meadville", "state_province": "Pennsylvania", "postal_code": "16335-3432", "country": "United States", "longitude": "-80.154209", "latitude": "41.637124", "phone": "8143373676", "website_url": "http://www.voodoobrewery.com", "state": "Pennsylvania", "street": "215 1/2 Arch St"}, {"id": "7df505f8-b60c-4824-8334-b71b7eabb15f", "name": "Voodoo Brewing Production Facility", "brewery_type": "brewpub", "address_1": "834 Bessemer St", "address_2": null, "address_3": null, "city": "Meadville", "state_province": "Pennsylvania", "postal_code": "16335", "country": "United States", "longitude": "-80.15610217", "latitude": "41.64610467", "phone": "8143339123", "website_url": null, "state": "Pennsylvania", "street": "834 Bessemer St"}, {"id": "2acbb347-c871-4db3-938f-13192f208b47", "name": "Vortex Alley Brewery", "brewery_type": "micro", "address_1": "220 E. Central Ave", "address_2": null, "address_3": null, "city": "Ponca City", "state_province": "Oklahoma", "postal_code": "74601", "country": "United States", "longitude": "-97.08161761", "latitude": "36.7024929", "phone": "5803044781", "website_url": "http://www.vortexalleybrewing.com", "state": "Oklahoma", "street": "220 E. Central Ave"}, {"id": "8bd0a895-229e-4e74-af13-771ddddf6562", "name": "Voyageur Brewing Co", "brewery_type": "brewpub", "address_1": "233 W Hwy 61", "address_2": null, "address_3": null, "city": "Grand Marais", "state_province": "Minnesota", "postal_code": "55604", "country": "United States", "longitude": null, "latitude": null, "phone": "2183873163", "website_url": null, "state": "Minnesota", "street": "233 W Hwy 61"}, {"id": "975c847e-393d-4d2e-9e03-da0147218238", "name": "Wabash Brewing", "brewery_type": "micro", "address_1": "5328 W 79th St", "address_2": null, "address_3": null, "city": "Indianapolis", "state_province": "Indiana", "postal_code": "46268-1631", "country": "United States", "longitude": null, "latitude": null, "phone": "3179384458", "website_url": "http://www.wabashbrew.com", "state": "Indiana", "street": "5328 W 79th St"}, {"id": "5d79c64c-7bdd-4287-9703-deeb3465f807", "name": "Wabasha Brewing Company", "brewery_type": "micro", "address_1": "429 Wabasha St S", "address_2": null, "address_3": null, "city": "Saint Paul", "state_province": "Minnesota", "postal_code": "55107-1126", "country": "United States", "longitude": "-93.08472893", "latitude": "44.93295265", "phone": "6512242102", "website_url": "http://www.wabashabrewing.com", "state": "Minnesota", "street": "429 Wabasha St S"}, {"id": "5f6a874b-33de-4387-928e-b095e03a58f8", "name": "Wachusett Brewing Co", "brewery_type": "regional", "address_1": "175 State Rd E", "address_2": null, "address_3": null, "city": "Westminster", "state_province": "Massachusetts", "postal_code": "01473-1208", "country": "United States", "longitude": "-71.87294016", "latitude": "42.55783542", "phone": "9788749965", "website_url": "http://www.wachusettbrew.com", "state": "Massachusetts", "street": "175 State Rd E"}, {"id": "8c9a9c66-ac4e-42b4-9dc7-1628eaf00af5", "name": "Wacker Brewing Co", "brewery_type": "micro", "address_1": "417 W Grant St", "address_2": null, "address_3": null, "city": "Lancaster", "state_province": "Pennsylvania", "postal_code": "17603", "country": "United States", "longitude": "-76.31365439", "latitude": "40.03799427", "phone": "7176172711", "website_url": "http://www.wackerbrewing.com", "state": "Pennsylvania", "street": "417 W Grant St"}, {"id": "bbea4e34-3881-457b-a8d5-764b12c2517d", "name": "Waconia Brewing Company", "brewery_type": "micro", "address_1": "255 W Main St", "address_2": null, "address_3": null, "city": "Waconia", "state_province": "Minnesota", "postal_code": "55387-1025", "country": "United States", "longitude": null, "latitude": null, "phone": "6128882739", "website_url": "http://www.waconiabrewing.com", "state": "Minnesota", "street": "255 W Main St"}, {"id": "f4234744-1369-4cb2-8680-bef8b058c5bc", "name": "Waddell's Brewing Co.", "brewery_type": "brewpub", "address_1": "6501 N Cedar Rd Ste 1", "address_2": null, "address_3": null, "city": "Spokane", "state_province": "Washington", "postal_code": "99208-4571", "country": "United States", "longitude": null, "latitude": null, "phone": "5093217818", "website_url": "http://www.waddellsbrewery.com", "state": "Washington", "street": "6501 N Cedar Rd Ste 1"}, {"id": "298c427c-b928-4d61-a268-9f09b793699f", "name": "Wadsworth Brewing Company", "brewery_type": "brewpub", "address_1": "126 Main St", "address_2": null, "address_3": null, "city": "Wadsworth", "state_province": "Ohio", "postal_code": "44281-1432", "country": "United States", "longitude": "-81.72980288", "latitude": "41.02478661", "phone": "3304754935", "website_url": "http://www.wadsworthbrewingcompany.com", "state": "Ohio", "street": "126 Main St"}, {"id": "735992cf-009c-457b-962a-28574c77db3c", "name": "Waganupa Brewing", "brewery_type": "micro", "address_1": "289 Clifford Dr Unit B", "address_2": null, "address_3": null, "city": "Lake Almanor", "state_province": "California", "postal_code": "96137-9641", "country": "United States", "longitude": "-121.1301151", "latitude": "40.27765103", "phone": "5302593705", "website_url": "http://www.waganupa.com", "state": "California", "street": "289 Clifford Dr Unit B"}, {"id": "bd5f13e7-c53f-4bfb-9845-619a7ad059e7", "name": "Wages Brewing Company", "brewery_type": "micro", "address_1": "1382 Bill Virdon Blvd", "address_2": null, "address_3": null, "city": "West Plains", "state_province": "Missouri", "postal_code": "65775-3383", "country": "United States", "longitude": "-91.835109", "latitude": "36.72461005", "phone": "4172933119", "website_url": "http://www.wagesbrewco.com", "state": "Missouri", "street": "1382 Bill Virdon Blvd"}, {"id": "2821037d-83b8-494d-bebd-da8bb7ed1481", "name": "Wagner Valley Brewing Co", "brewery_type": "micro", "address_1": "9322 Route 414", "address_2": null, "address_3": null, "city": "Lodi", "state_province": "New York", "postal_code": "14860-9641", "country": "United States", "longitude": null, "latitude": null, "phone": "6075826450", "website_url": "http://www.wagnerbrewing.com", "state": "New York", "street": "9322 Route 414"}, {"id": "150e5041-28b6-4a3c-9dbe-2b739c4f1a1f", "name": "Waikiki Brewing Company", "brewery_type": "brewpub", "address_1": "1945 Kalakaua Ave", "address_2": null, "address_3": null, "city": "Honolulu", "state_province": "Hawaii", "postal_code": "96815-1851", "country": "United States", "longitude": "-157.8334964", "latitude": "21.2858755", "phone": null, "website_url": "http://www.waikikibrewing.com", "state": "Hawaii", "street": "1945 Kalakaua Ave"}, {"id": "7e06716a-cf35-431f-8097-611364da644c", "name": "Waikiki Brewing Company, Kaka'ako", "brewery_type": "micro", "address_1": "831 Queen St", "address_2": null, "address_3": null, "city": "Honolulu", "state_province": "Hawaii", "postal_code": "96813-5203", "country": "United States", "longitude": "-157.8559271", "latitude": "21.29964432", "phone": null, "website_url": null, "state": "Hawaii", "street": "831 Queen St"}, {"id": "32b7bb46-102b-45a3-800a-6dc7222fd731", "name": "Wake Brewing", "brewery_type": "micro", "address_1": "2529 5th Ave", "address_2": null, "address_3": null, "city": "Rock Island", "state_province": "Illinois", "postal_code": "61201", "country": "United States", "longitude": "-90.50132856", "latitude": "41.51035669", "phone": "3095580878", "website_url": "http://www.wakebrewing.com", "state": "Illinois", "street": "2529 5th Ave"}, {"id": "07fc25d5-1782-4022-a941-305925d8c9ab", "name": "Waldmann Brewery & Wurstery", "brewery_type": "brewpub", "address_1": "445 Smith Ave N", "address_2": null, "address_3": null, "city": "Saint Paul", "state_province": "Minnesota", "postal_code": "55102-2725", "country": "United States", "longitude": null, "latitude": null, "phone": "6512221857", "website_url": "http://www.waldmannbrewery.com", "state": "Minnesota", "street": "445 Smith Ave N"}, {"id": "d046c044-cd15-464d-87b0-2bb25e634200", "name": "Walkabout Brewing Co", "brewery_type": "micro", "address_1": "921 Mason Way", "address_2": null, "address_3": null, "city": "Medford", "state_province": "Oregon", "postal_code": "97501", "country": "United States", "longitude": "-122.9027355", "latitude": "42.34806544", "phone": "5417344677", "website_url": null, "state": "Oregon", "street": "921 Mason Way"}, {"id": "bbd5c52e-ce60-4b89-a0fe-6c5f15324f40", "name": "Walking Man Brewing Co", "brewery_type": "micro", "address_1": "240 SW 1st St", "address_2": null, "address_3": null, "city": "Stevenson", "state_province": "Washington", "postal_code": "98648-6649", "country": "United States", "longitude": null, "latitude": null, "phone": "5094275520", "website_url": "http://www.walkingmanbeer.com", "state": "Washington", "street": "240 SW 1st St"}, {"id": "eadec31f-a82e-40c6-97ce-a160689e95cd", "name": "Walking Tree Brewery", "brewery_type": "micro", "address_1": "3209 Dodger Rd", "address_2": null, "address_3": null, "city": "Vero Beach", "state_province": "Florida", "postal_code": "32960-7976", "country": "United States", "longitude": "-80.41852475", "latitude": "27.6455742", "phone": "3055623717", "website_url": "http://www.walkingtreebrewery.com", "state": "Florida", "street": "3209 Dodger Rd"}, {"id": "58d8f296-48fb-4385-bdfe-88ecc9d2684f", "name": "Wallace Brewing Co", "brewery_type": "micro", "address_1": "610 Bank St", "address_2": null, "address_3": null, "city": "Wallace", "state_province": "Idaho", "postal_code": "83873-2227", "country": "United States", "longitude": "-115.9227103", "latitude": "47.47153133", "phone": "2085565600", "website_url": "http://www.wallacebrewing.com", "state": "Idaho", "street": "610 Bank St"}, {"id": "6a6b79df-5cd8-4b54-9cf7-021fd47069bb", "name": "Walldorff Brewpub & Bistro", "brewery_type": "brewpub", "address_1": "105 E State St", "address_2": null, "address_3": null, "city": "Hastings", "state_province": "Michigan", "postal_code": "49058-1808", "country": "United States", "longitude": "-85.284584", "latitude": "42.6487487", "phone": "2699454400", "website_url": "http://www.walldorffbrewpub.com", "state": "Michigan", "street": "105 E State St"}, {"id": "6a7acc2e-1fd6-47a7-ab20-83ac86aad50c", "name": "Wallenpaupack Brewing Company", "brewery_type": "brewpub", "address_1": "73 Welwood Ave", "address_2": null, "address_3": null, "city": "Hawley", "state_province": "Pennsylvania", "postal_code": "18428-1500", "country": "United States", "longitude": "-75.17619182", "latitude": "41.46873956", "phone": "5703907933", "website_url": "http://www.wallenpaupackbrewingco.com", "state": "Pennsylvania", "street": "73 Welwood Ave"}, {"id": "32cee56d-132f-404d-a744-598476b6351c", "name": "Walnut River Brewing Company", "brewery_type": "micro", "address_1": "111 W Locust Ave", "address_2": null, "address_3": null, "city": "El Dorado", "state_province": "Kansas", "postal_code": "67042-3513", "country": "United States", "longitude": "-96.85004869", "latitude": "37.81367549", "phone": "3163518086", "website_url": "http://www.walnutriverbrewing.com", "state": "Kansas", "street": "111 W Locust Ave"}, {"id": "506021c9-6f03-49a4-b7f2-55f68f23f365", "name": "Walter Brewing Company", "brewery_type": "micro", "address_1": "126 Oneida St", "address_2": null, "address_3": null, "city": "Pueblo", "state_province": "Colorado", "postal_code": "81003-3424", "country": "United States", "longitude": "-104.6103677", "latitude": "38.26241645", "phone": "7195420766", "website_url": "http://www.waltersbeer.com", "state": "Colorado", "street": "126 Oneida St"}]