[{"id": "36d6a22f-9824-44f8-b095-9435e0314276", "name": "Corbett Brewing Company", "brewery_type": "micro", "address_1": "309 E 7th St", "address_2": null, "address_3": null, "city": "Tucson", "state_province": "Arizona", "postal_code": "85705", "country": "United States", "longitude": "-110.96679", "latitude": "32.22634085", "phone": null, "website_url": null, "state": "Arizona", "street": "309 E 7th St"}, {"id": "48997c3a-bfc2-4a18-9fb0-37882a9c5fdb", "name": "Corcoran Brewing", "brewery_type": "micro", "address_1": "205 Hirst Rd Ste 105", "address_2": null, "address_3": null, "city": "Purcellville", "state_province": "Virginia", "postal_code": "20132-6199", "country": "United States", "longitude": "-77.71365587", "latitude": "39.14390693", "phone": "5408829073", "website_url": "http://www.corcoranbrewing.com", "state": "Virginia", "street": "205 Hirst Rd Ste 105"}, {"id": "c614c0cf-6aa1-4e5a-b295-cbb5c951594c", "name": "Core Brewing - Hot Springs", "brewery_type": "brewpub", "address_1": "833 Central Ave", "address_2": null, "address_3": null, "city": "Hot Springs National Park", "state_province": "Arkansas", "postal_code": "71901", "country": "United States", "longitude": null, "latitude": null, "phone": "4793068898", "website_url": null, "state": "Arkansas", "street": "833 Central Ave"}, {"id": "c4faa1d2-a2b6-4f9d-b725-be2423d56d6c", "name": "Core Brewing - SoMa", "brewery_type": "brewpub", "address_1": "1214 S. Main St", "address_2": null, "address_3": null, "city": "Little Rock", "state_province": "Arkansas", "postal_code": "72202", "country": "United States", "longitude": null, "latitude": null, "phone": "4793068898", "website_url": null, "state": "Arkansas", "street": "1214 S. Main St"}, {"id": "db2a9bf5-2c02-4f7f-af91-76a96aee2e31", "name": "Core Brewing & Distilling Co", "brewery_type": "micro", "address_1": "2470 N Lowell Rd Ste A3", "address_2": null, "address_3": null, "city": "Springdale", "state_province": "Arkansas", "postal_code": "72764-1819", "country": "United States", "longitude": null, "latitude": null, "phone": "4793068898", "website_url": "http://www.corebeer.com", "state": "Arkansas", "street": "2470 N Lowell Rd Ste A3"}, {"id": "1a7ee0ba-4199-42c1-845a-c41800af60d8", "name": "Corner Pub", "brewery_type": "brewpub", "address_1": "100 E Main St Lowr", "address_2": null, "address_3": null, "city": "Reedsburg", "state_province": "Wisconsin", "postal_code": "53959-1967", "country": "United States", "longitude": null, "latitude": null, "phone": "6085248989", "website_url": null, "state": "Wisconsin", "street": "100 E Main St Lowr"}, {"id": "d2f08212-1e67-4c5e-bd67-371a41000fa3", "name": "Cornerstone Brewing Co", "brewery_type": "brewpub", "address_1": "58 Front St", "address_2": null, "address_3": null, "city": "Berea", "state_province": "Ohio", "postal_code": "44017-1911", "country": "United States", "longitude": "-81.85304867", "latitude": "41.36685385", "phone": "4402399820", "website_url": null, "state": "Ohio", "street": "58 Front St"}, {"id": "ec621443-0cb1-44c5-9b60-0ee49bc0b672", "name": "Cornerstone Brewing Co", "brewery_type": "brewpub", "address_1": "70 W  Main St", "address_2": null, "address_3": null, "city": "Madison", "state_province": "Ohio", "postal_code": "44057-3126", "country": "United States", "longitude": "-81.04814066", "latitude": "41.77136994", "phone": "4402399820", "website_url": null, "state": "Ohio", "street": "70 W  Main St"}, {"id": "95a442ca-6893-4e6a-abc2-1c51f125fefa", "name": "Coronado Brewing Co", "brewery_type": "regional", "address_1": "170 Orange Ave", "address_2": null, "address_3": null, "city": "Coronado", "state_province": "California", "postal_code": "92118-1409", "country": "United States", "longitude": "-117.1791416", "latitude": "32.6873641", "phone": "6194374452", "website_url": "http://www.coronadobrewingcompany.com", "state": "California", "street": "170 Orange Ave"}, {"id": "8e3d6cd2-c95c-432e-963d-2f0c4beb5dfd", "name": "Coronado Brewing Co - Production Facility", "brewery_type": "regional", "address_1": "170 Orange Ave", "address_2": null, "address_3": null, "city": "San Diego", "state_province": "California", "postal_code": "92118-1409", "country": "United States", "longitude": "-117.094383", "latitude": "32.753124", "phone": "6192752215", "website_url": null, "state": "California", "street": "170 Orange Ave"}, {"id": "f851b4a2-b3f0-49c3-9691-ab4622da8a06", "name": "Corrales Bistro Brewery", "brewery_type": "brewpub", "address_1": "4908 Corrales Rd", "address_2": null, "address_3": null, "city": "Corrales", "state_province": "New Mexico", "postal_code": "87048-8613", "country": "United States", "longitude": "-106.6127225", "latitude": "35.2298508", "phone": "5058971036", "website_url": "http://www.cbbistro.com", "state": "New Mexico", "street": "4908 Corrales Rd"}, {"id": "7dbb664f-ef54-4385-b8ea-c9d3a05c2672", "name": "Corralitos Brewing Co", "brewery_type": "micro", "address_1": "2536 Freedom Blvd", "address_2": null, "address_3": null, "city": "Watsonville", "state_province": "California", "postal_code": "95076-1046", "country": "United States", "longitude": "-121.7623105", "latitude": "36.9239241", "phone": "8317282311", "website_url": "http://www.corralitosbrewingco.com", "state": "California", "street": "2536 Freedom Blvd"}, {"id": "99bf7864-8bb8-44cb-a933-49a45b5e47af", "name": "Corridor Brewery & Provisions", "brewery_type": "brewpub", "address_1": "3446 N Southport Ave", "address_2": null, "address_3": null, "city": "Chicago", "state_province": "Illinois", "postal_code": "60657-1420", "country": "United States", "longitude": "-87.6643524", "latitude": "41.9447594", "phone": "7732704272", "website_url": null, "state": "Illinois", "street": "3446 N Southport Ave"}, {"id": "e5a5016b-e1ce-41c3-aad2-5fd4f1f390e7", "name": "Corsair Artisan LLC", "brewery_type": "micro", "address_1": "1200 Clinton St Ste 110", "address_2": null, "address_3": null, "city": "Nashville", "state_province": "Tennessee", "postal_code": "37203-2894", "country": "United States", "longitude": "-86.794546", "latitude": "36.165123", "phone": "6152000320", "website_url": "http://www.corsairartisan.com", "state": "Tennessee", "street": "1200 Clinton St Ste 110"}, {"id": "5fbf4428-9456-456a-825d-1ce55e02d3a3", "name": "Cortland Beer Company", "brewery_type": "micro", "address_1": "16 Court St", "address_2": null, "address_3": null, "city": "Cortland", "state_province": "New York", "postal_code": "13045-2604", "country": "United States", "longitude": "-76.17989771", "latitude": "42.5994031", "phone": "6076624389", "website_url": "http://www.cortlandbeer.com", "state": "New York", "street": "16 Court St"}, {"id": "6af2f2c7-5ed1-4f30-86b9-9a8533d01527", "name": "Cosmic Brewery", "brewery_type": "micro", "address_1": "20316 Gramercy Pl", "address_2": null, "address_3": null, "city": "Torrance", "state_province": "California", "postal_code": "90501-1511", "country": "United States", "longitude": "-118.3131167", "latitude": "33.84500094", "phone": "4242592337", "website_url": "http://www.cosmicbrewery.com", "state": "California", "street": "20316 Gramercy Pl"}, {"id": "6b743f23-0d8a-4cb5-9ea1-2fdaad3dde93", "name": "Cosmic Eye Brewing", "brewery_type": "micro", "address_1": "6800 P St #300", "address_2": null, "address_3": null, "city": "Lincoln", "state_province": "Nebraska", "postal_code": "68505-2463", "country": "United States", "longitude": "-96.6271153", "latitude": "40.8154683", "phone": "5315002739", "website_url": "http://www.cosmiceye.beer", "state": "Nebraska", "street": "6800 P St #300"}, {"id": "d452871c-f0c1-44a2-b67b-fc50fd3d48d2", "name": "Cosmos Brewing", "brewery_type": "micro", "address_1": "9480 140th St N", "address_2": null, "address_3": null, "city": "Hugo", "state_province": "Minnesota", "postal_code": "55038-9411", "country": "United States", "longitude": "-92.91372949", "latitude": "45.15266627", "phone": "6512699199", "website_url": "http://www.cosmosbrewing.com", "state": "Minnesota", "street": "9480 140th St N"}, {"id": "55191259-586a-4fb8-9050-33b7e0540a74", "name": "Costa Ventosa Winery & Vineyard", "brewery_type": "brewpub", "address_1": "9031 Whaleyville Rd", "address_2": null, "address_3": null, "city": "Whaleyville", "state_province": "Maryland", "postal_code": "21872-2116", "country": "United States", "longitude": "-75.26004107", "latitude": "38.42358687", "phone": "4433339867", "website_url": "http://www.costaventosa.com", "state": "Maryland", "street": "9031 Whaleyville Rd"}, {"id": "66970f3f-1984-473a-9a3c-2dc092f54c7a", "name": "CoStar Brewing Inc.", "brewery_type": "micro", "address_1": "919 N Saint Clair St", "address_2": null, "address_3": null, "city": "Pittsburgh", "state_province": "Pennsylvania", "postal_code": "15206-2133", "country": "United States", "longitude": "-79.9232026", "latitude": "40.4726062", "phone": null, "website_url": null, "state": "Pennsylvania", "street": "919 N Saint Clair St"}, {"id": "b6e76a2f-fd9e-442e-afe8-09395bd1f4c4", "name": "Costellos Brewing Company", "brewery_type": "micro", "address_1": "58D Hebron Industrial Estate", "address_2": "Hebron Road", "address_3": null, "city": "Kilkenny", "state_province": "Kilkenny", "postal_code": "R95 AFN8", "country": "Ireland", "longitude": "-7.2312229", "latitude": "52.6542803", "phone": "353868102320", "website_url": "http://www.costellosbrewco.ie/", "state": "Kilkenny", "street": "58D Hebron Industrial Estate"}, {"id": "c1a44969-f495-4182-9ae1-0736234cbdb7", "name": "Cotee River Brewing Company", "brewery_type": "planning", "address_1": null, "address_2": null, "address_3": null, "city": "New Port Richey", "state_province": "Florida", "postal_code": "34652", "country": "United States", "longitude": null, "latitude": null, "phone": null, "website_url": "http://www.coteeriverbrewing.com", "state": "Florida", "street": null}, {"id": "882de869-8767-4dcc-9c5e-56ef4e3390a1", "name": "Cotton Ball Brewing Company", "brewery_type": "brewpub", "address_1": "18 Old Youghal Road", "address_2": null, "address_3": null, "city": "Mayfield", "state_province": "Cork", "postal_code": "T23 AE78", "country": "Ireland", "longitude": "-8.4340922", "latitude": "51.9132877", "phone": "353214503096", "website_url": "https://www.cottonball.ie/", "state": "Cork", "street": "18 Old Youghal Road"}, {"id": "d2d3de44-bc8b-4fcc-921d-2340cc0bf346", "name": "Cotton Brewing Co", "brewery_type": "brewpub", "address_1": "626 Oak St", "address_2": null, "address_3": null, "city": "Adrian", "state_province": "Michigan", "postal_code": "49221-3367", "country": "United States", "longitude": "-84.02463418", "latitude": "41.89136136", "phone": "5179026608", "website_url": "http://www.cottonbrewing.com", "state": "Michigan", "street": "626 Oak St"}, {"id": "9b04a566-cc87-47d5-9ba5-d13a35517ea4", "name": "CottonTown Brew Lab", "brewery_type": "micro", "address_1": "1223 Franklin St", "address_2": null, "address_3": null, "city": "Columbia", "state_province": "South Carolina", "postal_code": "29201-1958", "country": "United States", "longitude": "-81.04004014", "latitude": "34.01695029", "phone": "8444273952", "website_url": "http://www.ctbl.asurewebsites.net", "state": "South Carolina", "street": "1223 Franklin St"}, {"id": "760afc6b-a382-428e-b9d4-074e683f7abc", "name": "Cottrell Brewing Co", "brewery_type": "closed", "address_1": "100 Mechanic St", "address_2": null, "address_3": null, "city": "Pawcatuck", "state_province": "Connecticut", "postal_code": "06379-2163", "country": "United States", "longitude": "-71.834289", "latitude": "41.370676", "phone": "8605998213", "website_url": "http://www.cottrellbrewing.com", "state": "Connecticut", "street": "100 Mechanic St"}, {"id": "93d051c6-ba2f-4132-a8e3-27d892133bf2", "name": "Couch Brewery", "brewery_type": "micro", "address_1": "1351 Washington Blvd", "address_2": null, "address_3": null, "city": "Pittsburgh", "state_province": "Pennsylvania", "postal_code": "15206-1801", "country": "United States", "longitude": "-79.9090141", "latitude": "40.4695304", "phone": "4124411724", "website_url": "http://www.couchbrewery.com", "state": "Pennsylvania", "street": "1351 Washington Blvd"}, {"id": "f17f30c2-ad58-4d64-adee-493df68df07d", "name": "Council Brewing - Magic Factory", "brewery_type": "micro", "address_1": "7705 Convoy Ct", "address_2": null, "address_3": null, "city": "San Diego", "state_province": "California", "postal_code": "92111-1113", "country": "United States", "longitude": "-117.1544092", "latitude": "32.83466296", "phone": "8582560038", "website_url": null, "state": "California", "street": "7705 Convoy Ct"}, {"id": "4c805f48-4d8e-4ec5-81f5-7585daa8a34f", "name": "Council Brewing Company", "brewery_type": "micro", "address_1": "7705 Convoy Ct", "address_2": null, "address_3": null, "city": "San Diego", "state_province": "California", "postal_code": "92111-1105", "country": "United States", "longitude": "-117.1544092", "latitude": "32.83466296", "phone": "8582560038", "website_url": "http://www.councilbrew.com", "state": "California", "street": "7705 Convoy Ct"}, {"id": "69014e74-5051-4ea1-b08e-4568d5318ba3", "name": "Council Brewing Company", "brewery_type": "micro", "address_1": "9962 Prospect Ave", "address_2": null, "address_3": null, "city": "Santee", "state_province": "California", "postal_code": "92071", "country": "United States", "longitude": "-116.97958", "latitude": "32.832115", "phone": null, "website_url": null, "state": "California", "street": "9962 Prospect Ave"}, {"id": "22dd315d-ec60-4af1-b125-88c3a4a4ff78", "name": "Council Rock Brewery", "brewery_type": "brewpub", "address_1": "4861 State Highway 28 Ste 3", "address_2": null, "address_3": null, "city": "Cooperstown", "state_province": "New York", "postal_code": "13326-5229", "country": "United States", "longitude": null, "latitude": null, "phone": "6076433016", "website_url": "http://www.councilrockbrewery.com", "state": "New York", "street": "4861 State Highway 28 Ste 3"}, {"id": "dc26c773-cddd-48f4-9440-39d5a3f46cc9", "name": "Counterbalance Brewing Company", "brewery_type": "micro", "address_1": "503 S Michigan St Ste B", "address_2": null, "address_3": null, "city": "Seattle", "state_province": "Washington", "postal_code": "98108-3305", "country": "United States", "longitude": "-122.3279252", "latitude": "47.54555555", "phone": "2064533615", "website_url": "http://www.counterbalancebeer.com", "state": "Washington", "street": "503 S Michigan St Ste B"}, {"id": "4c0b81d7-1000-4ca1-b3cf-b6ccbd609113", "name": "Counterweight Brewing Company", "brewery_type": "micro", "address_1": "23 Raccio Park Rd", "address_2": null, "address_3": null, "city": "Hamden", "state_province": "Connecticut", "postal_code": "06514-1331", "country": "United States", "longitude": "-72.91955341", "latitude": "41.39321167", "phone": "2038217333", "website_url": "http://www.Counterweightbrewing.com", "state": "Connecticut", "street": "23 Raccio Park Rd"}, {"id": "228fc595-71eb-495b-96a8-5a7acb17af38", "name": "Country Boy Brewing", "brewery_type": "micro", "address_1": "436 Chair Ave", "address_2": null, "address_3": null, "city": "Lexington", "state_province": "Kentucky", "postal_code": "40508-3106", "country": "United States", "longitude": "-84.50925267", "latitude": "38.0439487", "phone": null, "website_url": "http://www.countryboybrewing.com", "state": "Kentucky", "street": "436 Chair Ave"}, {"id": "d840dd52-0f36-461f-ab74-95e588f9a02f", "name": "Country Boy Brewing - Georgetown", "brewery_type": "micro", "address_1": "108 Corporate Dr", "address_2": null, "address_3": null, "city": "Georgetown", "state_province": "Kentucky", "postal_code": "40324-0000", "country": "United States", "longitude": null, "latitude": null, "phone": "8595882118", "website_url": null, "state": "Kentucky", "street": "108 Corporate Dr"}, {"id": "0a7c8d20-eaa1-4141-8edf-bb597c195aa5", "name": "Country Town Farm Brewery", "brewery_type": "planning", "address_1": null, "address_2": null, "address_3": null, "city": "Friendship", "state_province": "New York", "postal_code": "14739", "country": "United States", "longitude": null, "latitude": null, "phone": "5858088995", "website_url": null, "state": "New York", "street": null}, {"id": "40450ecb-b207-4de1-9c51-2d7a3f435d6d", "name": "County Line Brewing", "brewery_type": "micro", "address_1": "9115 W Chinden Blvd Ste 107", "address_2": null, "address_3": null, "city": "Garden City", "state_province": "Idaho", "postal_code": "83714-1903", "country": "United States", "longitude": "-116.295667", "latitude": "43.655342", "phone": "2088302456", "website_url": "http://www.countylinebrewing.com", "state": "Idaho", "street": "9115 W Chinden Blvd Ste 107"}, {"id": "7b07c312-aee4-4132-a4ac-12953862f003", "name": "Court Avenue Brewing Co", "brewery_type": "brewpub", "address_1": "309 Court Ave Ste 100", "address_2": null, "address_3": null, "city": "Des Moines", "state_province": "Iowa", "postal_code": "50309-2230", "country": "United States", "longitude": "-93.620995", "latitude": "41.585503", "phone": "5152822739", "website_url": "http://www.courtavebrew.com", "state": "Iowa", "street": "309 Court Ave Ste 100"}, {"id": "68920a21-7bf7-4655-a5d3-824df9feec4d", "name": "Courthouse Pub", "brewery_type": "brewpub", "address_1": "1001 S 8th St", "address_2": null, "address_3": null, "city": "Manitowoc", "state_province": "Wisconsin", "postal_code": "54220-5307", "country": "United States", "longitude": "-87.65789588", "latitude": "44.08950638", "phone": "9206861166", "website_url": "http://www.courthousepub.com", "state": "Wisconsin", "street": "1001 S 8th St"}, {"id": "d03076eb-f3a5-433b-b279-858f86c5a8cf", "name": "Cousins Revolution Ale Works", "brewery_type": "micro", "address_1": "1582 US 9", "address_2": null, "address_3": null, "city": "Wappingers Falls", "state_province": "New York", "postal_code": "12590", "country": "United States", "longitude": "-73.91146279", "latitude": "41.59803345", "phone": "8452932739", "website_url": "http://www.cousinsrevolution.com", "state": "New York", "street": "1582 US 9"}, {"id": "2176565e-02ee-4977-bcc4-b460b3388ec0", "name": "Covered Bridge Brewhaus Taproom", "brewery_type": "micro", "address_1": "506 N 8th St", "address_2": null, "address_3": null, "city": "Shamokin", "state_province": "Pennsylvania", "postal_code": "17872-5302", "country": "United States", "longitude": "-76.55682084", "latitude": "40.79076037", "phone": "5702054867", "website_url": "http://squareup.com/store/covered-bridge-brewhaus", "state": "Pennsylvania", "street": "506 N 8th St"}, {"id": "5598d62b-3e30-487b-b3b6-a7c6044f69ef", "name": "Covert Artisan Ales & Cellars", "brewery_type": "micro", "address_1": "434 East 8th Street", "address_2": null, "address_3": null, "city": "Sioux Falls", "state_province": "South Dakota", "postal_code": "57103-7025", "country": "United States", "longitude": "-96.72165409", "latitude": "43.54942193", "phone": "6053895954", "website_url": "http://www.covertartisanales.com", "state": "South Dakota", "street": "434 East 8th Street"}, {"id": "11ca4b21-c34e-4857-9434-b1f264140524", "name": "Covington Brewhouse", "brewery_type": "micro", "address_1": "226 E Lockwood St", "address_2": null, "address_3": null, "city": "Covington", "state_province": "Louisiana", "postal_code": "70433-2828", "country": "United States", "longitude": "-90.0970557", "latitude": "30.47766326", "phone": "9858932884", "website_url": "http://www.covingtonbrewhouse.com", "state": "Louisiana", "street": "226 E Lockwood St"}, {"id": "516bd83f-0eea-42c2-9ba7-30f987fabd39", "name": "Cowboy State Brewing", "brewery_type": "micro", "address_1": "316 S Birch St", "address_2": null, "address_3": null, "city": "Glenrock", "state_province": "Wyoming", "postal_code": "82637", "country": "United States", "longitude": null, "latitude": null, "phone": "3077971224", "website_url": null, "state": "Wyoming", "street": "316 S Birch St"}, {"id": "92e68f4e-6f53-436e-85e6-1a323133a8b2", "name": "Cowiche Creek Brewing Company", "brewery_type": "micro", "address_1": "514 Thompson Rd BLDG #2", "address_2": null, "address_3": null, "city": "Cowiche", "state_province": "Washington", "postal_code": "98923-9734", "country": "United States", "longitude": "-120.6861127", "latitude": "46.65677362", "phone": "5096780324", "website_url": "http://www.cowichecreekbrewing.com", "state": "Washington", "street": "514 Thompson Rd BLDG #2"}, {"id": "7a0c3abf-985d-4803-abdb-bc6130e9328a", "name": "Cowtown Brewing Company", "brewery_type": "planning", "address_1": null, "address_2": null, "address_3": null, "city": "Fort Worth", "state_province": "Texas", "postal_code": "76102-2408", "country": "United States", "longitude": null, "latitude": null, "phone": null, "website_url": "http://www.cowtownbrewco.com", "state": "Texas", "street": null}, {"id": "03299f31-afc3-43e4-b7be-0270a0fe0bc8", "name": "CR Brewing Company", "brewery_type": "brewpub", "address_1": "3009 Wilmington Rd", "address_2": null, "address_3": null, "city": "New Castle", "state_province": "Pennsylvania", "postal_code": "16105", "country": "United States", "longitude": "-80.3493196", "latitude": "41.0103937", "phone": "4122987053", "website_url": "http://www.crbrewingcompany.com", "state": "Pennsylvania", "street": "3009 Wilmington Rd"}, {"id": "759b1509-489e-46d1-a91c-d61401cc7888", "name": "Crabtree Brewing", "brewery_type": "micro", "address_1": "2961 W 29th St", "address_2": null, "address_3": null, "city": "Greeley", "state_province": "Colorado", "postal_code": "80631-8538", "country": "United States", "longitude": "-104.7875038", "latitude": "40.3899004", "phone": "9703560516", "website_url": "http://www.crabtreebrewing.com", "state": "Colorado", "street": "2961 W 29th St"}, {"id": "728019cb-061f-45e9-b3af-6b8ea811258d", "name": "CRAFT 64", "brewery_type": "contract", "address_1": "6922 E Main St", "address_2": null, "address_3": null, "city": "Scottsdale", "state_province": "Arizona", "postal_code": "85251-4312", "country": "United States", "longitude": "-111.9319271", "latitude": "33.493153", "phone": "4809460542", "website_url": "http://www.craft64.com", "state": "Arizona", "street": "6922 E Main St"}, {"id": "f1ad22f6-3935-4c9c-8bc5-25352671145a", "name": "Craft Artisan Ales", "brewery_type": "contract", "address_1": null, "address_2": null, "address_3": null, "city": "Pacific Grove", "state_province": "California", "postal_code": "93950-7093", "country": "United States", "longitude": "-121.9155906", "latitude": "36.6174432", "phone": "8317177543", "website_url": null, "state": "California", "street": null}, {"id": "312232fc-cbec-44aa-bc5b-85cac76e3c43", "name": "Craft Brewing Company", "brewery_type": "micro", "address_1": "530 Crane St", "address_2": null, "address_3": null, "city": "Lake Elsinore", "state_province": "California", "postal_code": "92530-2779", "country": "United States", "longitude": "-117.3402489", "latitude": "33.68673832", "phone": "9516742562", "website_url": "http://www.craftbrewibgcompany.com", "state": "California", "street": "530 Crane St"}, {"id": "4a093277-4333-401e-b484-b231145a0d26", "name": "Craft Kitchen and Brewery", "brewery_type": "brewpub", "address_1": "62988 Layton Ave Ste 103", "address_2": null, "address_3": null, "city": "Bend", "state_province": "Oregon", "postal_code": "97701-6692", "country": "United States", "longitude": "-121.2903651", "latitude": "44.08719318", "phone": "5416681766", "website_url": "http://www.craftkitchenandbrewery.com", "state": "Oregon", "street": "62988 Layton Ave Ste 103"}, {"id": "52048a4e-8f81-4515-bc5e-9289da7fcead", "name": "Craft Life Brewing", "brewery_type": "micro", "address_1": "2624 Land O Lakes Blvd", "address_2": null, "address_3": null, "city": "Land O Lakes", "state_province": "Florida", "postal_code": "34639-4910", "country": "United States", "longitude": "-82.46477873", "latitude": "28.19614552", "phone": "8135758440", "website_url": null, "state": "Florida", "street": "2624 Land O Lakes Blvd"}, {"id": "c98eac57-3377-45db-aadb-1abe12395e10", "name": "CraftHaus Brewery", "brewery_type": "micro", "address_1": "7350 Eastgate Rd Ste 110", "address_2": null, "address_3": null, "city": "Henderson", "state_province": "Nevada", "postal_code": "89011-4071", "country": "United States", "longitude": null, "latitude": null, "phone": "7024159184", "website_url": "http://www.crafthausbrewery.com", "state": "Nevada", "street": "7350 Eastgate Rd Ste 110"}, {"id": "200b3434-8f97-4a9d-a072-fcb7379b31d5", "name": "CRAFTROOT", "brewery_type": "brewpub", "address_1": "418,Gwangwang-ro", "address_2": null, "address_3": null, "city": "Sokcho-si", "state_province": "Gangwondo", "postal_code": "24859", "country": "South Korea", "longitude": "128.5377122", "latitude": "38.19724237", "phone": "070-8872-1001", "website_url": "https://craftroot.co.kr/", "state": "Gangwondo", "street": "418,Gwangwang-ro"}, {"id": "26292d30-c367-4055-937b-c5c56aa6e170", "name": "CraftRoots Brewing, LLC.", "brewery_type": "micro", "address_1": "4 Industrial Rd Ste 8", "address_2": null, "address_3": null, "city": "Milford", "state_province": "Massachusetts", "postal_code": "01757-3589", "country": "United States", "longitude": null, "latitude": null, "phone": "5083811920", "website_url": "http://www.craftrootsbrewing.com", "state": "Massachusetts", "street": "4 Industrial Rd Ste 8"}, {"id": "de955cfc-52a1-41d5-97ad-04a85688e434", "name": "Craftsman Brewing Co", "brewery_type": "micro", "address_1": "1260 Lincoln Ave Ste 100", "address_2": null, "address_3": null, "city": "Pasadena", "state_province": "California", "postal_code": "91103-2465", "country": "United States", "longitude": "-118.1595567", "latitude": "34.1674435", "phone": "6262962537", "website_url": "http://www.craftsmanbrewing.com", "state": "California", "street": "1260 Lincoln Ave Ste 100"}, {"id": "e2c9b160-77d6-428d-ae99-4351cb2b3405", "name": "Craftwerk Orange Brewing Company", "brewery_type": "planning", "address_1": null, "address_2": null, "address_3": null, "city": "West Orange", "state_province": "New Jersey", "postal_code": "07052-2513", "country": "United States", "longitude": null, "latitude": null, "phone": "2012482021", "website_url": "http://www.craftwerkorange.com", "state": "New Jersey", "street": null}, {"id": "07e53361-7ae0-4101-a7e9-20e19f0583c5", "name": "Crafty Ales and Lagers", "brewery_type": "micro", "address_1": "2 Exchange St", "address_2": null, "address_3": null, "city": "Phelps", "state_province": "New York", "postal_code": "14532-1010", "country": "United States", "longitude": "-77.056976", "latitude": "42.9579011", "phone": "3153321606", "website_url": "http://www.drinkcraftyales.com", "state": "New York", "street": "2 Exchange St"}, {"id": "fb02d8d4-a2ef-4056-b04a-375abc215382", "name": "Crafty Bastard Brewery", "brewery_type": "micro", "address_1": "6 Emory Pl", "address_2": null, "address_3": null, "city": "Knoxville", "state_province": "Tennessee", "postal_code": "37917-7317", "country": "United States", "longitude": null, "latitude": null, "phone": "8657552358", "website_url": "http://www.craftybastardbrewery.com", "state": "Tennessee", "street": "6 Emory Pl"}, {"id": "579a7124-2729-4320-97d4-7ae1e3405562", "name": "Crane Brewing Company", "brewery_type": "micro", "address_1": "6515 Railroad St", "address_2": null, "address_3": null, "city": "Raytown", "state_province": "Missouri", "postal_code": "64133-5210", "country": "United States", "longitude": "-94.46290138", "latitude": "39.00524272", "phone": "8167434132", "website_url": "http://www.cranebrewing.com", "state": "Missouri", "street": "6515 Railroad St"}, {"id": "b7776714-4506-42c0-8400-2fc05a1d86e6", "name": "Crane's Castle Brewing", "brewery_type": "micro", "address_1": "1550 NE Riddell Rd #180", "address_2": null, "address_3": null, "city": "Bremerton", "state_province": "Washington", "postal_code": "98310-3059", "country": "United States", "longitude": "-122.6298609", "latitude": "47.60799154", "phone": "3607282926", "website_url": "https://cranescastlebeer.com/", "state": "Washington", "street": "1550 NE Riddell Rd #180"}, {"id": "8d3a51f6-de81-4434-a662-9e7f7f7390bf", "name": "Crank Arm Brewing Co", "brewery_type": "micro", "address_1": "319 W Davie St", "address_2": null, "address_3": null, "city": "Raleigh", "state_province": "North Carolina", "postal_code": "27601-1718", "country": "United States", "longitude": "-78.64405", "latitude": "35.7756043", "phone": null, "website_url": "http://www.crankarmbrewing.com", "state": "North Carolina", "street": "319 W Davie St"}, {"id": "7925a3a2-254e-4112-b9d8-0ab1af31664c", "name": "Cranker's Brewery", "brewery_type": "brewpub", "address_1": "213 S State St", "address_2": null, "address_3": null, "city": "Big Rapids", "state_province": "Michigan", "postal_code": "49307-1758", "country": "United States", "longitude": "-85.483723", "latitude": "43.688013", "phone": "2317961919", "website_url": null, "state": "Michigan", "street": "213 S State St"}, {"id": "6fd44e32-4616-4f8d-9925-85a724dc188c", "name": "Cranker's Restaurant & Brewery", "brewery_type": "brewpub", "address_1": "454 68th St SW", "address_2": null, "address_3": null, "city": "Grand Rapids", "state_province": "Michigan", "postal_code": "49548-7115", "country": "United States", "longitude": null, "latitude": null, "phone": "6168271919", "website_url": "http://www.crankersbrewery.com", "state": "Michigan", "street": "454 68th St SW"}, {"id": "d89a9d3f-30ff-45ff-9ae7-ca09c96d0484", "name": "Cranker's Restaurant & Brewery", "brewery_type": "brewpub", "address_1": "1207 E Pickard St", "address_2": null, "address_3": null, "city": "Mount Pleasant", "state_province": "Michigan", "postal_code": "48858-1901", "country": "United States", "longitude": "-84.76071102", "latitude": "43.61176916", "phone": "9897791919", "website_url": "http://www.crankersbrewery.com", "state": "Michigan", "street": "1207 E Pickard St"}, {"id": "241d6bd0-f1c6-482b-8419-f48db87cc119", "name": "Crasian Brewing Co", "brewery_type": "micro", "address_1": "207 S Railroad St Ste B", "address_2": null, "address_3": null, "city": "Brookston", "state_province": "Indiana", "postal_code": "47923-8137", "country": "United States", "longitude": null, "latitude": null, "phone": "7655638339", "website_url": "http://www.crasianbrewing.com", "state": "Indiana", "street": "207 S Railroad St Ste B"}, {"id": "15453364-b83a-45cf-9aa9-e6ff5997fb45", "name": "Cravings Bistro & Pub", "brewery_type": "brewpub", "address_1": "1599 Mall Dr Ste B", "address_2": null, "address_3": null, "city": "Benton Harbor", "state_province": "Michigan", "postal_code": "49022-2330", "country": "United States", "longitude": null, "latitude": null, "phone": "2699349700", "website_url": null, "state": "Michigan", "street": "1599 Mall Dr Ste B"}, {"id": "7b60c65d-c7a2-474b-8d5b-83dc4744b4c9", "name": "Crawford Brew Works", "brewery_type": "micro", "address_1": "3659 Devils Glen Rd", "address_2": null, "address_3": null, "city": "Bettendorf", "state_province": "Iowa", "postal_code": "52722", "country": "United States", "longitude": "-90.48344378", "latitude": "41.55924419", "phone": null, "website_url": null, "state": "Iowa", "street": "3659 Devils Glen Rd"}, {"id": "ca8bfb14-81cf-4c1c-8cd6-78b99cf7b1bd", "name": "Crazy Mountain Brewing Co", "brewery_type": "regional", "address_1": "471 Kalamath St", "address_2": null, "address_3": null, "city": "Denver", "state_province": "Colorado", "postal_code": "80204-5019", "country": "United States", "longitude": "-105.0002926", "latitude": "39.72361171", "phone": "9709263009", "website_url": "http://www.crazymountainbrewery.com", "state": "Colorado", "street": "471 Kalamath St"}, {"id": "8e1f3d7d-6e4a-433d-bdd8-4528d1613f26", "name": "Crazy Williez Brewery", "brewery_type": "contract", "address_1": "546 Silver St", "address_2": null, "address_3": null, "city": "Ilion", "state_province": "New York", "postal_code": "13357", "country": "United States", "longitude": null, "latitude": null, "phone": null, "website_url": null, "state": "New York", "street": "546 Silver St"}, {"id": "9ff5bda3-04ed-48cc-8d63-9c2799a12a42", "name": "Creature Comforts Brewing Co.", "brewery_type": "regional", "address_1": "271 W Hancock Ave", "address_2": null, "address_3": null, "city": "Athens", "state_province": "Georgia", "postal_code": "30601-2727", "country": "United States", "longitude": "-83.380087", "latitude": "33.95919871", "phone": "7064101043", "website_url": "http://www.creaturecomfortsbeer.com", "state": "Georgia", "street": "271 W Hancock Ave"}, {"id": "f4512d6a-51fd-4e2d-b601-f4666490f0a0", "name": "Creature Comforts Production Facility At Southern Mill", "brewery_type": "regional", "address_1": "355 Oneta St Bldg A100", "address_2": null, "address_3": null, "city": "Athens", "state_province": "Georgia", "postal_code": "30601", "country": "United States", "longitude": null, "latitude": null, "phone": null, "website_url": null, "state": "Georgia", "street": "355 Oneta St Bldg A100"}, {"id": "e176038a-98ce-45f7-844a-e3489e34dbb1", "name": "Creatures Of Habit Brewing Co", "brewery_type": "planning", "address_1": null, "address_2": null, "address_3": null, "city": "Anderson", "state_province": "Indiana", "postal_code": "46016-1749", "country": "United States", "longitude": null, "latitude": null, "phone": "7654000116", "website_url": "http://facebook.com/CreaturesBrew/", "state": "Indiana", "street": null}, {"id": "21cd8238-f678-4a95-9cf3-75b34f58d7fa", "name": "Creek Bottom Brew LLC", "brewery_type": "planning", "address_1": null, "address_2": null, "address_3": null, "city": "Oldenburg", "state_province": "Indiana", "postal_code": "47036-9765", "country": "United States", "longitude": null, "latitude": null, "phone": "8122124817", "website_url": "http://www.creekbottombrew.com", "state": "Indiana", "street": null}, {"id": "9cb116be-fc14-4540-9c17-4507cb5595e4", "name": "Creek Bottom Brewing", "brewery_type": "brewpub", "address_1": "307 N Meadow St", "address_2": null, "address_3": null, "city": "Galax", "state_province": "Virginia", "postal_code": "24333-3019", "country": "United States", "longitude": "-80.92094471", "latitude": "36.66708636", "phone": "2762362337", "website_url": "http://www.creekbottombrewing.com", "state": "Virginia", "street": "307 N Meadow St"}, {"id": "6fc2720b-7757-4e50-82cf-6e27c285c590", "name": "Crescent Brewery", "brewery_type": "micro", "address_1": "1521 Front St", "address_2": null, "address_3": null, "city": "Nampa", "state_province": "Idaho", "postal_code": "83651-4331", "country": "United States", "longitude": "-116.5550949", "latitude": "43.57676253", "phone": "2089681034", "website_url": "http://www.crescentbeer.com", "state": "Idaho", "street": "1521 Front St"}, {"id": "f7de41dc-b46c-4ab5-82bd-c437e685b48f", "name": "Crescent City Brewhouse", "brewery_type": "brewpub", "address_1": "527 Decatur St", "address_2": null, "address_3": null, "city": "New Orleans", "state_province": "Louisiana", "postal_code": "70130-1027", "country": "United States", "longitude": "-90.0639242", "latitude": "29.9557185", "phone": "5045220571", "website_url": "http://www.crescentcitybrewhouse.com", "state": "Louisiana", "street": "527 Decatur St"}, {"id": "0e1b23f1-d957-4890-a38c-c21f687b5e96", "name": "Creston Brewery", "brewery_type": "brewpub", "address_1": "1504 Plainfield Ave NE", "address_2": null, "address_3": null, "city": "Grand Rapids", "state_province": "Michigan", "postal_code": "49505-4923", "country": "United States", "longitude": "-85.66252661", "latitude": "42.99120192", "phone": "6168054523", "website_url": "http://www.crestonbrewery.com", "state": "Michigan", "street": "1504 Plainfield Ave NE"}, {"id": "4c16f1b4-9cea-44a9-9ddb-73b8feaa1a5c", "name": "Crestone Brewing Company", "brewery_type": "brewpub", "address_1": "187 West Silver Ave.", "address_2": null, "address_3": null, "city": "Crestone", "state_province": "Colorado", "postal_code": "81131", "country": "United States", "longitude": null, "latitude": null, "phone": "7192566400", "website_url": "http://www.crestonebrewingco.com", "state": "Colorado", "street": "187 West Silver Ave."}, {"id": "394e227d-58e8-485e-b037-b587d9334bf3", "name": "Crew Brewing Company", "brewery_type": "micro", "address_1": "35 Thomas St", "address_2": null, "address_3": null, "city": "Limerick", "state_province": "Limerick", "postal_code": "V94 A5X4", "country": "Ireland", "longitude": "-8.6258884", "latitude": "52.6619598", "phone": null, "website_url": "http://www.crewbrewing.ie/", "state": "Limerick", "street": "35 Thomas St"}, {"id": "97bbffd0-e943-4b0d-b8e3-3246fe173a15", "name": "Cricket Hill Brewing Co. Inc.", "brewery_type": "micro", "address_1": "24 Kulick Rd", "address_2": null, "address_3": null, "city": "Fairfield", "state_province": "New Jersey", "postal_code": "07004-3308", "country": "United States", "longitude": "-74.2963174", "latitude": "40.872626", "phone": "9732769415", "website_url": "http://www.crickethillbrewery.com", "state": "New Jersey", "street": "24 Kulick Rd"}, {"id": "6660d8a1-2668-4096-9510-92ea23e6371e", "name": "Crime & Punishment Brewing Company", "brewery_type": "brewpub", "address_1": "2711 W Girard Ave", "address_2": null, "address_3": null, "city": "Philadelphia", "state_province": "Pennsylvania", "postal_code": "19130-1212", "country": "United States", "longitude": "-75.1808422", "latitude": "39.9743646", "phone": "2152352739", "website_url": "http://www.crimeandpunishmentbrewery.com", "state": "Pennsylvania", "street": "2711 W Girard Ave"}, {"id": "6e35969e-ccfc-4f69-b738-0748b0d3a591", "name": "Crisis Brewing LLC", "brewery_type": "micro", "address_1": "210 S Archibald Yell Blvd", "address_2": null, "address_3": null, "city": "Fayetteville", "state_province": "Arkansas", "postal_code": "72701-4459", "country": "United States", "longitude": "-94.16087539", "latitude": "36.05959704", "phone": "4795822337", "website_url": "http://www.crisisbrew.com", "state": "Arkansas", "street": "210 S Archibald Yell Blvd"}, {"id": "7b67ad3f-b68c-4fae-af3a-4a3aef7b7f74", "name": "Critz Farms Brewing & Cider Co.", "brewery_type": "micro", "address_1": "3232 Rippleton Rd", "address_2": null, "address_3": null, "city": "Cazenovia", "state_province": "New York", "postal_code": "13035-9693", "country": "United States", "longitude": "-75.8746342", "latitude": "42.8805302", "phone": "3156623355", "website_url": "http://www.critzfarms.com", "state": "New York", "street": "3232 Rippleton Rd"}, {"id": "ef8cb80a-8a31-4038-834a-a27874bfa9d8", "name": "Crooked Can Brewing Co", "brewery_type": "micro", "address_1": "426 W Plant St", "address_2": null, "address_3": null, "city": "Winter Garden", "state_province": "Florida", "postal_code": "34787-3014", "country": "United States", "longitude": "-81.590376", "latitude": "28.5639024", "phone": null, "website_url": "http://www.crookedcan.com", "state": "Florida", "street": "426 W Plant St"}, {"id": "9b94f17c-c19e-4a58-8621-a0beef7db4cd", "name": "Crooked Crab Brewing Company", "brewery_type": "micro", "address_1": "8251 Telegraph Rd", "address_2": null, "address_3": null, "city": "Odenton", "state_province": "Maryland", "postal_code": "21113", "country": "United States", "longitude": "-76.69482405", "latitude": "39.09729159", "phone": "4435699187", "website_url": "http://www.cookedcrabbrewing.com", "state": "Maryland", "street": "8251 Telegraph Rd"}, {"id": "59c2cac1-d48e-4ee3-bbea-8d19cc1cfcbe", "name": "Crooked Current Brewery", "brewery_type": "micro", "address_1": "560 Mineral Spring Ave Ste 2-112", "address_2": null, "address_3": null, "city": "Pawtucket", "state_province": "Rhode Island", "postal_code": "02860-8612", "country": "United States", "longitude": "-71.4057415", "latitude": "41.8726983", "phone": "4014738312", "website_url": "http://www.crookedcurrentbrewery.com", "state": "Rhode Island", "street": "560 Mineral Spring Ave Ste 2-112"}, {"id": "c4322724-2b2e-41bc-80bc-6d74e08bc915", "name": "Crooked Ewe Brewery & Ale House", "brewery_type": "brewpub", "address_1": "1047 Lincoln Way E", "address_2": null, "address_3": null, "city": "South Bend", "state_province": "Indiana", "postal_code": "46601-3726", "country": "United States", "longitude": null, "latitude": null, "phone": "5742170881", "website_url": "http://www.crookedewe.com", "state": "Indiana", "street": "1047 Lincoln Way E"}, {"id": "c38f360f-89b2-427f-89b2-39c66b9cb9cd", "name": "Crooked Eye Brewery", "brewery_type": "micro", "address_1": "13 E Montgomery Ave Ste 2", "address_2": null, "address_3": null, "city": "Hatboro", "state_province": "Pennsylvania", "postal_code": "19040-2618", "country": "United States", "longitude": null, "latitude": null, "phone": "2152859253", "website_url": "http://crookedeyebrewery.com", "state": "Pennsylvania", "street": "13 E Montgomery Ave Ste 2"}, {"id": "6ea64715-be41-4897-9b8a-496911ce26ec", "name": "Crooked Fence Brewing", "brewery_type": "micro", "address_1": "5220 N Sawyer Ave", "address_2": null, "address_3": null, "city": "Garden City", "state_province": "Idaho", "postal_code": "83714", "country": "United States", "longitude": "-116.268704", "latitude": "43.646739", "phone": "2083757907", "website_url": "http://www.crookedfencebrewing.com", "state": "Idaho", "street": "5220 N Sawyer Ave"}, {"id": "d0b18089-fdea-44aa-9b99-fe28ce55b4ea", "name": "Crooked Furrow Brewing", "brewery_type": "micro", "address_1": "2801 N Roberts Ave", "address_2": null, "address_3": null, "city": "Helena", "state_province": "Montana", "postal_code": "59601", "country": "United States", "longitude": null, "latitude": null, "phone": "4064225975", "website_url": "http://www.crookedfurrowbrewing.com", "state": "Montana", "street": "2801 N Roberts Ave"}, {"id": "dd4507bb-0b17-429e-b3b8-f4065c53d487", "name": "Crooked Goat Brewing", "brewery_type": "micro", "address_1": "120 Morris St Ste 120", "address_2": null, "address_3": null, "city": "Sebastopol", "state_province": "California", "postal_code": "95472-3867", "country": "United States", "longitude": "-122.8196789", "latitude": "38.40410225", "phone": "7078273893", "website_url": "http://www.crookedgoatbrewing.com", "state": "California", "street": "120 Morris St Ste 120"}, {"id": "ae710b07-f1bc-42fa-a2ef-47e1ad43f5bf", "name": "Crooked Hammock Brewery", "brewery_type": "brewpub", "address_1": "36707 Crooked Hammock Way", "address_2": null, "address_3": null, "city": "Lewes", "state_province": "Delaware", "postal_code": "19958-4877", "country": "United States", "longitude": null, "latitude": null, "phone": null, "website_url": null, "state": "Delaware", "street": "36707 Crooked Hammock Way"}, {"id": "74cbeded-8edb-49ef-95a4-f0a1cb372a7e", "name": "Crooked Handle Brewing Co.", "brewery_type": "micro", "address_1": "760 N Main St", "address_2": null, "address_3": null, "city": "Springboro", "state_province": "Ohio", "postal_code": "45066-8944", "country": "United States", "longitude": "-84.23082816", "latitude": "39.57664643", "phone": "9377903450", "website_url": "http://www.crookedhandle.com", "state": "Ohio", "street": "760 N Main St"}, {"id": "e7b3c72d-7795-4882-81ed-2c4362ed4ece", "name": "Crooked Label Brewing Company", "brewery_type": "micro", "address_1": "773 Village Way", "address_2": null, "address_3": null, "city": "Monroe", "state_province": "Washington", "postal_code": "98272-2171", "country": "United States", "longitude": "-121.9807376", "latitude": "47.85092868", "phone": "3602178741", "website_url": "https://www.facebook.com/Crooked-Label-Brewing-Company-873921246124558/", "state": "Washington", "street": "773 Village Way"}, {"id": "7eb998d5-80d4-4d93-9695-b1a3e6a8dbb5", "name": "Crooked Ladder Brewery", "brewery_type": "micro", "address_1": "70 W Main St", "address_2": null, "address_3": null, "city": "Riverhead", "state_province": "New York", "postal_code": "11901-2802", "country": "United States", "longitude": "-72.66319867", "latitude": "40.91701672", "phone": "6319025335", "website_url": "http://www.crookedladderbrewingco.com", "state": "New York", "street": "70 W Main St"}, {"id": "134c8b3a-98f6-436b-a31a-2d8b717f3d80", "name": "Crooked Lane Brewing Co", "brewery_type": "micro", "address_1": "536 Grass Valley Hwy", "address_2": null, "address_3": null, "city": "Auburn", "state_province": "California", "postal_code": "95603-3807", "country": "United States", "longitude": "-121.0769384", "latitude": "38.90869888", "phone": "5306137434", "website_url": "http://www.crookedlanebrewing.com", "state": "California", "street": "536 Grass Valley Hwy"}, {"id": "7ccad05b-4094-411f-8e22-e68cb5eb4bba", "name": "Crooked Letter Brewing Co", "brewery_type": "brewpub", "address_1": "503 Porter Ave", "address_2": null, "address_3": null, "city": "Ocean Springs", "state_province": "Mississippi", "postal_code": "39564", "country": "United States", "longitude": null, "latitude": null, "phone": "2282353994", "website_url": "http://www.crookedletterbrewery.com", "state": "Mississippi", "street": "503 Porter Ave"}, {"id": "ba9ac1f0-2b7d-4cc2-ab55-9eaa479fee80", "name": "Crooked Pecker Brewing", "brewery_type": "planning", "address_1": null, "address_2": null, "address_3": null, "city": "Newbury", "state_province": "Ohio", "postal_code": "44065-9735", "country": "United States", "longitude": null, "latitude": null, "phone": "4404763427", "website_url": null, "state": "Ohio", "street": null}, {"id": "903ba837-e27a-48b6-8287-da98c01e0b35", "name": "Crooked Rooster Brewery LLC.", "brewery_type": "micro", "address_1": "1478 S 6th St", "address_2": null, "address_3": null, "city": "Macclenny", "state_province": "Florida", "postal_code": "32063", "country": "United States", "longitude": "-82.1223325", "latitude": "30.2707152", "phone": "9046532337", "website_url": "http://www.crookedroosterbrews.com", "state": "Florida", "street": "1478 S 6th St"}, {"id": "7aa49d30-257e-4d82-9bfe-e7181f309a3d", "name": "Crooked Run Brewing", "brewery_type": "micro", "address_1": "205 Harrison St SE", "address_2": null, "address_3": null, "city": "Leesburg", "state_province": "Virginia", "postal_code": "20175-3702", "country": "United States", "longitude": "-77.56287085", "latitude": "39.11226781", "phone": "5713752652", "website_url": "http://crookedrunbrewing.com", "state": "Virginia", "street": "205 Harrison St SE"}, {"id": "e26fbcf7-5991-4cae-8c54-15a107fba85d", "name": "Crooked Stave Artisan Beer Project", "brewery_type": "micro", "address_1": "1441 W 46th Ave Unit 17", "address_2": null, "address_3": null, "city": "Denver", "state_province": "Colorado", "postal_code": "80211-2338", "country": "United States", "longitude": null, "latitude": null, "phone": "7205083292", "website_url": "http://www.crookedstave.com", "state": "Colorado", "street": "1441 W 46th Ave Unit 17"}, {"id": "ee71a877-46d6-45a9-9e2d-6291f4609de6", "name": "Crooked Thumb Brewery", "brewery_type": "micro", "address_1": "555 10th Ave S", "address_2": null, "address_3": null, "city": "Safety Harbor", "state_province": "Florida", "postal_code": "34695-3821", "country": "United States", "longitude": "-82.6986687", "latitude": "27.9874212", "phone": "7277245953", "website_url": "http://www.crookedthumbbrew.com", "state": "Florida", "street": "555 10th Ave S"}, {"id": "8d2c978f-56a4-4df1-849f-93733f45cc21", "name": "Crooked Tongue Brewing", "brewery_type": "micro", "address_1": "2516 Benjamin Franklin Hwy", "address_2": null, "address_3": null, "city": "Edinburg", "state_province": "Pennsylvania", "postal_code": "16116-4302", "country": "United States", "longitude": null, "latitude": null, "phone": "7248563765", "website_url": "http://www.crookedtonguebrewing.com", "state": "Pennsylvania", "street": "2516 Benjamin Franklin Hwy"}, {"id": "df821532-ffc3-417b-9b56-3de17c9bceac", "name": "Crooked Tooth Brewing Co.", "brewery_type": "micro", "address_1": "228 E 6th St", "address_2": null, "address_3": null, "city": "Tucson", "state_province": "Arizona", "postal_code": "85705-8424", "country": "United States", "longitude": "-110.9677332", "latitude": "32.22762302", "phone": "5204445305", "website_url": "http://www.crookedtoothbrewing.com", "state": "Arizona", "street": "228 E 6th St"}, {"id": "976f21bd-4435-4c9f-8342-451f89029b11", "name": "Cross Country Brewing", "brewery_type": "micro", "address_1": "320 E Allard St", "address_2": null, "address_3": null, "city": "Glendive", "state_province": "Montana", "postal_code": "59330-2719", "country": "United States", "longitude": "-104.70579", "latitude": "47.11209", "phone": "4063772739", "website_url": null, "state": "Montana", "street": "320 E Allard St"}, {"id": "f6c9d376-e9a6-412a-a3bf-cf47acf0b749", "name": "Cross Keys Brewing Co", "brewery_type": "micro", "address_1": "1038 N Main St", "address_2": null, "address_3": null, "city": "Williamstown", "state_province": "New Jersey", "postal_code": "08094-3161", "country": "United States", "longitude": "-75.0079984", "latitude": "39.69627246", "phone": "8569066481", "website_url": "http://www.ckbcbeer.com", "state": "New Jersey", "street": "1038 N Main St"}, {"id": "8360b304-8e43-49e6-ae58-d66e12df2c3e", "name": "Cross Plains Brewery Inc.", "brewery_type": "contract", "address_1": "2109 Hickory St", "address_2": null, "address_3": null, "city": "Cross Plains", "state_province": "Wisconsin", "postal_code": "53528-9700", "country": "United States", "longitude": "-89.65293922", "latitude": "43.11427765", "phone": "6087983911", "website_url": "http://www.essersbest.com", "state": "Wisconsin", "street": "2109 Hickory St"}, {"id": "49e104a3-2c71-4f23-ad40-628d6084d570", "name": "Cross-Eyed Owl Brewing Co.", "brewery_type": "micro", "address_1": "105 1st Ave NE", "address_2": null, "address_3": null, "city": "Decatur", "state_province": "Alabama", "postal_code": "35601-2301", "country": "United States", "longitude": "-86.98663302", "latitude": "34.60412065", "phone": "2564310931", "website_url": "http://www.xeobrewing.com", "state": "Alabama", "street": "105 1st Ave NE"}, {"id": "a3defe47-f327-4d0f-b2e8-ce85297dab21", "name": "Crossed Arrows Brewery", "brewery_type": "planning", "address_1": "14004 Purdy Dr", "address_2": null, "address_3": null, "city": "Gig Harbor", "state_province": "Washington ", "postal_code": "98332-8627", "country": "United States", "longitude": "-122.626764", "latitude": "47.38603007", "phone": null, "website_url": "https://www.crossedarrowsbrewery.com/", "state": "Washington ", "street": "14004 Purdy Dr"}, {"id": "76c1cb37-657f-4367-901f-ae1fa7436562", "name": "Crossroads Brewing Co", "brewery_type": "brewpub", "address_1": "21 2nd St", "address_2": null, "address_3": null, "city": "Athens", "state_province": "New York", "postal_code": "12015-1327", "country": "United States", "longitude": "-73.8100641", "latitude": "42.2605541", "phone": "5189452337", "website_url": "http://www.crossroadsbrewingco.com", "state": "New York", "street": "21 2nd St"}, {"id": "10bd658f-7260-4535-9f5a-ecdaf3496444", "name": "Crosstown Brewing Company", "brewery_type": "micro", "address_1": "1264 Concourse Ave", "address_2": null, "address_3": null, "city": "Memphis", "state_province": "Tennessee", "postal_code": "38104-7022", "country": "United States", "longitude": "-90.0129924", "latitude": "35.1515547", "phone": "9015297611", "website_url": "http://www.crosstownbeer.com", "state": "Tennessee", "street": "1264 Concourse Ave"}, {"id": "20d95606-a290-43fb-b8a4-2319b269c943", "name": "Crow Hop Brewing Co. Ltd.", "brewery_type": "micro", "address_1": "214 E 4th St", "address_2": null, "address_3": null, "city": "Loveland", "state_province": "Colorado", "postal_code": "80537-5632", "country": "United States", "longitude": "-105.0735144", "latitude": "40.39536486", "phone": "9706330643", "website_url": "http://www.crowhopbrewing.com", "state": "Colorado", "street": "214 E 4th St"}, {"id": "b3a266ac-9340-4322-a7ca-3ec0062d59e5", "name": "Crow Peak Brewing Co", "brewery_type": "micro", "address_1": "125 W Highway 14", "address_2": null, "address_3": null, "city": "Spearfish", "state_province": "South Dakota", "postal_code": "57783-1150", "country": "United States", "longitude": "-103.8706684", "latitude": "44.5175219", "phone": "6057170006", "website_url": "http://www.crowpeakbrewing.com", "state": "South Dakota", "street": "125 W Highway 14"}, {"id": "35056c86-03bb-4790-8b27-5241f914f73d", "name": "Crowded Castle Brewing Co. Inc.", "brewery_type": "brewpub", "address_1": "242 Bridge St", "address_2": null, "address_3": null, "city": "Phoenixville", "state_province": "Pennsylvania", "postal_code": "19460-3450", "country": "United States", "longitude": "-75.51762814", "latitude": "40.13370414", "phone": "4842520077", "website_url": "http://www.crowdedcastle.com", "state": "Pennsylvania", "street": "242 Bridge St"}, {"id": "e57a94bd-f81c-409c-992d-6a093856121c", "name": "Crowing Hen", "brewery_type": "planning", "address_1": null, "address_2": null, "address_3": null, "city": "Carlton", "state_province": "Oregon", "postal_code": "97111-9668", "country": "United States", "longitude": "-123.0986999", "latitude": "45.29153898", "phone": "5038520037", "website_url": null, "state": "Oregon", "street": null}, {"id": "fba9c7a9-0edc-44d8-8fdb-0c8544987a17", "name": "Crown Brewing Co", "brewery_type": "brewpub", "address_1": "211 S East St", "address_2": null, "address_3": null, "city": "Crown Point", "state_province": "Indiana", "postal_code": "46307-4058", "country": "United States", "longitude": null, "latitude": null, "phone": "2196634545", "website_url": "http://www.crownbrewing.com", "state": "Indiana", "street": "211 S East St"}, {"id": "5a29edb9-1db8-432e-b45c-1bd6588b6c5a", "name": "Crown Valley Brewing & Distilling Co", "brewery_type": "micro", "address_1": "23589 State Route Ww", "address_2": null, "address_3": null, "city": "Sainte Genevieve", "state_province": "Missouri", "postal_code": "63670-9039", "country": "United States", "longitude": "-90.21257", "latitude": "37.777679", "phone": "5737569700", "website_url": "http://www.crownvalleybrewery.com", "state": "Missouri", "street": "23589 State Route Ww"}, {"id": "d7d0c62b-5b9a-4317-9953-d125d066adc4", "name": "Crucible Brewing - Everett Foundry", "brewery_type": "micro", "address_1": "909 SE Everett Mall Way Ste D440", "address_2": null, "address_3": null, "city": "Everett", "state_province": "Washington", "postal_code": "98208-3755", "country": "United States", "longitude": "-122.220239", "latitude": "47.911765", "phone": "4253747293", "website_url": "http://www.cruciblebrewing.com", "state": "Washington", "street": "909 SE Everett Mall Way Ste D440"}, {"id": "6fd8fda4-acc3-447c-ae41-254d581bbe25", "name": "Crucible Brewing - Woodinville Forge", "brewery_type": "micro", "address_1": "12826 NE 178th St Ste C", "address_2": null, "address_3": null, "city": "Woodinville", "state_province": "Washington", "postal_code": "98072-8737", "country": "United States", "longitude": "-122.167861", "latitude": "47.757935", "phone": "4254839855", "website_url": "http://www.cruciblebrewing.com", "state": "Washington", "street": "12826 NE 178th St Ste C"}, {"id": "96380a97-d12b-423e-9a03-a42991ecfb16", "name": "Crue Brew Brewery", "brewery_type": "micro", "address_1": "95 Ryan Dr Ste 6", "address_2": null, "address_3": null, "city": "Raynham", "state_province": "Massachusetts", "postal_code": "02767-1992", "country": "United States", "longitude": null, "latitude": null, "phone": "5082726090", "website_url": "http://www.cruebrewbrewery.com", "state": "Massachusetts", "street": "95 Ryan Dr Ste 6"}, {"id": "731ea370-dfdb-4e79-a63f-b7acd4e32481", "name": "Crux Fermentation Project", "brewery_type": "regional", "address_1": "50 SW Division St", "address_2": null, "address_3": null, "city": "Bend", "state_province": "Oregon", "postal_code": "97702-1600", "country": "United States", "longitude": "-121.3079657", "latitude": "44.05092629", "phone": "5413887558", "website_url": "http://www.cruxfermentation.com", "state": "Oregon", "street": "50 SW Division St"}, {"id": "eff4b8a3-9aef-4d32-bce1-593b1935aa67", "name": "Crux Fermentation Project - Crux2", "brewery_type": "micro", "address_1": "63065 NE 18th St", "address_2": null, "address_3": null, "city": "Bend", "state_province": "Oregon", "postal_code": "97701-9981", "country": "United States", "longitude": "-121.2824469", "latitude": "44.08947729", "phone": null, "website_url": null, "state": "Oregon", "street": "63065 NE 18th St"}, {"id": "1d2b23a3-7fdf-4f47-b96d-36bd027fe822", "name": "Cruz Blanca Brewery", "brewery_type": "brewpub", "address_1": "904 W Randolph St", "address_2": null, "address_3": null, "city": "Chicago", "state_province": "Illinois", "postal_code": "60607-2208", "country": "United States", "longitude": "-87.6501403", "latitude": "41.8846013", "phone": "3127331975", "website_url": "http://www.cruzblanca.com", "state": "Illinois", "street": "904 W Randolph St"}, {"id": "534c0a74-1e1a-422a-894a-1fe55ea95af4", "name": "Crying Eagle Brewing Company", "brewery_type": "micro", "address_1": "1165 E McNeese St", "address_2": null, "address_3": null, "city": "Lake Charles", "state_province": "Louisiana", "postal_code": "70607-4753", "country": "United States", "longitude": "-93.20515133", "latitude": "30.17626439", "phone": "3379904871", "website_url": "http://www.cryingeagle.com", "state": "Louisiana", "street": "1165 E McNeese St"}, {"id": "52177169-ec91-4785-8c44-d8fbb2d2ed2b", "name": "Crystal Ball Brewing", "brewery_type": "micro", "address_1": "1612 W King St", "address_2": null, "address_3": null, "city": "York", "state_province": "Pennsylvania", "postal_code": "17404-5618", "country": "United States", "longitude": "-76.76273652", "latitude": "39.94891984", "phone": null, "website_url": "http://www.crystalballbrewing.com", "state": "Pennsylvania", "street": "1612 W King St"}, {"id": "e7828fc7-72e4-4f74-b2e5-afedfedf49c7", "name": "Crystal Coast Brewing Company LLC", "brewery_type": "micro", "address_1": "702 Arendell St", "address_2": null, "address_3": null, "city": "Morehead City", "state_province": "North Carolina", "postal_code": "28557-4234", "country": "United States", "longitude": "-76.71137408", "latitude": "34.72105219", "phone": "7044513618", "website_url": "http://www.CrystalCoastBrewingCompany.com", "state": "North Carolina", "street": "702 Arendell St"}, {"id": "e8cad295-e28e-4bb1-8101-5de1049846b2", "name": "Crystal Lake Brewing Co.", "brewery_type": "micro", "address_1": "150 N Main St", "address_2": null, "address_3": null, "city": "Crystal Lake", "state_province": "Illinois", "postal_code": "60014-4433", "country": "United States", "longitude": "-88.316204", "latitude": "42.2413125", "phone": null, "website_url": null, "state": "Illinois", "street": "150 N Main St"}, {"id": "313df964-9854-4ab9-9733-c29aad544c45", "name": "Crystal Springs Brewing Co", "brewery_type": "micro", "address_1": "657 S Taylor Ave", "address_2": null, "address_3": null, "city": "Louisville", "state_province": "Colorado", "postal_code": "80027-3063", "country": "United States", "longitude": "-105.119781", "latitude": "39.964883", "phone": "3038845602", "website_url": "http://www.crystalspringsbrewing.com", "state": "Colorado", "street": "657 S Taylor Ave"}, {"id": "02523ad4-26bb-4dc1-8349-c9fe53180604", "name": "CTKiR Browar Probus", "brewery_type": "brewpub", "address_1": "M\u0142y\u0144ska 16", "address_2": null, "address_3": null, "city": "O\u0142awa", "state_province": "dolno\u015bl\u0105skie", "postal_code": "55-200", "country": "Poland", "longitude": "17.3013828", "latitude": "50.9419716", "phone": null, "website_url": null, "state": "dolno\u015bl\u0105skie", "street": "M\u0142y\u0144ska 16"}, {"id": "e031e745-1aab-47a5-8f44-728abdf4bc76", "name": "Cueni Brewing Co.", "brewery_type": "micro", "address_1": "945 Huntley Ave", "address_2": null, "address_3": null, "city": "Dunedin", "state_province": "Florida", "postal_code": "34698-5722", "country": "United States", "longitude": "-82.78928423", "latitude": "28.01440368", "phone": "7272664102", "website_url": "http://www.cuenibrewing.com", "state": "Florida", "street": "945 Huntley Ave"}, {"id": "b62dcc90-f21d-4afb-86e1-dbd0cf9e98fa", "name": "Culmination Brewing Co", "brewery_type": "micro", "address_1": "2117 NE Oregon St Ste 600", "address_2": null, "address_3": null, "city": "Portland", "state_province": "Oregon", "postal_code": "97232-2796", "country": "United States", "longitude": "-122.64393", "latitude": "45.52893", "phone": "9712549114", "website_url": "http://www.culminationbrewing.com", "state": "Oregon", "street": "2117 NE Oregon St Ste 600"}, {"id": "425d365e-db70-46c4-be09-d000727eb003", "name": "Cult Classic Brewing", "brewery_type": "planning", "address_1": null, "address_2": null, "address_3": null, "city": "Stevensville", "state_province": "Maryland", "postal_code": "21666-4051", "country": "United States", "longitude": null, "latitude": null, "phone": "4432236480", "website_url": "http://www.cultclassicbrewing.com", "state": "Maryland", "street": null}, {"id": "0c58d384-889a-4706-a7bd-51522207eb5d", "name": "Culture Brewing Co", "brewery_type": "micro", "address_1": "629 S Coast Hwy 101", "address_2": null, "address_3": null, "city": "Encinitas", "state_province": "California", "postal_code": "92024", "country": "United States", "longitude": "-117.2934305", "latitude": "33.04448784", "phone": "3105040082", "website_url": "http://www.culturebrewingco.com", "state": "California", "street": "629 S Coast Hwy 101"}, {"id": "d2ef5819-6b47-4bfc-9df9-0acf1ab4151a", "name": "Culture Brewing Co", "brewery_type": "micro", "address_1": "327 Manhattan Beach Blvd", "address_2": null, "address_3": null, "city": "Manhattan Beach", "state_province": "California", "postal_code": "90266", "country": "United States", "longitude": "-118.4090881", "latitude": "33.88569802", "phone": "3105040082", "website_url": "http://www.culturebrewingco.com", "state": "California", "street": "327 Manhattan Beach Blvd"}, {"id": "dcbcdb37-cd5e-4775-a861-da963f72bcd5", "name": "Culture Brewing Co", "brewery_type": "micro", "address_1": "111 S Cedros Ave Ste 200", "address_2": null, "address_3": null, "city": "Solana Beach", "state_province": "California", "postal_code": "92075-2906", "country": "United States", "longitude": "-117.2706515", "latitude": "32.99180086", "phone": "8583451144", "website_url": "http://www.culturebrewingco.com", "state": "California", "street": "111 S Cedros Ave Ste 200"}, {"id": "7f63c398-c085-4201-8d68-41f2daad913f", "name": "Danville Brewing Company", "brewery_type": "brewpub", "address_1": "200 Railroad Ave Ste A", "address_2": null, "address_3": null, "city": "Danville", "state_province": "California", "postal_code": "94526-3855", "country": "United States", "longitude": "-122.0001333", "latitude": "37.82112378", "phone": null, "website_url": null, "state": "California", "street": "200 Railroad Ave Ste A"}, {"id": "28872ed7-5cb0-4a4d-9efc-eec26f7033b9", "name": "Culver Beer Company", "brewery_type": "micro", "address_1": "2719 Loker Ave W Ste D", "address_2": null, "address_3": null, "city": "Carlsbad", "state_province": "California", "postal_code": "92010-6679", "country": "United States", "longitude": "-117.258331", "latitude": "33.13307453", "phone": "7608142355", "website_url": "http://www.culverbeer.com", "state": "California", "street": "2719 Loker Ave W Ste D"}, {"id": "5fd712d7-706d-4dd0-b471-88232373121c", "name": "Cumberland Brewery", "brewery_type": "brewpub", "address_1": "1576 Bardstown Rd", "address_2": null, "address_3": null, "city": "Louisville", "state_province": "Kentucky", "postal_code": "40205-1154", "country": "United States", "longitude": "-85.70553172", "latitude": "38.23084195", "phone": "5024594706", "website_url": null, "state": "Kentucky", "street": "1576 Bardstown Rd"}, {"id": "35d4bdfd-bad4-4438-b690-d49cc685d774", "name": "Currahee Brewing Company", "brewery_type": "micro", "address_1": "25 S Main St", "address_2": null, "address_3": null, "city": "Alpharetta", "state_province": "Georgia", "postal_code": "30009", "country": "United States", "longitude": "-84.2967826", "latitude": "34.0711104", "phone": null, "website_url": null, "state": "Georgia", "street": "25 S Main St"}, {"id": "d418185e-3746-4aa3-83f3-c93a3278f8b3", "name": "Currahee Brewing Company", "brewery_type": "micro", "address_1": "100 Lakeside Dr", "address_2": null, "address_3": null, "city": "Franklin", "state_province": "North Carolina", "postal_code": "28734-9706", "country": "United States", "longitude": "-83.37194784", "latitude": "35.18754718", "phone": "8286340078", "website_url": "http://www.curraheebrew.com", "state": "North Carolina", "street": "100 Lakeside Dr"}, {"id": "31faee5a-2a58-4708-9c78-7cda5832207c", "name": "Curran Brewing Co", "brewery_type": "micro", "address_1": "6230 Bloomington Rd", "address_2": null, "address_3": null, "city": "Moscow", "state_province": "Pennsylvania", "postal_code": "18444-6634", "country": "United States", "longitude": null, "latitude": null, "phone": "5707959490", "website_url": "http://www.curranbrewing.com", "state": "Pennsylvania", "street": "6230 Bloomington Rd"}, {"id": "8d28a416-b855-4299-9428-f91817f8e874", "name": "Cushnoc Brewing Company", "brewery_type": "brewpub", "address_1": "243 Water St", "address_2": null, "address_3": null, "city": "Augusta", "state_province": "Maine", "postal_code": "04330-4615", "country": "United States", "longitude": "-69.77344232", "latitude": "44.31664349", "phone": "2072136332", "website_url": "http://www.cushnocbrewing.com", "state": "Maine", "street": "243 Water St"}, {"id": "f9be35ca-e823-4321-b7be-837ac5c152a3", "name": "Cushwa Brewing Co", "brewery_type": "micro", "address_1": "10212 Governor Lane Blvd Ste 1012", "address_2": null, "address_3": null, "city": "Williamsport", "state_province": "Maryland", "postal_code": "21795", "country": "United States", "longitude": null, "latitude": null, "phone": null, "website_url": "http://www.cushwabrewing.com", "state": "Maryland", "street": "10212 Governor Lane Blvd Ste 1012"}, {"id": "35a38bfb-a121-4fd6-bbcb-05329a9c4d3d", "name": "Cut Bank Creek Brewery", "brewery_type": "micro", "address_1": "315 E Railroad St", "address_2": null, "address_3": null, "city": "Cut Bank", "state_province": "Montana", "postal_code": "59427-3021", "country": "United States", "longitude": "-112.3270765", "latitude": "48.63443064", "phone": "4062290298", "website_url": "http://www.cutbankcreekbrewery.com", "state": "Montana", "street": "315 E Railroad St"}, {"id": "bd226b9c-1b32-4c16-a6b8-499c82f1f375", "name": "Cuyuna Brewing Company", "brewery_type": "micro", "address_1": "1 E Main St", "address_2": null, "address_3": null, "city": "Crosby", "state_province": "Minnesota", "postal_code": "56441-1613", "country": "United States", "longitude": "-93.950606", "latitude": "46.482495", "phone": "2188660914", "website_url": "http://cuyunabrewing.com", "state": "Minnesota", "street": "1 E Main St"}, {"id": "378ffef4-9cee-40e2-b61e-d08262e6ac49", "name": "Cycle Brewing", "brewery_type": "micro", "address_1": "534 Central Ave", "address_2": null, "address_3": null, "city": "St Petersburg", "state_province": "Florida", "postal_code": "33701-3704", "country": "United States", "longitude": "-82.6409282", "latitude": "27.7709069", "phone": "7273207954", "website_url": "http://www.cyclebrewing.com", "state": "Florida", "street": "534 Central Ave"}, {"id": "6b7fe7b8-047b-4f6e-96b3-1ae1efa5ae73", "name": "Cycle Brewing Production and Warehouse", "brewery_type": "micro", "address_1": "2135 5th Ave S", "address_2": null, "address_3": null, "city": "Saint Petersburg", "state_province": "Florida", "postal_code": "33712-1304", "country": "United States", "longitude": "-82.66222158", "latitude": "27.76663544", "phone": null, "website_url": null, "state": "Florida", "street": "2135 5th Ave S"}, {"id": "7fc36c9a-6806-40c8-9e3a-b6586c1e32c8", "name": "Cycler's Brewing", "brewery_type": "micro", "address_1": "17105 Osborn Rd", "address_2": null, "address_3": null, "city": "Montgomery", "state_province": "Texas", "postal_code": "77356", "country": "United States", "longitude": null, "latitude": null, "phone": "7135692485", "website_url": "http://www.cyclersbrewing.com", "state": "Texas", "street": "17105 Osborn Rd"}]