[{"id": "9c92f2ed-a4b1-4347-884c-70f227b61c30", "name": "Three Rivers Eatery and Brewery", "brewery_type": "brewpub", "address_1": "101 E Main St", "address_2": null, "address_3": null, "city": "Farmington", "state_province": "New Mexico", "postal_code": "87401-2701", "country": "United States", "longitude": "-108.205192", "latitude": "36.729011", "phone": "5053242187", "website_url": "http://www.threeriversbrewery.com", "state": "New Mexico", "street": "101 E Main St"}, {"id": "6275d4e7-2531-4855-870f-25616819d7ae", "name": "Three Spirits Brewery", "brewery_type": "micro", "address_1": "5046 Old Pineville Rd Ste 200", "address_2": null, "address_3": null, "city": "Charlotte", "state_province": "North Carolina", "postal_code": "28217-3033", "country": "United States", "longitude": "-80.87842302", "latitude": "35.1718311", "phone": "9802074881", "website_url": "http://www.threespiritsbrewery.com", "state": "North Carolina", "street": "5046 Old Pineville Rd Ste 200"}, {"id": "0efce704-e901-4d09-857c-6164cecd9a43", "name": "Three Stacks and A Rock Brewing Co", "brewery_type": "brewpub", "address_1": "3118 Main St Ste D", "address_2": null, "address_3": null, "city": "Morro Bay", "state_province": "California", "postal_code": "93442-1346", "country": "United States", "longitude": "-120.8526982", "latitude": "35.36398667", "phone": "8057719286", "website_url": "http://threestacksandarockbrewing.com", "state": "California", "street": "3118 Main St Ste D"}, {"id": "47f56601-da08-42bc-97db-89f2e567faaf", "name": "Three Taverns Craft Brewery", "brewery_type": "micro", "address_1": "121 New St", "address_2": null, "address_3": null, "city": "Decatur", "state_province": "Georgia", "postal_code": "30030-4131", "country": "United States", "longitude": "-84.28488078", "latitude": "33.77305517", "phone": "4046003355", "website_url": "http://www.threetavernsbrewery.com", "state": "Georgia", "street": "121 New St"}, {"id": "80277c37-d557-4a42-8c92-19126cc96dfc", "name": "Three Tigers Brewing Company", "brewery_type": "brewpub", "address_1": "140 N Prospect St", "address_2": null, "address_3": null, "city": "Granville", "state_province": "Ohio", "postal_code": "43023-1337", "country": "United States", "longitude": "-82.51826713", "latitude": "40.06839886", "phone": "7409204680", "website_url": "http://www.threetigersbrewing.com", "state": "Ohio", "street": "140 N Prospect St"}, {"id": "6326f909-d30f-4139-b75a-36335db20309", "name": "Three Twenty Brewing Co.", "brewery_type": "micro", "address_1": "135 5th St SE", "address_2": null, "address_3": null, "city": "Pine City", "state_province": "Minnesota", "postal_code": "55063-1510", "country": "United States", "longitude": "-92.96974968", "latitude": "45.82796556", "phone": "3203221237", "website_url": "http://www.threetwentybrewing.com", "state": "Minnesota", "street": "135 5th St SE"}, {"id": "2ca9897a-f7bb-402a-a83c-7ff2df71f5f6", "name": "Three Weavers Brewing Company", "brewery_type": "micro", "address_1": "1031 W Manchester Blvd Unit A-B", "address_2": null, "address_3": null, "city": "Inglewood", "state_province": "California", "postal_code": "90301-1509", "country": "United States", "longitude": "-118.3746452", "latitude": "33.96138274", "phone": "3104005830", "website_url": "http://www.threeweavers.la", "state": "California", "street": "1031 W Manchester Blvd Unit A-B"}, {"id": "baf18871-08d8-4cf1-8ce1-5f2dfd3a611b", "name": "Threefoot Brewing Company, LLC", "brewery_type": "contract", "address_1": "4010 23rd Avenue", "address_2": null, "address_3": null, "city": "Meridian", "state_province": "Mississippi", "postal_code": "39305", "country": "United States", "longitude": "-88.7010359", "latitude": "32.4001022", "phone": "6016931074", "website_url": "http://www.threefootbrewing.com", "state": "Mississippi", "street": "4010 23rd Avenue"}, {"id": "7796339a-277a-41ab-95a5-5b1d02a9387c", "name": "Threes Brewing", "brewery_type": "micro", "address_1": "333 Douglass St", "address_2": null, "address_3": null, "city": "Brooklyn", "state_province": "New York", "postal_code": "11217-3115", "country": "United States", "longitude": "-73.9821529", "latitude": "40.6798144", "phone": "7185222110", "website_url": "http://www.threesbrewing.com", "state": "New York", "street": "333 Douglass St"}, {"id": "3387dbaa-7163-4a4c-9f1a-fa031edcaa40", "name": "Threshers Brewing Company", "brewery_type": "micro", "address_1": "22 Main St N Bldg 3B", "address_2": null, "address_3": null, "city": "Searsmont", "state_province": "Maine", "postal_code": "04973-3409", "country": "United States", "longitude": null, "latitude": null, "phone": "2079753225", "website_url": "http://www.threshersbrewingco.com", "state": "Maine", "street": "22 Main St N Bldg 3B"}, {"id": "dfdff781-6127-4db8-be9d-ce1cef869e20", "name": "Throwback Brewery", "brewery_type": "brewpub", "address_1": "7 Hobbs Rd", "address_2": null, "address_3": null, "city": "North Hampton", "state_province": "New Hampshire", "postal_code": "03862-2120", "country": "United States", "longitude": null, "latitude": null, "phone": "6034980123", "website_url": "http://www.throwbackbrewery.com", "state": "New Hampshire", "street": "7 Hobbs Rd"}, {"id": "ae0cb939-c688-4a2e-92e5-096100397cbc", "name": "Thumb Knuckle Brewing Company", "brewery_type": "micro", "address_1": "E0208 State Rd 54", "address_2": null, "address_3": null, "city": "Luxemburg", "state_province": "Wisconsin", "postal_code": "54217", "country": "United States", "longitude": null, "latitude": null, "phone": null, "website_url": "http://www.thumbknuckle.beer", "state": "Wisconsin", "street": "E0208 State Rd 54"}, {"id": "21fcf2f2-1db4-4189-a3ef-cc4c629a6e8e", "name": "Thunder Canyon Brewery", "brewery_type": "brewpub", "address_1": "220 E Broadway Blvd Ste 2", "address_2": null, "address_3": null, "city": "Tucson", "state_province": "Arizona", "postal_code": "85701-2043", "country": "United States", "longitude": null, "latitude": null, "phone": "5203963480", "website_url": "http://www.thundercanyonbrewery.com", "state": "Arizona", "street": "220 E Broadway Blvd Ste 2"}, {"id": "cd16ecb3-09ce-40d8-8b63-47e36680559e", "name": "Thunder Island Brewing", "brewery_type": "micro", "address_1": "515 NW Portage Rd", "address_2": null, "address_3": null, "city": "Cascade Locks", "state_province": "Oregon", "postal_code": "97014-6699", "country": "United States", "longitude": "-121.8962585", "latitude": "45.66499993", "phone": "9712314599", "website_url": "http://www.thunderislandbrewing.com", "state": "Oregon", "street": "515 NW Portage Rd"}, {"id": "e914f95d-c014-4040-ada8-a73c4f3f37bc", "name": "Thunderhawk Alements", "brewery_type": "micro", "address_1": "8675 Miralani Dr Ste 100", "address_2": null, "address_3": null, "city": "San Diego", "state_province": "California", "postal_code": "92126-4355", "country": "United States", "longitude": "-117.137467", "latitude": "32.89575006", "phone": "6199524832", "website_url": "http://thunderhawkbeer.com", "state": "California", "street": "8675 Miralani Dr Ste 100"}, {"id": "1d1f1c20-d34b-4fa5-85fa-7f2da4091b4c", "name": "Thunderhead Brewing Co", "brewery_type": "brewpub", "address_1": "18 E 21st St", "address_2": null, "address_3": null, "city": "Kearney", "state_province": "Nebraska", "postal_code": "68847-5402", "country": "United States", "longitude": "-99.080732", "latitude": "40.69665183", "phone": "3082371558", "website_url": "http://www.thunderheadbrewing.com", "state": "Nebraska", "street": "18 E 21st St"}, {"id": "959d0c53-7a7e-4f9d-970e-6bb17e48586e", "name": "Tibbs Brewing Co", "brewery_type": "brewpub", "address_1": "402 S Burdick St", "address_2": null, "address_3": null, "city": "Kalamazoo", "state_province": "Michigan", "postal_code": "49007-5218", "country": "United States", "longitude": "-85.58320831", "latitude": "42.28859949", "phone": "8777627397", "website_url": null, "state": "Michigan", "street": "402 S Burdick St"}, {"id": "28c6f58f-5b53-4116-a839-e10d68651aed", "name": "Tideland Brewing", "brewery_type": "micro", "address_1": "4155 Dorchester Rd", "address_2": null, "address_3": null, "city": "North Charleston", "state_province": "South Carolina", "postal_code": "29405", "country": "United States", "longitude": "-80.00236", "latitude": "32.85328", "phone": "8434058280", "website_url": "https://tidelandbrewing.com/", "state": "South Carolina", "street": "4155 Dorchester Rd"}, {"id": "5aafd9ac-cb3b-4a21-9952-9baff7a7d3e4", "name": "Tie and Timber Beer Company", "brewery_type": "micro", "address_1": "1459 E Cherry St", "address_2": null, "address_3": null, "city": "Springfield", "state_province": "Missouri", "postal_code": "65802-3356", "country": "United States", "longitude": "-93.2689605", "latitude": "37.20378983", "phone": "7202814664", "website_url": "http://www.tieandtimberbeerco.com", "state": "Missouri", "street": "1459 E Cherry St"}, {"id": "dadbaeba-117a-4e1a-bb9d-8aba74dd3754", "name": "Tied House Cafe and Brewery-Mtn View", "brewery_type": "brewpub", "address_1": "954 Villa St", "address_2": null, "address_3": null, "city": "Mountain View", "state_province": "California", "postal_code": "94041-1236", "country": "United States", "longitude": "-122.0806432", "latitude": "37.3946092", "phone": "6509652739", "website_url": "http://www.tiedhouse.com", "state": "California", "street": "954 Villa St"}, {"id": "0db8caaa-153e-4fc4-a4b7-9c9a2dc4cd13", "name": "Tig Bhric & West Kerry Brewery", "brewery_type": "brewpub", "address_1": "Reask", "address_2": "Dingle Peninsula", "address_3": null, "city": "Ballyferriter", "state_province": "Kerry", "postal_code": "V92 P681", "country": "Ireland", "longitude": "-10.3932719", "latitude": "52.1697735", "phone": "353876822834", "website_url": "https://westkerrybrewery.ie/", "state": "Kerry", "street": "Reask"}, {"id": "2eb793d3-b52c-4c6b-9944-578f12c4d30c", "name": "Tight Lines Pub", "brewery_type": "brewpub", "address_1": "709 Arendell St", "address_2": null, "address_3": null, "city": "Morehead City", "state_province": "North Carolina", "postal_code": "28557-4214", "country": "United States", "longitude": "-76.71168962", "latitude": "34.72107454", "phone": "2527730641", "website_url": "http://www.tightlinesbrewing.com", "state": "North Carolina", "street": "709 Arendell St"}, {"id": "5098f6bc-9d22-4eb8-a68b-f8e26887f93c", "name": "Tighthead Brewing Co", "brewery_type": "micro", "address_1": "161 N Archer Ave", "address_2": null, "address_3": null, "city": "Mundelein", "state_province": "Illinois", "postal_code": "60060-2301", "country": "United States", "longitude": "-88.00117584", "latitude": "42.26626399", "phone": null, "website_url": null, "state": "Illinois", "street": "161 N Archer Ave"}, {"id": "55c072af-0a5c-4abe-aa73-15351ea4eef7", "name": "Tilt Wurks Brewhouse & Casino", "brewery_type": "micro", "address_1": "420 Pacific Ave", "address_2": null, "address_3": null, "city": "Miles City", "state_province": "Montana", "postal_code": "59301-4000", "country": "United States", "longitude": "-105.8508049", "latitude": "46.40206641", "phone": "4068748458", "website_url": "http://www.tiltwurks.com", "state": "Montana", "street": "420 Pacific Ave"}, {"id": "37cde8b1-1aaf-4181-aee9-e6481769d59c", "name": "Tilted Axis Brewing Company", "brewery_type": "brewpub", "address_1": "303 W Nepessing St", "address_2": null, "address_3": null, "city": "Lapeer", "state_province": "Michigan", "postal_code": "48446-2105", "country": "United States", "longitude": "-83.31247549", "latitude": "43.05377576", "phone": "8109694477", "website_url": "http://www.tiltedaxis.beer", "state": "Michigan", "street": "303 W Nepessing St"}, {"id": "62e08b27-ce3d-49a3-b579-70819bb13baf", "name": "Tilted Barn Brewery", "brewery_type": "micro", "address_1": "1 Helmsley Pl", "address_2": null, "address_3": null, "city": "Exeter", "state_province": "Rhode Island", "postal_code": "02822-3740", "country": "United States", "longitude": "-71.523075", "latitude": "41.554186", "phone": "4018296088", "website_url": "http://www.tiltedbarnbrewery.com", "state": "Rhode Island", "street": "1 Helmsley Pl"}, {"id": "b8dc35f3-2869-46fb-a797-a5f38a04136d", "name": "Tilted Barrel Brew Pub", "brewery_type": "contract", "address_1": "110 E 29th St", "address_2": null, "address_3": null, "city": "Loveland", "state_province": "Colorado", "postal_code": "80538", "country": "United States", "longitude": "-105.0773167", "latitude": "40.42158016", "phone": "9706198950", "website_url": "http://www.tiltedbarrelbrewpub.com", "state": "Colorado", "street": "110 E 29th St"}, {"id": "39a9df45-0fb9-4e29-96b2-b5b2b2a5dd3f", "name": "Tilted Mash Brewery", "brewery_type": "micro", "address_1": "9175 Union Park Way", "address_2": null, "address_3": null, "city": "Elk Grove", "state_province": "California", "postal_code": "95624-2792", "country": "United States", "longitude": "-121.3611472", "latitude": "38.38804656", "phone": null, "website_url": "http://www.tiltedmash.com", "state": "California", "street": "9175 Union Park Way"}, {"id": "e2829cb7-d5e8-4401-8fb8-6f7af1150193", "name": "Tim's Pumpkin Patch", "brewery_type": "micro", "address_1": "2901 Rose Hill Rd", "address_2": null, "address_3": null, "city": "Marietta", "state_province": "New York", "postal_code": "13110-3236", "country": "United States", "longitude": "-76.34398", "latitude": "42.911678", "phone": "3156739209", "website_url": "http://www.timspumpkinpatch.com", "state": "New York", "street": "2901 Rose Hill Rd"}, {"id": "50020337-f432-4dc6-b007-546c5afe914b", "name": "Timber Creek Tap & Table", "brewery_type": "brewpub", "address_1": "11191 Highline Dr", "address_2": null, "address_3": null, "city": "Meadville", "state_province": "Pennsylvania", "postal_code": "16335-6589", "country": "United States", "longitude": null, "latitude": null, "phone": "8148071005", "website_url": "http://www.timbercreektapandtable.com", "state": "Pennsylvania", "street": "11191 Highline Dr"}, {"id": "96b81bfe-8ab7-4278-a202-dcd1ce05ede1", "name": "Timber Monster Brewing Company", "brewery_type": "micro", "address_1": "410 Main Street", "address_2": null, "address_3": null, "city": "Sultan", "state_province": "Washington", "postal_code": "98294", "country": "United States", "longitude": "-121.8162158", "latitude": "47.86241076", "phone": "4257500814", "website_url": null, "state": "Washington", "street": "410 Main Street"}, {"id": "72466771-4af4-4da5-a120-06081eda08d8", "name": "Timberyard Brewing Co.", "brewery_type": "planning", "address_1": null, "address_2": null, "address_3": null, "city": "East Brookfield", "state_province": "Massachusetts", "postal_code": "01515", "country": "United States", "longitude": null, "latitude": null, "phone": "4135526048", "website_url": "http://timberyardbrewing.com", "state": "Massachusetts", "street": null}, {"id": "3bacbef1-dd83-4eba-9fc8-93641f69454e", "name": "Timbukbru", "brewery_type": "micro", "address_1": "215 6th St SW", "address_2": null, "address_3": null, "city": "Clarion", "state_province": "Iowa", "postal_code": "50525", "country": "United States", "longitude": "-93.740532", "latitude": "42.731535", "phone": "5155320015", "website_url": "http://www.timbukbru.com", "state": "Iowa", "street": "215 6th St SW"}, {"id": "592fd7bf-bd5e-4c40-a951-0a4af1c06727", "name": "Timeless Pints Brewing Co", "brewery_type": "closed", "address_1": "3671 Industry Ave Ste C1", "address_2": null, "address_3": null, "city": "Lakewood", "state_province": "California", "postal_code": "90712-4155", "country": "United States", "longitude": "-118.1659197", "latitude": "33.8236814", "phone": "5624900099", "website_url": "http://www.timelesspints.com", "state": "California", "street": "3671 Industry Ave Ste C1"}, {"id": "82e6bab6-2ba9-4942-bf6b-5d5791a0b52e", "name": "Timnath Beerwerks", "brewery_type": "planning", "address_1": null, "address_2": null, "address_3": null, "city": "Timnath", "state_province": "Colorado", "postal_code": "80547", "country": "United States", "longitude": null, "latitude": null, "phone": "9702224131", "website_url": null, "state": "Colorado", "street": null}, {"id": "2712000e-1581-481c-9422-63120e8c4026", "name": "Timotheus Brothers Brewery", "brewery_type": "micro", "address_1": "2708 N Peoria Rd", "address_2": null, "address_3": null, "city": "Springfield", "state_province": "Illinois", "postal_code": "62702-1248", "country": "United States", "longitude": "-89.6309244", "latitude": "39.846853", "phone": "2179710027", "website_url": null, "state": "Illinois", "street": "2708 N Peoria Rd"}, {"id": "da072acf-a430-4fa7-9b49-39bd2a391fce", "name": "Tin Bridge Brewing", "brewery_type": "micro", "address_1": "487 E Main St", "address_2": null, "address_3": null, "city": "Westfield", "state_province": "Massachusetts", "postal_code": "01085", "country": "United States", "longitude": "-72.71967336", "latitude": "42.11268502", "phone": "4136426418", "website_url": "http://www.tinbridgebrewing.com", "state": "Massachusetts", "street": "487 E Main St"}, {"id": "6c80e58c-accb-4ea0-9d22-5f2805d2ee01", "name": "Tin Cannon Brewing Company", "brewery_type": "micro", "address_1": "7679 Limestone Dr Ste 130", "address_2": null, "address_3": null, "city": "Gainesville", "state_province": "Virginia", "postal_code": "20155-4041", "country": "United States", "longitude": null, "latitude": null, "phone": "5712480489", "website_url": "http://www.tincannonbrewing.com", "state": "Virginia", "street": "7679 Limestone Dr Ste 130"}, {"id": "8b52fa56-8b17-4ed8-b670-0bd3c4b39c2d", "name": "Tin Dog Brewing", "brewery_type": "micro", "address_1": "309 S Cloverdale St Ste A2", "address_2": null, "address_3": null, "city": "Seattle", "state_province": "Washington", "postal_code": "98108-4500", "country": "United States", "longitude": null, "latitude": null, "phone": "2064384257", "website_url": "http://www.tindogbrewing.com", "state": "Washington", "street": "309 S Cloverdale St Ste A2"}, {"id": "2fd62d9c-43e9-44a1-88a5-6209f1da84f6", "name": "Tin Lizard Brewing Co", "brewery_type": "brewpub", "address_1": "1000 W Lancaster Ave", "address_2": null, "address_3": null, "city": "Bryn Mawr", "state_province": "Pennsylvania", "postal_code": "19010-2611", "country": "United States", "longitude": "-75.322789", "latitude": "40.023568", "phone": "6105251100", "website_url": "http://www.tinlizardbrewingco.com", "state": "Pennsylvania", "street": "1000 W Lancaster Ave"}, {"id": "82a64a53-38c6-4919-9c96-3181b0ce5e99", "name": "Tin Man Brewing Company", "brewery_type": "micro", "address_1": "1430 W Franklin St", "address_2": null, "address_3": null, "city": "Evansville", "state_province": "Indiana", "postal_code": "47710-1030", "country": "United States", "longitude": "-87.58452457", "latitude": "37.9802897", "phone": "8126183227", "website_url": "http://www.tinmanbrewing.com", "state": "Indiana", "street": "1430 W Franklin St"}, {"id": "02760ee7-3975-4d69-82ce-fff5d62c0024", "name": "Tin Man Brewing Kokomo", "brewery_type": "micro", "address_1": "500 N Buckeye St Ste A", "address_2": null, "address_3": null, "city": "Kokomo", "state_province": "Indiana", "postal_code": "46901-4544", "country": "United States", "longitude": null, "latitude": null, "phone": "5125176164", "website_url": null, "state": "Indiana", "street": "500 N Buckeye St Ste A"}, {"id": "07244546-6ab3-4193-a093-2c5eee31e61f", "name": "Tin Mill Brewing Co", "brewery_type": "brewpub", "address_1": "114 Gutenberg St", "address_2": null, "address_3": null, "city": "Hermann", "state_province": "Missouri", "postal_code": "65041-1138", "country": "United States", "longitude": "-91.43303557", "latitude": "38.706022", "phone": "5734862275", "website_url": "http://www.tinmillbrewing.com", "state": "Missouri", "street": "114 Gutenberg St"}, {"id": "f8d441be-c395-485d-bc40-97fb4182e1e4", "name": "Tin Roof Brewing Co", "brewery_type": "micro", "address_1": "1624 Wyoming St", "address_2": null, "address_3": null, "city": "Baton Rouge", "state_province": "Louisiana", "postal_code": "70802-8514", "country": "United States", "longitude": "-91.1884332", "latitude": "30.419556", "phone": "2253777022", "website_url": "http://www.tinroofbeer.com", "state": "Louisiana", "street": "1624 Wyoming St"}, {"id": "35b63fae-0c3d-4e39-a21a-6643fc97a1bd", "name": "Tin Whiskers Brewing", "brewery_type": "micro", "address_1": "125 9th St E Unit 127", "address_2": null, "address_3": null, "city": "Saint Paul", "state_province": "Minnesota", "postal_code": "55101-2308", "country": "United States", "longitude": null, "latitude": null, "phone": null, "website_url": null, "state": "Minnesota", "street": "125 9th St E Unit 127"}, {"id": "54ccc70d-db3f-4eae-aa75-842df0b1cd29", "name": "Tiny Tim's Pizza /West Mountain Brewery", "brewery_type": "brewpub", "address_1": "21 W Mountain St", "address_2": null, "address_3": null, "city": "Fayetteville", "state_province": "Arkansas", "postal_code": "72701-6086", "country": "United States", "longitude": "-94.1602601", "latitude": "36.0617393", "phone": "4794429090", "website_url": "http://www.facebook.com/pg/tinytimspizza", "state": "Arkansas", "street": "21 W Mountain St"}, {"id": "9686860f-5970-4d38-8be8-83b15f36c286", "name": "Tioga-Sequoia Brewing Co", "brewery_type": "micro", "address_1": "746 Broadway St", "address_2": null, "address_3": null, "city": "Fresno", "state_province": "California", "postal_code": "93721-2808", "country": "United States", "longitude": "-119.7883079", "latitude": "36.73071679", "phone": "5592645521", "website_url": "http://www.tiogasequoia.com", "state": "California", "street": "746 Broadway St"}, {"id": "45fd5e31-0d8e-4f20-be9b-673df9f03a52", "name": "Tired Hands Brewing Co", "brewery_type": "brewpub", "address_1": "16 Ardmore Ave", "address_2": null, "address_3": null, "city": "Ardmore", "state_province": "Pennsylvania", "postal_code": "19003-1302", "country": "United States", "longitude": "-75.2936914", "latitude": "40.0086029", "phone": "6108967621", "website_url": "http://www.tiredhands.com", "state": "Pennsylvania", "street": "16 Ardmore Ave"}, {"id": "b847ebf5-148f-4e38-b05a-cd3771965cd0", "name": "Tired Hands Brewing Co", "brewery_type": "brewpub", "address_1": "35 S Cricket Ter", "address_2": null, "address_3": null, "city": "Ardmore", "state_province": "Pennsylvania", "postal_code": "19003-2203", "country": "United States", "longitude": "-75.29076729", "latitude": "40.00683337", "phone": "4844132983", "website_url": "http://www.tiredhands.com", "state": "Pennsylvania", "street": "35 S Cricket Ter"}, {"id": "d60006b3-34eb-46e4-acd3-62a773d980ad", "name": "Titanic Brewing Co", "brewery_type": "brewpub", "address_1": "5813 Ponce de Leon Blvd", "address_2": null, "address_3": null, "city": "Miami", "state_province": "Florida", "postal_code": "33146-2422", "country": "United States", "longitude": "-80.271314", "latitude": "25.719812", "phone": "3056672537", "website_url": "http://www.titanicbrewery.com", "state": "Florida", "street": "5813 Ponce de Leon Blvd"}, {"id": "ae5e5f5f-b96d-4251-880c-ae129319e48f", "name": "Titletown Brewing Co", "brewery_type": "brewpub", "address_1": "200 Dousman St", "address_2": null, "address_3": null, "city": "Green Bay", "state_province": "Wisconsin", "postal_code": "54303-2712", "country": "United States", "longitude": "-88.018517", "latitude": "44.51892", "phone": "9204372337", "website_url": "http://www.titletownbrewing.com", "state": "Wisconsin", "street": "200 Dousman St"}, {"id": "854e59da-10fb-4e4d-bd4b-e2b8255bc308", "name": "Tivoli Brewing Company", "brewery_type": "micro", "address_1": "900 Auraria Pkwy Unit 240", "address_2": null, "address_3": null, "city": "Denver", "state_province": "Colorado", "postal_code": "80204-1897", "country": "United States", "longitude": null, "latitude": null, "phone": "3035826039", "website_url": null, "state": "Colorado", "street": "900 Auraria Pkwy Unit 240"}, {"id": "3fe64caf-3ed4-4954-b585-e2902ad820b5", "name": "TKO Libations", "brewery_type": "micro", "address_1": "2520 King Arthur Blvd Ste 109", "address_2": null, "address_3": null, "city": "Lewisville", "state_province": "Texas", "postal_code": "75056-6082", "country": "United States", "longitude": null, "latitude": null, "phone": "4696302337", "website_url": "http://www.tkolibations.com", "state": "Texas", "street": "2520 King Arthur Blvd Ste 109"}, {"id": "96c943e8-92bb-48bd-8cd0-bb818ea3145b", "name": "To Share Brewing Company", "brewery_type": "planning", "address_1": null, "address_2": null, "address_3": null, "city": "Manchester", "state_province": "New Hampshire", "postal_code": "03104", "country": "United States", "longitude": null, "latitude": null, "phone": "3012376579", "website_url": "http://www.tosharebrewing.com", "state": "New Hampshire", "street": null}, {"id": "f8dc2368-d963-4d93-9a24-208a6d07c87f", "name": "Toast Ale", "brewery_type": "contract", "address_1": "601 W 26th St Ste 325-291", "address_2": null, "address_3": null, "city": "New York", "state_province": "New York", "postal_code": "10001-1101", "country": "United States", "longitude": null, "latitude": null, "phone": "9162023851", "website_url": "http://www.toastale.com/us", "state": "New York", "street": "601 W 26th St Ste 325-291"}, {"id": "93662afa-d0a7-48c1-a7b8-a81ca37c5594", "name": "Toasted Barrel Brewery", "brewery_type": "closed", "address_1": null, "address_2": null, "address_3": null, "city": "salt lake city", "state_province": "Utah", "postal_code": "84103", "country": "United States", "longitude": "-111.903198", "latitude": "40.782833", "phone": "8016576942", "website_url": "http://www.toastedbarrelbrewery.com", "state": "Utah", "street": null}, {"id": "70b7d406-90d7-460e-b473-9bfa759cb53f", "name": "Tobacco Road Brewery", "brewery_type": "brewpub", "address_1": "505 W Jones St", "address_2": null, "address_3": null, "city": "Raleigh", "state_province": "North Carolina", "postal_code": "27603-1428", "country": "United States", "longitude": "-78.64598965", "latitude": "35.78269753", "phone": "9193018793", "website_url": "http://www.tobaccoroadsportscafe.com", "state": "North Carolina", "street": "505 W Jones St"}, {"id": "dbdef60f-fa3c-42a4-8536-5b4c85c946b9", "name": "Tobacco Wood Brewing Company", "brewery_type": "planning", "address_1": null, "address_2": null, "address_3": null, "city": "Oxford", "state_province": "North Carolina", "postal_code": "27565", "country": "United States", "longitude": null, "latitude": null, "phone": "9199391909", "website_url": null, "state": "North Carolina", "street": null}, {"id": "eb6b9afe-8efc-4179-ac49-1c46c7ef29a0", "name": "Tocayo Brewing Company", "brewery_type": "contract", "address_1": "1 S Dearborn St Ste 1700", "address_2": null, "address_3": null, "city": "Chicago", "state_province": "Illinois", "postal_code": "60603-2308", "country": "United States", "longitude": null, "latitude": null, "phone": "3122592189", "website_url": null, "state": "Illinois", "street": "1 S Dearborn St Ste 1700"}, {"id": "910f6318-1536-4e84-b0b8-bb5f1ce9f787", "name": "Toltec Brewing Co", "brewery_type": "brewpub", "address_1": "10250 Cottonwood Park NW # S", "address_2": null, "address_3": null, "city": "Albuquerque", "state_province": "New Mexico", "postal_code": "87114-7018", "country": "United States", "longitude": null, "latitude": null, "phone": "5057307982", "website_url": null, "state": "New Mexico", "street": "10250 Cottonwood Park NW # S"}, {"id": "c947eb60-863c-4676-9961-6c52ba387fb9", "name": "Tom's Urban Kitchen and Brewery", "brewery_type": "planning", "address_1": null, "address_2": null, "address_3": null, "city": "Denver", "state_province": "Colorado", "postal_code": "80249-6310", "country": "United States", "longitude": null, "latitude": null, "phone": "3035826039", "website_url": null, "state": "Colorado", "street": null}, {"id": "47df5771-9c01-422d-82f6-98a5d2e4e246", "name": "Tombstone Brewing Company", "brewery_type": "micro", "address_1": "107 E Toughnut", "address_2": null, "address_3": null, "city": "Tombstone", "state_province": "Arizona", "postal_code": "85638", "country": "United States", "longitude": "-110.0722818", "latitude": "31.71360268", "phone": "5202226781", "website_url": "http://www.tombstone.beer", "state": "Arizona", "street": "107 E Toughnut"}, {"id": "60b5deda-ae21-44bc-834d-86c7df2a5f83", "name": "Tomfoolery Brewing", "brewery_type": "micro", "address_1": "334 N Washington St Unit 24B", "address_2": null, "address_3": null, "city": "Hammonton", "state_province": "New Jersey", "postal_code": "08037-1558", "country": "United States", "longitude": null, "latitude": null, "phone": "6095611762", "website_url": "http://www.tomfoolerybrewing.beer", "state": "New Jersey", "street": "334 N Washington St Unit 24B"}, {"id": "7defa30d-bf4d-43e3-a824-6a9535cee2ea", "name": "Tommyknocker Brewery & Pub", "brewery_type": "micro", "address_1": "1401 Miner St", "address_2": null, "address_3": null, "city": "Idaho Springs", "state_province": "Colorado", "postal_code": "80452", "country": "United States", "longitude": "-105.5176775", "latitude": "39.7417505", "phone": "3035674419", "website_url": "http://www.tommyknocker.com", "state": "Colorado", "street": "1401 Miner St"}, {"id": "ef25ed7b-5311-45d7-ad82-42e4f7714d2c", "name": "Tomoka Brewing Company", "brewery_type": "brewpub", "address_1": "4647 Clyde Morris Blvd Unit 504", "address_2": null, "address_3": null, "city": "Port Orange", "state_province": "Florida", "postal_code": "32129-3001", "country": "United States", "longitude": null, "latitude": null, "phone": "3862564979", "website_url": "http://www.tomokabrewingco.com", "state": "Florida", "street": "4647 Clyde Morris Blvd Unit 504"}, {"id": "d388e05d-ba66-4a1e-bb23-67ed7c4890d1", "name": "Tonewood Brewing", "brewery_type": "micro", "address_1": "215 W Clinton Ave", "address_2": null, "address_3": null, "city": "Oaklyn", "state_province": "New Jersey", "postal_code": "08107-1500", "country": "United States", "longitude": "-75.08338058", "latitude": "39.90139895", "phone": "8568331500", "website_url": "http://www.tonewoodbrewing.com", "state": "New Jersey", "street": "215 W Clinton Ave"}, {"id": "3c0588bd-7fd2-469c-98cb-778653502107", "name": "Tonopah Brewing Co", "brewery_type": "brewpub", "address_1": "315 S Main St", "address_2": null, "address_3": null, "city": "Tonopah", "state_province": "Nevada", "postal_code": "89049", "country": "United States", "longitude": "-117.2319823", "latitude": "38.07035024", "phone": "7754822000", "website_url": "http://www.tonopahbrewing.com", "state": "Nevada", "street": "315 S Main St"}, {"id": "15b37ef1-84bf-4c80-ba2e-74123482d2a1", "name": "Toolbox Brewing Company", "brewery_type": "micro", "address_1": "1495 Poinsettia Ave Ste 148", "address_2": null, "address_3": null, "city": "Vista", "state_province": "California", "postal_code": "92081-8539", "country": "United States", "longitude": "-117.2239733", "latitude": "33.13599334", "phone": "7605981477", "website_url": "http://Toolboxbrewing.Com", "state": "California", "street": "1495 Poinsettia Ave Ste 148"}, {"id": "84c1e0e9-5adc-423b-a1db-08bc1d946412", "name": "Tootsie's Brewery / Lone Oak Vineyard", "brewery_type": "brewpub", "address_1": "8400 Ann Arbor Rd", "address_2": null, "address_3": null, "city": "Grass Lake", "state_province": "Michigan", "postal_code": "49240-9586", "country": "United States", "longitude": null, "latitude": null, "phone": "5175228167", "website_url": "http://www.tootsiesbrewery.com", "state": "Michigan", "street": "8400 Ann Arbor Rd"}, {"id": "cfee19cf-73ea-4a7e-9037-1105b4dbecd8", "name": "Top Frog Brewery", "brewery_type": "micro", "address_1": "221 Vista Dr", "address_2": null, "address_3": null, "city": "Newport", "state_province": "Washington", "postal_code": "99156-7014", "country": "United States", "longitude": null, "latitude": null, "phone": "5096712884", "website_url": null, "state": "Washington", "street": "221 Vista Dr"}, {"id": "e498ccee-c405-451c-b27d-1426970983dc", "name": "Top Of The Hill Restaurant and Brewery", "brewery_type": "brewpub", "address_1": "100 E Franklin St Ste F", "address_2": null, "address_3": null, "city": "Chapel Hill", "state_province": "North Carolina", "postal_code": "27514-3629", "country": "United States", "longitude": null, "latitude": null, "phone": "9199298676", "website_url": "http://www.thetopofthehill.com", "state": "North Carolina", "street": "100 E Franklin St Ste F"}, {"id": "3288ac09-54e4-46bb-bb90-89a6276a206e", "name": "Top Rung Brewing Company", "brewery_type": "micro", "address_1": "8343 Hogum Bay Ln NE Ste E", "address_2": null, "address_3": null, "city": "Lacey", "state_province": "Washington", "postal_code": "98516-3135", "country": "United States", "longitude": null, "latitude": null, "phone": "3609158766", "website_url": "http://www.toprungbrewing.com", "state": "Washington", "street": "8343 Hogum Bay Ln NE Ste E"}, {"id": "781b62b5-1009-4bd0-97af-7287c2a69627", "name": "Topa Topa Brewing Co", "brewery_type": "micro", "address_1": "104 E Thompson Blvd", "address_2": null, "address_3": null, "city": "Ventura", "state_province": "California", "postal_code": "93001-2723", "country": "United States", "longitude": "-119.2994446", "latitude": "34.2781592", "phone": "8056289255", "website_url": "http://www.topatopabrewingco.com", "state": "California", "street": "104 E Thompson Blvd"}, {"id": "8ef9610b-bda9-4703-8205-34bcbac4cedf", "name": "Toppling Goliath Brewing Co", "brewery_type": "micro", "address_1": "1600 Prosperity Rd", "address_2": null, "address_3": null, "city": "Decorah", "state_province": "Iowa", "postal_code": "52101-7892", "country": "United States", "longitude": "-91.7250841", "latitude": "43.2727293", "phone": "5633826198", "website_url": "http://www.tgbrews.com", "state": "Iowa", "street": "1600 Prosperity Rd"}, {"id": "4497e1be-0cb7-4778-90ff-a910b56659e3", "name": "Topsy Turvy", "brewery_type": "planning", "address_1": null, "address_2": null, "address_3": null, "city": "Hampshire", "state_province": "Illinois", "postal_code": "60140-9449", "country": "United States", "longitude": null, "latitude": null, "phone": "8477787070", "website_url": null, "state": "Illinois", "street": null}, {"id": "d13d0b82-f800-4d2c-b631-f614e314d910", "name": "Topsy's", "brewery_type": "brewpub", "address_1": "260 Kearny St", "address_2": null, "address_3": null, "city": "San Francisco", "state_province": "California", "postal_code": "94108-4538", "country": "United States", "longitude": "-122.4038779", "latitude": "37.79052614", "phone": "4157570290", "website_url": "http://www.topsyssf.com", "state": "California", "street": "260 Kearny St"}, {"id": "0cd8d2ab-c637-4f3f-b135-5d510fae588d", "name": "Torc Brewing", "brewery_type": "micro", "address_1": "JD Industrial Park", "address_2": "Scart", "address_3": null, "city": "Killarney", "state_province": "Kerry", "postal_code": "V93 H761", "country": "Ireland", "longitude": "-9.5564852", "latitude": "52.1402528", "phone": "353876595858", "website_url": "http://www.torcbrewing.ie/", "state": "Kerry", "street": "JD Industrial Park"}, {"id": "d9c48be3-cc34-4624-b4c9-f5dfc04bb240", "name": "Torched Hop Brewing Company", "brewery_type": "brewpub", "address_1": "249 Ponce de Leon Ave NE", "address_2": null, "address_3": null, "city": "Atlanta", "state_province": "Georgia", "postal_code": "30308-1937", "country": "United States", "longitude": "-84.37929776", "latitude": "33.77232605", "phone": "4048352040", "website_url": "http://www.Torchedhopbrewing.com", "state": "Georgia", "street": "249 Ponce de Leon Ave NE"}, {"id": "93271344-d85f-41c0-89f1-f57daf704d4c", "name": "Torg Brewery", "brewery_type": "planning", "address_1": null, "address_2": null, "address_3": null, "city": "Minneapolis", "state_province": "Minnesota", "postal_code": "55432", "country": "United States", "longitude": null, "latitude": null, "phone": "7636390539", "website_url": "http://www.torgbrewery.com", "state": "Minnesota", "street": null}, {"id": "be539c44-e3bf-4344-af13-7d3daf10a539", "name": "Torn Label Brewing Company", "brewery_type": "micro", "address_1": "1708 Campbell St", "address_2": null, "address_3": null, "city": "Kansas City", "state_province": "Missouri", "postal_code": "64108-1524", "country": "United States", "longitude": "-94.5731695", "latitude": "39.0926934", "phone": "8166565459", "website_url": "http://www.tornlabel.com", "state": "Missouri", "street": "1708 Campbell St"}, {"id": "53beda27-334d-46d5-8cb5-7336cc42f7b7", "name": "Toro Creek Brewing Co", "brewery_type": "micro", "address_1": "1111 Riverside Ave, Ste 103", "address_2": null, "address_3": null, "city": "Paso Robles", "state_province": "California", "postal_code": "93446", "country": "United States", "longitude": "-120.6872603", "latitude": "35.6262455", "phone": "8055507007", "website_url": "http://www.torocreekbrewingcompany.com", "state": "California", "street": "1111 Riverside Ave, Ste 103"}, {"id": "542910b2-3af4-4b62-b5d4-d8edf440cd1a", "name": "Torrent Brewing Co", "brewery_type": "micro", "address_1": "504 Burnett Ave", "address_2": null, "address_3": null, "city": "Ames", "state_province": "Iowa", "postal_code": "50010-6178", "country": "United States", "longitude": "-93.61526616", "latitude": "42.02605341", "phone": "5152333155", "website_url": "http://www.torrentbrewingco.com", "state": "Iowa", "street": "504 Burnett Ave"}, {"id": "543f9be5-b99f-4537-a641-67ecc55ca1a8", "name": "Tortugo Brewing Company", "brewery_type": "planning", "address_1": null, "address_2": null, "address_3": null, "city": "Inglewood", "state_province": "California", "postal_code": "90302-3308", "country": "United States", "longitude": "-118.3550377", "latitude": "33.96185", "phone": null, "website_url": null, "state": "California", "street": null}, {"id": "8ee26476-e33e-4940-95f9-75bb761d5324", "name": "Touchstone Brewing Company", "brewery_type": "planning", "address_1": null, "address_2": null, "address_3": null, "city": "Sacramento", "state_province": "California", "postal_code": "95811-0618", "country": "United States", "longitude": "-121.4943996", "latitude": "38.5815719", "phone": "4155701391", "website_url": null, "state": "California", "street": null}, {"id": "8768b214-ee24-40b3-b4cb-1b03862eabb8", "name": "Tower Brewing Co", "brewery_type": "micro", "address_1": "1210 66th St Unit B", "address_2": null, "address_3": null, "city": "Sacramento", "state_province": "California", "postal_code": "95819-4327", "country": "United States", "longitude": "-121.4266488", "latitude": "38.55493463", "phone": "9162724472", "website_url": "http://towerbrewingcompany.com", "state": "California", "street": "1210 66th St Unit B"}, {"id": "594a7d7b-1885-4697-863e-5d60203b8a8a", "name": "Towerhill Brewery", "brewery_type": "brewpub", "address_1": "237 W Butler Ave", "address_2": null, "address_3": null, "city": "Chalfont", "state_province": "Pennsylvania", "postal_code": "18914-3020", "country": "United States", "longitude": "-75.21378231", "latitude": "40.27984378", "phone": "2158228788", "website_url": "http://www.towerhillbrewery.com", "state": "Pennsylvania", "street": "237 W Butler Ave"}, {"id": "16260ec1-907c-4e9b-bbac-ed70973e1ed2", "name": "Town Branch Distillery", "brewery_type": "micro", "address_1": "401 Cross St", "address_2": null, "address_3": null, "city": "Lexington", "state_province": "Kentucky", "postal_code": "40508", "country": "United States", "longitude": "-84.50889213", "latitude": "38.04997369", "phone": "8592552337", "website_url": null, "state": "Kentucky", "street": "401 Cross St"}, {"id": "24a7dd60-ad86-43d3-84ae-1e51aaf6d7f9", "name": "Town In City Brewing Co, LLC", "brewery_type": "micro", "address_1": "1125 W Cavalcade St", "address_2": null, "address_3": null, "city": "Houston", "state_province": "Texas", "postal_code": "77009-2907", "country": "United States", "longitude": "-95.3870438", "latitude": "29.8036158", "phone": "8328347151", "website_url": "http://townincitybrewing.com", "state": "Texas", "street": "1125 W Cavalcade St"}, {"id": "82f645a5-0677-4e18-af76-30c25e84ad88", "name": "Towne Park Brew Co", "brewery_type": "closed", "address_1": "19191 Lawrence Cyn", "address_2": null, "address_3": null, "city": "Silverado", "state_province": "California", "postal_code": "92676-9731", "country": "United States", "longitude": "-117.6243323", "latitude": "33.68926191", "phone": "9496473562", "website_url": "http://www.towneparkbrew.com", "state": "California", "street": "19191 Lawrence Cyn"}, {"id": "8e300f8a-fce3-446f-bbb4-aac35ff1a08e", "name": "Townies Brewery", "brewery_type": "brewpub", "address_1": "2350 W Liberty Rd", "address_2": null, "address_3": null, "city": "Ann Arbor", "state_province": "Michigan", "postal_code": "48103", "country": "United States", "longitude": "-83.7891745", "latitude": "42.2730356", "phone": null, "website_url": null, "state": "Michigan", "street": "2350 W Liberty Rd"}, {"id": "5929b669-4b2a-4369-bbbd-fff26a936c19", "name": "Township 7 Brewing Co. LLC", "brewery_type": "micro", "address_1": "303 State Route 11b", "address_2": null, "address_3": null, "city": "Dickinson Center", "state_province": "New York", "postal_code": "12930-2008", "country": "United States", "longitude": null, "latitude": null, "phone": "5186519532", "website_url": "http://www.township7brewing.com", "state": "New York", "street": "303 State Route 11b"}, {"id": "094745e6-3b1e-4549-a2db-76bf222e4561", "name": "Tox Brewing Company", "brewery_type": "planning", "address_1": null, "address_2": null, "address_3": null, "city": "New London", "state_province": "Connecticut", "postal_code": "06320", "country": "United States", "longitude": null, "latitude": null, "phone": null, "website_url": "http://www.toxbrewing.com", "state": "Connecticut", "street": null}, {"id": "f1f9309d-bf1e-4b7a-95b8-ea3505cad878", "name": "Toxic Brew Company", "brewery_type": "brewpub", "address_1": "431 E 5th St", "address_2": null, "address_3": null, "city": "Dayton", "state_province": "Ohio", "postal_code": "45402-2911", "country": "United States", "longitude": "-84.1843655", "latitude": "39.75724887", "phone": "9379853618", "website_url": "http://www.toxicbrewcompany.com", "state": "Ohio", "street": "431 E 5th St"}, {"id": "9c82613b-d6ae-43bf-bd12-c00b05058fde", "name": "Toy Soldier", "brewery_type": "brewpub", "address_1": "52 Belden Pl", "address_2": null, "address_3": null, "city": "San Francisco", "state_province": "California", "postal_code": "94104", "country": "United States", "longitude": "-122.403671", "latitude": "37.79129781", "phone": "4159069048", "website_url": "http://www.toysoldiersf.com", "state": "California", "street": "52 Belden Pl"}, {"id": "9c55c622-8dbc-40ff-bfda-02e71952c2fc", "name": "Trace Brewing", "brewery_type": "planning", "address_1": null, "address_2": null, "address_3": null, "city": "Nashville", "state_province": "Tennessee", "postal_code": "37221-3967", "country": "United States", "longitude": null, "latitude": null, "phone": null, "website_url": null, "state": "Tennessee", "street": null}, {"id": "34596a5d-9c0a-4b73-943d-e50b5cf07dbf", "name": "Track 7 Brewing Co - Curtis Park", "brewery_type": "micro", "address_1": "3747 W Pacific Ave Ste F", "address_2": null, "address_3": null, "city": "Sacramento", "state_province": "California", "postal_code": "95820-1000", "country": "United States", "longitude": "-121.4819794", "latitude": "38.53890682", "phone": "9165204677", "website_url": "http://www.track7brewing.com", "state": "California", "street": "3747 W Pacific Ave Ste F"}, {"id": "e2b7686b-885a-4114-b895-681557275183", "name": "Track 7 Brewing Co - Natomas", "brewery_type": "micro", "address_1": "826 Professor Ln Ste 100", "address_2": null, "address_3": null, "city": "Sacramento", "state_province": "California", "postal_code": "95834-7743", "country": "United States", "longitude": "-121.4908802", "latitude": "38.6543681", "phone": "9165204677", "website_url": null, "state": "California", "street": "826 Professor Ln Ste 100"}, {"id": "373559ad-c964-477c-a443-f0531e3f78b0", "name": "Tractor Brewing Co", "brewery_type": "micro", "address_1": "1800 4th St NW", "address_2": null, "address_3": null, "city": "Albuquerque", "state_province": "New Mexico", "postal_code": "87102-1426", "country": "United States", "longitude": "-106.6478962", "latitude": "35.1022749", "phone": "5052436752", "website_url": "http://www.getplowed.com", "state": "New Mexico", "street": "1800 4th St NW"}, {"id": "2f9d7258-dbf0-44b0-bb2f-9b0cd5ad590d", "name": "TractorLift Brewery", "brewery_type": "micro", "address_1": "708 Sumner Ave", "address_2": null, "address_3": null, "city": "Humboldt", "state_province": "Iowa", "postal_code": "50548-1763", "country": "United States", "longitude": "-94.21895665", "latitude": "42.72094547", "phone": "5158909484", "website_url": null, "state": "Iowa", "street": "708 Sumner Ave"}, {"id": "53f445a3-9f37-4357-a421-899ee1a1b99a", "name": "Trade Brewing", "brewery_type": "micro", "address_1": "731 1st St", "address_2": null, "address_3": null, "city": "Napa", "state_province": "California", "postal_code": "94559-2624", "country": "United States", "longitude": "-122.2821838", "latitude": "38.30073396", "phone": "7074928223", "website_url": "http://www.tradebrewing.com", "state": "California", "street": "731 1st St"}, {"id": "d98dcb64-5f67-4815-84c0-5bb77228fd57", "name": "Trader Joes - West Coast Office", "brewery_type": "contract", "address_1": "800 S. Shamrock Ave", "address_2": null, "address_3": null, "city": "Monrovia", "state_province": "California", "postal_code": "91016", "country": "United States", "longitude": null, "latitude": null, "phone": "6265993700", "website_url": null, "state": "California", "street": "800 S. Shamrock Ave"}, {"id": "4e2d1963-f8b7-4680-b972-97de485bbbf9", "name": "Traders Brewing Company", "brewery_type": "micro", "address_1": "8587  ZIONSVILLE ROAD", "address_2": null, "address_3": null, "city": "INDIANAPOLIS", "state_province": "Indiana", "postal_code": "46268", "country": "United States", "longitude": null, "latitude": null, "phone": "3172807505", "website_url": "http://www.tradersbrewingcompany.com", "state": "Indiana", "street": "8587  ZIONSVILLE ROAD"}, {"id": "f441dad2-da0b-43b0-86e6-5fc1cc720c2d", "name": "Tradesman Brewing Company", "brewery_type": "micro", "address_1": "1639 Tatum St", "address_2": null, "address_3": null, "city": "Charleston", "state_province": "South Carolina", "postal_code": "29412-2646", "country": "United States", "longitude": "-79.97321382", "latitude": "32.76013923", "phone": "8434101315", "website_url": "http://www.tradesmanbrewing.com", "state": "South Carolina", "street": "1639 Tatum St"}, {"id": "c05a5aeb-acfe-454b-8596-b04edddf1bc5", "name": "Tradition Brewing Company", "brewery_type": "micro", "address_1": "700 Thimble Shoals Blvd Ste 103", "address_2": null, "address_3": null, "city": "Newport News", "state_province": "Virginia", "postal_code": "23606-4532", "country": "United States", "longitude": "-76.4770317", "latitude": "37.0845471", "phone": "7575929393", "website_url": "http://www.traditionbrewing.com", "state": "Virginia", "street": "700 Thimble Shoals Blvd Ste 103"}, {"id": "9a256c21-3a8b-480b-9cb5-fc52084fedca", "name": "Traffic Jam and Snug", "brewery_type": "brewpub", "address_1": "4268 2nd Ave", "address_2": null, "address_3": null, "city": "Detroit", "state_province": "Michigan", "postal_code": "48201-1706", "country": "United States", "longitude": "-83.086546", "latitude": "42.384371", "phone": "3138319470", "website_url": "http://www.trafficjamdetroit.com", "state": "Michigan", "street": "4268 2nd Ave"}, {"id": "0f1ed8ab-a282-40c9-8a58-1dfc03e7ce6f", "name": "Trail Crest Brewing Company", "brewery_type": "brewpub", "address_1": "1800 S Milton Rd Ste 11", "address_2": null, "address_3": null, "city": "Flagstaff", "state_province": "Arizona", "postal_code": "86001", "country": "United States", "longitude": null, "latitude": null, "phone": "9284405085", "website_url": "http://www.trailcrestbrewing.com", "state": "Arizona", "street": "1800 S Milton Rd Ste 11"}, {"id": "abcd1ceb-8283-4d5f-aeb9-bda3778067c7", "name": "Trail Dog Brewing Co.", "brewery_type": "planning", "address_1": null, "address_2": null, "address_3": null, "city": "Novato", "state_province": "California", "postal_code": "94945-3318", "country": "United States", "longitude": "-122.5681191", "latitude": "38.1061979", "phone": "4157580411", "website_url": "http://traildogbrewing.com", "state": "California", "street": null}, {"id": "4ed098f5-5ff6-40b9-b238-538961222e90", "name": "Trail Point Brewing Co.", "brewery_type": "micro", "address_1": "6035 Lake Michigan Dr", "address_2": null, "address_3": null, "city": "Allendale", "state_province": "Michigan", "postal_code": "49401-9101", "country": "United States", "longitude": "-85.93541536", "latitude": "42.97207782", "phone": "6168952739", "website_url": "http://www.trailpointbrewing.com", "state": "Michigan", "street": "6035 Lake Michigan Dr"}, {"id": "64e8e735-2d18-48d8-8dbd-f6729513da71", "name": "Trailhead Brewing Co", "brewery_type": "closed", "address_1": "921 S Riverside Dr", "address_2": null, "address_3": null, "city": "Saint Charles", "state_province": "Missouri", "postal_code": "63301-3489", "country": "United States", "longitude": "-90.48424843", "latitude": "38.77419057", "phone": "6369462739", "website_url": "http://www.trailheadbrewing.com", "state": "Missouri", "street": "921 S Riverside Dr"}, {"id": "c9f36d18-efb4-419c-8acf-b4598bbf2326", "name": "Transient Artisan Ales", "brewery_type": "micro", "address_1": "4229 Lake St", "address_2": null, "address_3": null, "city": "Bridgman", "state_province": "Michigan", "postal_code": "49106-9109", "country": "United States", "longitude": "-86.55570937", "latitude": "41.94299804", "phone": null, "website_url": null, "state": "Michigan", "street": "4229 Lake St"}, {"id": "477bfcda-4e96-4f41-a17b-3b1d0407eae0", "name": "Transmission Brewing Company", "brewery_type": "planning", "address_1": null, "address_2": null, "address_3": null, "city": "Oxnard", "state_province": "California", "postal_code": "93030-8231", "country": "United States", "longitude": "-119.1803818", "latitude": "34.1976308", "phone": "8054076133", "website_url": "http://jonkercarey@gmail.com", "state": "California", "street": null}, {"id": "145e08e2-df7d-4dfb-a67d-d4f342e9aa6d", "name": "Transmitter Brewing", "brewery_type": "micro", "address_1": "5302 11th St", "address_2": null, "address_3": null, "city": "Long Island City", "state_province": "New York", "postal_code": "11101-5917", "country": "United States", "longitude": "-73.9511062", "latitude": "40.7431826", "phone": "6463788529", "website_url": "http://www.transmitterbrew.com", "state": "New York", "street": "5302 11th St"}, {"id": "1fd4733e-3c00-46a6-a358-36877f23cc09", "name": "Transparent Brewing Company", "brewery_type": "micro", "address_1": "14501 White Ave", "address_2": null, "address_3": null, "city": "Grandview", "state_province": "Missouri", "postal_code": "64030", "country": "United States", "longitude": "-94.525651", "latitude": "38.893126", "phone": "8164998888", "website_url": "http://www.transparentbrewingcompany.com", "state": "Missouri", "street": "14501 White Ave"}, {"id": "dcc8e5fc-a531-4bed-be1f-c5ae640053e0", "name": "Transplants Brewing Company", "brewery_type": "micro", "address_1": "40242 La Quinta Ln Ste 101", "address_2": null, "address_3": null, "city": "Palmdale", "state_province": "California", "postal_code": "93551-3630", "country": "United States", "longitude": "-118.1397352", "latitude": "34.61452922", "phone": "6612667911", "website_url": "http://www.transplantsbrewing.com", "state": "California", "street": "40242 La Quinta Ln Ste 101"}, {"id": "1a25fc20-de4d-4e06-aed5-0013bc2446ee", "name": "Transport Brewery", "brewery_type": "planning", "address_1": null, "address_2": null, "address_3": null, "city": "Shawnee", "state_province": "Kansas", "postal_code": "66203-2749", "country": "United States", "longitude": null, "latitude": null, "phone": null, "website_url": "http://www.transportbrewery.com", "state": "Kansas", "street": null}, {"id": "0bbdd47a-69a9-4e92-b688-b1afa2031390", "name": "Trap Door Brewing", "brewery_type": "micro", "address_1": "2315 Main St", "address_2": null, "address_3": null, "city": "Vancouver", "state_province": "Washington", "postal_code": "98660-2641", "country": "United States", "longitude": "-122.6713099", "latitude": "45.63904644", "phone": "5037582569", "website_url": "http://www.trapdoorbrewing.com", "state": "Washington", "street": "2315 Main St"}, {"id": "e41000c2-f355-4cad-ab5c-bd1b96185861", "name": "Trap Rock Brewing Co.", "brewery_type": "planning", "address_1": null, "address_2": null, "address_3": null, "city": "Saint Croix Falls", "state_province": "Wisconsin", "postal_code": "54024", "country": "United States", "longitude": null, "latitude": null, "phone": null, "website_url": "http://traprockbrewing.com", "state": "Wisconsin", "street": null}, {"id": "b266cce2-641c-4069-ab75-972b98b14310", "name": "Trap Rock Restaurant And Brewery", "brewery_type": "brewpub", "address_1": "279 Springfield Ave", "address_2": null, "address_3": null, "city": "Berkeley Heights", "state_province": "New Jersey", "postal_code": "07922-1214", "country": "United States", "longitude": "-74.43481217", "latitude": "40.6890382", "phone": "9086651755", "website_url": "http://www.traprockrestaurant.net", "state": "New Jersey", "street": "279 Springfield Ave"}, {"id": "693bd0ce-0c4b-4f22-ab99-9103827096d0", "name": "Trapezium Brewing Company", "brewery_type": "brewpub", "address_1": "423 3rd St", "address_2": null, "address_3": null, "city": "Petersburg", "state_province": "Virginia", "postal_code": "23803-", "country": "United States", "longitude": "-77.4014401", "latitude": "37.23348663", "phone": "8046775728", "website_url": "http://www.trapeziumbrewing.com", "state": "Virginia", "street": "423 3rd St"}, {"id": "2043d4a7-0356-4c97-bc40-739598829e90", "name": "Traust Brewing Co.", "brewery_type": "planning", "address_1": null, "address_2": null, "address_3": null, "city": "Charlotte", "state_province": "North Carolina", "postal_code": "28205", "country": "United States", "longitude": null, "latitude": null, "phone": "9805053111", "website_url": "http://www.traustbrewing.com", "state": "North Carolina", "street": null}, {"id": "3225e829-cb95-45ac-b95b-c4abe0307b0c", "name": "Treaty City Brewing Co.", "brewery_type": "micro", "address_1": "24 & 25 Nicholas St", "address_2": "Medieval Quarter", "address_3": null, "city": "Limerick", "state_province": "Limerick", "postal_code": "V94 EH57", "country": "Ireland", "longitude": "-8.6264874", "latitude": "52.6696543", "phone": "353871405560", "website_url": "http://treatycitybrewery.ie/", "state": "Limerick", "street": "24 & 25 Nicholas St"}, {"id": "413f12ba-347c-4343-8da7-63261f878669", "name": "Tree Farm Brewing Company, LLC", "brewery_type": "contract", "address_1": "3020 Papa Bear Dr", "address_2": null, "address_3": null, "city": "College Station", "state_province": "Texas", "postal_code": "77845-1402", "country": "United States", "longitude": null, "latitude": null, "phone": "9798200535", "website_url": "http://www.treefarmbrewing.com", "state": "Texas", "street": "3020 Papa Bear Dr"}, {"id": "1c0e323d-45ab-4d0c-9f27-8e8a62df3703", "name": "Tree House Brewery", "brewery_type": "regional", "address_1": "129 Sturbridge Rd", "address_2": null, "address_3": null, "city": "Charlton", "state_province": "Massachusetts", "postal_code": "01507-5330", "country": "United States", "longitude": "-72.0125532", "latitude": "42.1366948", "phone": "4139491891", "website_url": "http://www.treehousebrew.com", "state": "Massachusetts", "street": "129 Sturbridge Rd"}, {"id": "ac5b056f-49e7-4785-b58a-4ce34e6934c6", "name": "Trek Brewing", "brewery_type": "micro", "address_1": "1486 Granville Rd", "address_2": null, "address_3": null, "city": "Newark", "state_province": "Ohio", "postal_code": "43055-1538", "country": "United States", "longitude": "-82.45564409", "latitude": "40.05722817", "phone": null, "website_url": "http://www.trekbeer.com", "state": "Ohio", "street": "1486 Granville Rd"}, {"id": "100fc1b1-c30f-4aeb-80bd-ab2914e7483a", "name": "Tri City Brewing Co", "brewery_type": "micro", "address_1": "4170 Shrestha Dr", "address_2": null, "address_3": null, "city": "Bay City", "state_province": "Michigan", "postal_code": "48706-2184", "country": "United States", "longitude": null, "latitude": null, "phone": "9896861340", "website_url": "http://www.tricitybrewing.com", "state": "Michigan", "street": "4170 Shrestha Dr"}, {"id": "2544997a-17f7-4e5e-8d65-13c10c05da4b", "name": "Tribes Beer Company", "brewery_type": "brewpub", "address_1": "11220 Lincoln Hwy", "address_2": null, "address_3": null, "city": "Mokena", "state_province": "Illinois", "postal_code": "60448-8208", "country": "United States", "longitude": "-87.8886903", "latitude": "41.5033149", "phone": "8154640248", "website_url": "http://www.tribesalehouse.com", "state": "Illinois", "street": "11220 Lincoln Hwy"}, {"id": "042461eb-cc89-4c95-bc61-8a6a95bbf989", "name": "Tributary Brewing Company", "brewery_type": "micro", "address_1": "10 Shapleigh Rd", "address_2": null, "address_3": null, "city": "Kittery", "state_province": "Maine", "postal_code": "03904-1480", "country": "United States", "longitude": "-70.736801", "latitude": "43.090863", "phone": null, "website_url": "http://www.tributarybrewingcompany.com", "state": "Maine", "street": "10 Shapleigh Rd"}, {"id": "895ddfb0-8827-49d4-914e-c289559e854d", "name": "Tribute Brewing Co", "brewery_type": "micro", "address_1": "1106 N Bluebird Rd", "address_2": null, "address_3": null, "city": "Eagle River", "state_province": "Wisconsin", "postal_code": "54521-7557", "country": "United States", "longitude": "-89.2579185", "latitude": "45.92935062", "phone": "7154802337", "website_url": "http://www.tributebrewing.com", "state": "Wisconsin", "street": "1106 N Bluebird Rd"}, {"id": "542bf46a-1c9c-4e70-a8ad-4df6ad0fe5c6", "name": "Triceratops Brewing", "brewery_type": "proprietor", "address_1": "8036 River Dr SE Ste 203", "address_2": null, "address_3": null, "city": "Tumwater", "state_province": "Washington", "postal_code": "98501", "country": "United States", "longitude": null, "latitude": null, "phone": "3604805626", "website_url": "http://www.triceratopsbrewing.com", "state": "Washington", "street": "8036 River Dr SE Ste 203"}, {"id": "e2e84e69-b8cd-486a-9a65-6a9d0ec3243b", "name": "Trickster's Brewing Company", "brewery_type": "micro", "address_1": "3850 N Schreiber Way", "address_2": null, "address_3": null, "city": "Coeur D Alene", "state_province": "Idaho", "postal_code": "83815-8362", "country": "United States", "longitude": "-116.80346", "latitude": "47.712429", "phone": "9707647128", "website_url": "http://www.trickstersbrewing.com", "state": "Idaho", "street": "3850 N Schreiber Way"}, {"id": "c03a12eb-9a25-4841-8f41-e78d0053fa3d", "name": "Trillium Brewing", "brewery_type": "regional", "address_1": "110 Shawmut Rd", "address_2": null, "address_3": null, "city": "Canton", "state_province": "Massachusetts", "postal_code": "02021-1412", "country": "United States", "longitude": "-71.1527702", "latitude": "42.1847202", "phone": "6174538745", "website_url": "http://www.trilliumbrewing.com", "state": "Massachusetts", "street": "110 Shawmut Rd"}, {"id": "ffaf9ab2-0357-4109-a086-0cf83291c006", "name": "Trim Tab Brewing", "brewery_type": "micro", "address_1": "2721 5th Ave S", "address_2": null, "address_3": null, "city": "Birmingham", "state_province": "Alabama", "postal_code": "35233-3401", "country": "United States", "longitude": "-86.79140006", "latitude": "33.51284923", "phone": "2057030536", "website_url": "http://www.trimtabbrewing.com", "state": "Alabama", "street": "2721 5th Ave S"}, {"id": "792bd285-3d5f-4594-b5a0-4a212cd36219", "name": "Trinity Brewhouse", "brewery_type": "brewpub", "address_1": "186 Fountain St", "address_2": null, "address_3": null, "city": "Providence", "state_province": "Rhode Island", "postal_code": "02903-1813", "country": "United States", "longitude": "-71.4168238", "latitude": "41.8223638", "phone": "4014532337", "website_url": "http://www.trinitybrewhouse.com", "state": "Rhode Island", "street": "186 Fountain St"}, {"id": "6230d54c-2de5-41c3-b5b3-60dc70d6b2ac", "name": "Trinity Brewing", "brewery_type": "brewpub", "address_1": "1466 Garden of The Gods Rd Ste 184", "address_2": null, "address_3": null, "city": "Colorado Springs", "state_province": "Colorado", "postal_code": "80907-9464", "country": "United States", "longitude": null, "latitude": null, "phone": "7196340029", "website_url": "http://www.trinitybrew.com", "state": "Colorado", "street": "1466 Garden of The Gods Rd Ste 184"}, {"id": "1065e4e8-e366-4b90-8461-f7bbb8ea6653", "name": "Tripelroot", "brewery_type": "brewpub", "address_1": "146 E Main Ave", "address_2": null, "address_3": null, "city": "Zeeland", "state_province": "Michigan", "postal_code": "49464-1736", "country": "United States", "longitude": "-86.01463482", "latitude": "42.81211765", "phone": "6169530050", "website_url": "http://www.tripelroot.com", "state": "Michigan", "street": "146 E Main Ave"}, {"id": "277d6217-6c92-4f58-a227-7fb0a79ab3a4", "name": "Tripelroot Production Facility", "brewery_type": "micro", "address_1": "2262 112th Ave", "address_2": null, "address_3": null, "city": "Holland", "state_province": "Michigan", "postal_code": "49424-9638", "country": "United States", "longitude": "-86.0580859", "latitude": "42.802587", "phone": null, "website_url": null, "state": "Michigan", "street": "2262 112th Ave"}, {"id": "46b43b36-9668-4b37-9a23-5f4784ed47b8", "name": "TripEnd Brewing", "brewery_type": "micro", "address_1": "3072 Prutsman Rd", "address_2": null, "address_3": null, "city": "Troupsburg", "state_province": "New York", "postal_code": "14885-9613", "country": "United States", "longitude": "-77.55268946", "latitude": "42.09121034", "phone": "6073467472", "website_url": "http://www.tripendbrewing.com", "state": "New York", "street": "3072 Prutsman Rd"}, {"id": "d5a71367-f7f6-47fa-8bf0-d6f25db113d0", "name": "Triphammer Bierwerks", "brewery_type": "micro", "address_1": "111 Parce Ave Ste 3A-1", "address_2": null, "address_3": null, "city": "Fairport", "state_province": "New York", "postal_code": "14450-1467", "country": "United States", "longitude": null, "latitude": null, "phone": "5853888281", "website_url": "http://www.triphammerbierwerks.com", "state": "New York", "street": "111 Parce Ave Ste 3A-1"}, {"id": "808d7280-d349-4db2-8082-ac9673697483", "name": "Triple 7 Restaurant & Brewery at Main St Station", "brewery_type": "brewpub", "address_1": "200 N Main St Main Street Station Casino", "address_2": null, "address_3": null, "city": "Las Vegas", "state_province": "Nevada", "postal_code": "89101-2910", "country": "United States", "longitude": null, "latitude": null, "phone": "7023871896", "website_url": "http://www.mainstreetcasino.com", "state": "Nevada", "street": "200 N Main St Main Street Station Casino"}, {"id": "7c4c41ee-e482-4f94-9815-1f46759444d9", "name": "Triple C Brewing", "brewery_type": "micro", "address_1": "2900 Griffith St", "address_2": null, "address_3": null, "city": "Charlotte", "state_province": "North Carolina", "postal_code": "28203-5430", "country": "United States", "longitude": "-80.8695658", "latitude": "35.20109925", "phone": "7043723212", "website_url": "http://www.triplecbrewing.com", "state": "North Carolina", "street": "2900 Griffith St"}, {"id": "97b87b2c-c954-4a64-93b5-186dadd0c568", "name": "Triple Crossing Brewing Company (Downtown)", "brewery_type": "micro", "address_1": "113 S. Foushee St.", "address_2": null, "address_3": null, "city": "Richmond", "state_province": "Virginia", "postal_code": "23220-5616", "country": "United States", "longitude": "-77.4455177", "latitude": "37.5415927", "phone": "8043991780", "website_url": "http://www.triplecrossingbeer.com", "state": "Virginia", "street": "113 S. Foushee St."}, {"id": "9975e52b-e507-4751-bfbc-4850f431ed94", "name": "Triple Crossing Brewing Company (Fullton)", "brewery_type": "brewpub", "address_1": "5203 Hatcher St", "address_2": null, "address_3": null, "city": "Richmond", "state_province": "Virginia", "postal_code": "23231-3199", "country": "United States", "longitude": "-77.40752567", "latitude": "37.51296194", "phone": "8044951955", "website_url": "http://www.triplecrossingbeer.com", "state": "Virginia", "street": "5203 Hatcher St"}, {"id": "e57d55f3-ee8c-45b0-a092-c77def6cd561", "name": "Triple Dog Brewing Company", "brewery_type": "micro", "address_1": "675 1st St W", "address_2": null, "address_3": null, "city": "Havre", "state_province": "Montana", "postal_code": "59501-3415", "country": "United States", "longitude": "-109.694577", "latitude": "48.55500303", "phone": "4068798103", "website_url": null, "state": "Montana", "street": "675 1st St W"}, {"id": "76b0ca40-20bf-4a32-a0de-e89de141a96b", "name": "Triple J Chophouse and Brew Co", "brewery_type": "brewpub", "address_1": "1807 Buddy Holly Ave", "address_2": null, "address_3": null, "city": "Lubbock", "state_province": "Texas", "postal_code": "79401-5136", "country": "United States", "longitude": "-101.8440375", "latitude": "33.5785911", "phone": "8067716555", "website_url": "http://www.triplejchophouseandbrewco.com", "state": "Texas", "street": "1807 Buddy Holly Ave"}, {"id": "7b3d0bb0-cb50-48e9-bf3b-8fb420660c96", "name": "Triple R Brewing", "brewery_type": "micro", "address_1": "916 NE 64th Street", "address_2": null, "address_3": null, "city": "Seattle", "state_province": "Washington", "postal_code": "98115", "country": "United States", "longitude": "-122.3178868", "latitude": "47.6752147", "phone": "2065793370", "website_url": "http://triplerbrewery.com", "state": "Washington", "street": "916 NE 64th Street"}, {"id": "05fd4015-bf99-43dc-ab16-500e161eb23a", "name": "Triple Rock Brewery and Alehouse", "brewery_type": "brewpub", "address_1": "1920 Shattuck Ave", "address_2": null, "address_3": null, "city": "Berkeley", "state_province": "California", "postal_code": "94704-1022", "country": "United States", "longitude": "-122.268746", "latitude": "37.873419", "phone": "5108432739", "website_url": "http://www.triplerock.com", "state": "California", "street": "1920 Shattuck Ave"}, {"id": "92ce913c-8326-4bd6-ad3e-74f42946b436", "name": "Triple Voodoo Brewing Co", "brewery_type": "micro", "address_1": "2245 3rd St", "address_2": null, "address_3": null, "city": "San Francisco", "state_province": "California", "postal_code": "94107-3125", "country": "United States", "longitude": "-122.3884378", "latitude": "37.7611618", "phone": "4155988811", "website_url": "http://www.triplevoodoo.com", "state": "California", "street": "2245 3rd St"}, {"id": "3d88d2a6-d57c-432b-9d10-745a257a1495", "name": "Triplehorn Brewing Co", "brewery_type": "micro", "address_1": "19510 144th Ave NE Ste E6", "address_2": null, "address_3": null, "city": "Woodinville", "state_province": "Washington", "postal_code": "98072-8429", "country": "United States", "longitude": null, "latitude": null, "phone": "4252427979", "website_url": "http://www.triplehornbrewing.com", "state": "Washington", "street": "19510 144th Ave NE Ste E6"}, {"id": "8b595726-8d21-4a14-84a0-1dd76aecf55a", "name": "Triptych Brewing", "brewery_type": "micro", "address_1": "1703 Woodfield Dr", "address_2": null, "address_3": null, "city": "Savoy", "state_province": "Illinois", "postal_code": "61874-9504", "country": "United States", "longitude": "-88.24927593", "latitude": "40.0768564", "phone": "2176071176", "website_url": "http://www.triptychbrewing.com", "state": "Illinois", "street": "1703 Woodfield Dr"}, {"id": "ad729d81-7f38-4f14-ad4b-fc75d9c740d6", "name": "Triskelion Brewing Company", "brewery_type": "micro", "address_1": "340 7th Avenue East", "address_2": null, "address_3": null, "city": "Hendersonville", "state_province": "North Carolina", "postal_code": "28792", "country": "United States", "longitude": "-82.45789699", "latitude": "35.32060017", "phone": "8283887051", "website_url": "http://www.triskelionbrewing.com", "state": "North Carolina", "street": "340 7th Avenue East"}]