[{"id": "23a4fe98-b79e-4031-977a-29a4776e59a2", "name": "Shades Brewery", "brewery_type": "micro", "address_1": "154 W Utopia Ave", "address_2": null, "address_3": null, "city": "Salt Lake City", "state_province": "Utah", "postal_code": "84115-2507", "country": "United States", "longitude": "-111.895566", "latitude": "40.7240264", "phone": "4352003009", "website_url": "https://www.shadesbrewing.beer", "state": "Utah", "street": "154 W Utopia Ave"}, {"id": "ecc1dfba-f441-4798-9749-e7bbdae86b6e", "name": "Shadow Puppet Brewing Company", "brewery_type": "brewpub", "address_1": "4771 Arroyo Vis Ste B", "address_2": null, "address_3": null, "city": "Livermore", "state_province": "California", "postal_code": "94551-4847", "country": "United States", "longitude": "-121.7392687", "latitude": "37.69918669", "phone": "9254536498", "website_url": "http://www.shadowpuppetbrewing.com", "state": "California", "street": "4771 Arroyo Vis Ste B"}, {"id": "a9b450fc-d3d8-4437-9b51-1f945243f882", "name": "ShadowView Brewing", "brewery_type": "planning", "address_1": null, "address_2": null, "address_3": null, "city": "Woodstock", "state_province": "Illinois", "postal_code": "60098-6911", "country": "United States", "longitude": null, "latitude": null, "phone": "8477779323", "website_url": "http://www.shadowviewbrewing.com", "state": "Illinois", "street": null}, {"id": "20463428-1d27-4391-83f7-3fd7b838c3c0", "name": "Shady Oak Barrel House", "brewery_type": "micro", "address_1": "420 1st St", "address_2": null, "address_3": null, "city": "Santa Rosa", "state_province": "California", "postal_code": "95401-6339", "country": "United States", "longitude": "-122.7154726", "latitude": "38.43709396", "phone": "7075958958", "website_url": "http://shadyoakbarrelhouse.com", "state": "California", "street": "420 1st St"}, {"id": "9ec301b9-5b19-4277-9c8c-4b59576ae1c9", "name": "Shaidzon Beer Company, LLC", "brewery_type": "micro", "address_1": "141 Fairgrounds Rd.", "address_2": null, "address_3": null, "city": "West Kingston", "state_province": "Rhode Island", "postal_code": "02892", "country": "United States", "longitude": "-71.56763232", "latitude": "41.48127985", "phone": "4013148730", "website_url": "http://www.shaidzonbeerco.com", "state": "Rhode Island", "street": "141 Fairgrounds Rd."}, {"id": "820ff9c7-8083-4573-9f36-e57f7bece0f7", "name": "Shakopee Brewhall", "brewery_type": "micro", "address_1": "124 1st Ave E", "address_2": null, "address_3": null, "city": "Shakopee", "state_province": "Minnesota", "postal_code": "55379-1310", "country": "United States", "longitude": "-93.5258437", "latitude": "44.7985452", "phone": "9525824292", "website_url": "http://www.shakopeebrewhall.com", "state": "Minnesota", "street": "124 1st Ave E"}, {"id": "a4459eb6-9f7b-45b2-b060-2aed5d7169d4", "name": "Shale Brewing Co", "brewery_type": "micro", "address_1": "7253 Whipple Ave NW", "address_2": null, "address_3": null, "city": "North Canton", "state_province": "Ohio", "postal_code": "44720", "country": "United States", "longitude": "-81.422424", "latitude": "40.866706", "phone": "3307768812", "website_url": "http://www.shalebrewing.com", "state": "Ohio", "street": "7253 Whipple Ave NW"}, {"id": "ed8f70f3-466a-49c4-a4f3-ec51ee6093a0", "name": "Shamrock Brewing Company", "brewery_type": "brewpub", "address_1": "108 W 3rd St", "address_2": null, "address_3": null, "city": "Pueblo", "state_province": "Colorado", "postal_code": "81003-3225", "country": "United States", "longitude": "-104.6078644", "latitude": "38.26965302", "phone": "7195429974", "website_url": "http://www.shamrockbrewing.com", "state": "Colorado", "street": "108 W 3rd St"}, {"id": "17d0b9b5-8782-4f73-8ca5-d9fc1b1e2b13", "name": "Shannon Brewing Company, LLC", "brewery_type": "micro", "address_1": "818 N Main St", "address_2": null, "address_3": null, "city": "Keller", "state_province": "Texas", "postal_code": "76248-3801", "country": "United States", "longitude": "-97.25396446", "latitude": "32.94797684", "phone": "8173379892", "website_url": "http://www.shannonbrewing.com", "state": "Texas", "street": "818 N Main St"}, {"id": "add5d596-7b50-45f2-8b7b-0152e638124d", "name": "Shanty Irish Brewing Company/Rooney's Irish Pub", "brewery_type": "closed", "address_1": "241 S Broadway St", "address_2": null, "address_3": null, "city": "Santa Maria", "state_province": "California", "postal_code": "93455-4657", "country": "United States", "longitude": "-120.4359806", "latitude": "34.95220575", "phone": "8059343777", "website_url": "http://www.rooneysirishpub.net", "state": "California", "street": "241 S Broadway St"}, {"id": "1d9847fa-918e-4962-8f11-20748380d85b", "name": "Shanty Shack Brewing", "brewery_type": "brewpub", "address_1": "138 Fern St", "address_2": null, "address_3": null, "city": "Santa Cruz", "state_province": "California", "postal_code": "95060-2118", "country": "United States", "longitude": "-122.030853", "latitude": "36.9859968", "phone": "8313160800", "website_url": "http://shantyshackbrewing.com", "state": "California", "street": "138 Fern St"}, {"id": "0c676482-5235-4212-b9fd-2fb977e56487", "name": "Shattuck Brewery", "brewery_type": "micro", "address_1": "52106 Hwy 8", "address_2": null, "address_3": null, "city": "Elk River", "state_province": "Idaho", "postal_code": "83827", "country": "United States", "longitude": "-116.191962", "latitude": "46.778848", "phone": null, "website_url": "http://www.shattuckbrewery.com", "state": "Idaho", "street": "52106 Hwy 8"}, {"id": "6af2107d-649c-4dca-b2de-029a34638dae", "name": "Shawnee Craft Brewery", "brewery_type": "brewpub", "address_1": "1 River Rd", "address_2": null, "address_3": null, "city": "Shawnee on Delaware", "state_province": "Pennsylvania", "postal_code": "18356", "country": "United States", "longitude": "-75.1107249", "latitude": "41.0118539", "phone": "5704244000", "website_url": null, "state": "Pennsylvania", "street": "1 River Rd"}, {"id": "a4b896e5-db07-4193-a28b-1ece5ce84e58", "name": "Shebeen Brewing Company", "brewery_type": "closed", "address_1": "1 Wolcott Rd", "address_2": null, "address_3": null, "city": "Wolcott", "state_province": "Connecticut", "postal_code": "06716-2611", "country": "United States", "longitude": "-73.000062", "latitude": "41.575855", "phone": "2035142336", "website_url": "http://www.shebeenbrewing.com", "state": "Connecticut", "street": "1 Wolcott Rd"}, {"id": "da2a220d-dd8f-455d-ba9e-ab8d512dbefd", "name": "Sheepscot Valley Brewing Co", "brewery_type": "micro", "address_1": "74 Hollywood Blvd", "address_2": null, "address_3": null, "city": "Whitefield", "state_province": "Maine", "postal_code": "04353-3729", "country": "United States", "longitude": null, "latitude": null, "phone": "2075495530", "website_url": "http://www.sheepscotbrewing.com", "state": "Maine", "street": "74 Hollywood Blvd"}, {"id": "b0915552-89e6-437d-ad2e-c9141c3b0ecb", "name": "Shelter Island Craft Brewery", "brewery_type": "brewpub", "address_1": "55 N Ferry Rd", "address_2": null, "address_3": null, "city": "Shelter Island", "state_province": "New York", "postal_code": "11964", "country": "United States", "longitude": "-72.33987616", "latitude": "41.0714822", "phone": "6317495977", "website_url": "http://www.home.shelterislandcraftbrewery.com", "state": "New York", "street": "55 N Ferry Rd"}, {"id": "92dd6146-0d7b-489b-8607-76db257492e8", "name": "Shenandoah Valley Brewing Company", "brewery_type": "micro", "address_1": "19 Middlebrook Ave", "address_2": null, "address_3": null, "city": "Staunton", "state_province": "Virginia", "postal_code": "24401-4259", "country": "United States", "longitude": "-79.07377931", "latitude": "38.1472346", "phone": "5408872337", "website_url": "http://www.shenvalbrew.com", "state": "Virginia", "street": "19 Middlebrook Ave"}, {"id": "0fd5b8e5-1941-4bb6-95da-9e2ed09dd6a8", "name": "Sheridan Brewing company", "brewery_type": "planning", "address_1": null, "address_2": null, "address_3": null, "city": "Sheridan", "state_province": "Wyoming", "postal_code": "82801", "country": "United States", "longitude": null, "latitude": null, "phone": null, "website_url": null, "state": "Wyoming", "street": null}, {"id": "ce3c744d-ba60-47b2-9260-53593f6af57b", "name": "Sherpa Brewery Pvt. Ltd.", "brewery_type": "contract", "address_1": "1708 W 17th Dr", "address_2": null, "address_3": null, "city": "Golden", "state_province": "Colorado", "postal_code": "80401-2507", "country": "United States", "longitude": "-105.1963424", "latitude": "39.7443713", "phone": null, "website_url": null, "state": "Colorado", "street": "1708 W 17th Dr"}, {"id": "80300e21-0491-4835-8d5e-660c45fcc2c6", "name": "Sherwood Brewing Co", "brewery_type": "brewpub", "address_1": "45689 Hayes Rd", "address_2": null, "address_3": null, "city": "Shelby Township", "state_province": "Michigan", "postal_code": "48315-6214", "country": "United States", "longitude": "-82.97361414", "latitude": "42.63202014", "phone": "5865329669", "website_url": "http://www.sherwoodbrewing.com", "state": "Michigan", "street": "45689 Hayes Rd"}, {"id": "2efebbef-cc50-428c-a2e5-5a21c5bcf731", "name": "Shiny Top Brewing", "brewery_type": "micro", "address_1": "520 Central Ave", "address_2": null, "address_3": null, "city": "Fort Dodge", "state_province": "Iowa", "postal_code": "50501-3810", "country": "United States", "longitude": "-94.19057896", "latitude": "42.50474204", "phone": "5153028055", "website_url": "http://www.shinytopbrewing.com", "state": "Iowa", "street": "520 Central Ave"}, {"id": "f0e43f16-db91-418d-a56a-1f1bcfc32ae1", "name": "Ship Bottom Brewery", "brewery_type": "micro", "address_1": "830 N Bay Ave, Store 23", "address_2": null, "address_3": null, "city": "Beach Haven", "state_province": "New Jersey", "postal_code": "08008-2053", "country": "United States", "longitude": null, "latitude": null, "phone": "6092076331", "website_url": "http://www.shipbottombrewery.com", "state": "New Jersey", "street": "830 N Bay Ave, Store 23"}, {"id": "d5f30d02-1b70-4254-8535-ff5877cb0406", "name": "Ship's Wheel Hard Cider", "brewery_type": "micro", "address_1": "1033 E Montague Ave", "address_2": null, "address_3": null, "city": "North Charleston", "state_province": "South Carolina", "postal_code": "29405", "country": "United States", "longitude": "-79.97517", "latitude": "32.88124", "phone": "8432123153", "website_url": "https://www.shipswheelhardcider.com/", "state": "South Carolina", "street": "1033 E Montague Ave"}, {"id": "b0a53b92-378b-4e92-86b2-904b865837a0", "name": "Shipwreck Brewing Company", "brewery_type": "brewpub", "address_1": "24409 Jefferson Ave", "address_2": null, "address_3": null, "city": "Saint Clair Shores", "state_province": "Michigan", "postal_code": "48080-1318", "country": "United States", "longitude": "-82.88877859", "latitude": "42.47122231", "phone": "5869442266", "website_url": "http://www.shipwreckbrewingcompany.com", "state": "Michigan", "street": "24409 Jefferson Ave"}, {"id": "96a20f94-b865-451a-bc62-da10e3a59998", "name": "Shipwrecked Restaurant and Brewery", "brewery_type": "brewpub", "address_1": "7791 Egg Harbor Road\u00c2\u00a0", "address_2": null, "address_3": null, "city": "Egg Harbor", "state_province": "Wisconsin", "postal_code": "54209", "country": "United States", "longitude": null, "latitude": null, "phone": "9208682767", "website_url": "http://www.shipwreckedmicrobrew.com", "state": "Wisconsin", "street": "7791 Egg Harbor Road\u00c2\u00a0"}, {"id": "2d27191c-75fa-4255-a2c1-411366d73527", "name": "Shipyard Brew Pub Eliot", "brewery_type": "brewpub", "address_1": "28 Levesque Dr Ste 4 C/O Eliot Commons", "address_2": null, "address_3": null, "city": "Eliot", "state_province": "Maine", "postal_code": "03903-2073", "country": "United States", "longitude": null, "latitude": null, "phone": "2076862026", "website_url": "http://www.shipyard.com", "state": "Maine", "street": "28 Levesque Dr Ste 4 C/O Eliot Commons"}, {"id": "136e3e55-0345-4951-96b6-de63339426b5", "name": "Shipyard Brewing Co", "brewery_type": "regional", "address_1": "86 Newbury St", "address_2": null, "address_3": null, "city": "Portland", "state_province": "Maine", "postal_code": "04101-4219", "country": "United States", "longitude": "-70.24862314", "latitude": "43.6615851", "phone": "2077610807", "website_url": "http://www.shipyard.com", "state": "Maine", "street": "86 Newbury St"}, {"id": "84c013fc-1f60-4569-b009-973a48e480dc", "name": "Shire Breu Hous", "brewery_type": "brewpub", "address_1": "63 Flansburg Ave", "address_2": null, "address_3": null, "city": "Dalton", "state_province": "Massachusetts", "postal_code": "01226", "country": "United States", "longitude": "-73.1730985", "latitude": "42.4745867", "phone": "4138428313", "website_url": "http://www.shire.beer", "state": "Massachusetts", "street": "63 Flansburg Ave"}, {"id": "471d0089-67db-448f-844f-7821e66d9af2", "name": "Shire Station Brewing Company", "brewery_type": "closed", "address_1": "12913 17th Ave", "address_2": null, "address_3": null, "city": "Lemoore", "state_province": "California", "postal_code": "93245-9485", "country": "United States", "longitude": "-119.7617855", "latitude": "36.28513704", "phone": "5592502797", "website_url": "http://www.shirestation.com", "state": "California", "street": "12913 17th Ave"}, {"id": "08ca7ef4-2169-46d6-bc1c-ee4e4c6591db", "name": "Shmaltz Brewing Co", "brewery_type": "micro", "address_1": "6 Fairchild Sq # 1", "address_2": null, "address_3": null, "city": "Clifton Park", "state_province": "New York", "postal_code": "12065-1254", "country": "United States", "longitude": null, "latitude": null, "phone": "5184065430", "website_url": "http://www.shmaltzbrewing.com", "state": "New York", "street": "6 Fairchild Sq # 1"}, {"id": "303f1b38-dfab-4cd8-83ef-853d4a0c0401", "name": "Shoe Tree Brewing Co.", "brewery_type": "micro", "address_1": "1496 Old Hot Springs Rd", "address_2": null, "address_3": null, "city": "Carson City", "state_province": "Nevada", "postal_code": "89706-0627", "country": "United States", "longitude": null, "latitude": null, "phone": "7752220108", "website_url": "http://www.shoetreebrewing.com", "state": "Nevada", "street": "1496 Old Hot Springs Rd"}, {"id": "ce303141-1450-4df6-9a83-6214aeabeec7", "name": "Shoes & Brews", "brewery_type": "micro", "address_1": "63 S Pratt Pkwy Unit B", "address_2": null, "address_3": null, "city": "Longmont", "state_province": "Colorado", "postal_code": "80501-1702", "country": "United States", "longitude": null, "latitude": null, "phone": "7203404290", "website_url": "http://www.shoesbrews.com", "state": "Colorado", "street": "63 S Pratt Pkwy Unit B"}, {"id": "f1c0b05d-9aea-4dbf-991c-b48e652c2fe6", "name": "Shoreline Brewery", "brewery_type": "brewpub", "address_1": "208 Wabash St", "address_2": null, "address_3": null, "city": "Michigan City", "state_province": "Indiana", "postal_code": "46360-3244", "country": "United States", "longitude": "-86.90621968", "latitude": "41.71931311", "phone": "2198794677", "website_url": "http://www.shorelinebrewery.com", "state": "Indiana", "street": "208 Wabash St"}, {"id": "782c6620-ce1e-48ff-9f85-271387b63df8", "name": "Short Fuse Brewing Company", "brewery_type": "brewpub", "address_1": "5000 River Rd", "address_2": null, "address_3": null, "city": "Schiller Park", "state_province": "Illinois", "postal_code": "60176-1021", "country": "United States", "longitude": null, "latitude": null, "phone": "8472605044", "website_url": "http://www.shortfusebrewing.com", "state": "Illinois", "street": "5000 River Rd"}, {"id": "af6eaa73-2763-49d5-86ec-001b84cd8e84", "name": "Short Story Brewing", "brewery_type": "brewpub", "address_1": "5904 Fairmont Rd", "address_2": null, "address_3": null, "city": "Rivesville", "state_province": "West Virginia", "postal_code": "26588-8844", "country": "United States", "longitude": "-80.119282", "latitude": "39.544687", "phone": "3049332165", "website_url": "http://www.shortstorybrewing.com", "state": "West Virginia", "street": "5904 Fairmont Rd"}, {"id": "41af66db-d524-43e4-a866-7c4ddefe8752", "name": "Short's Brewing Co", "brewery_type": "brewpub", "address_1": "121 N Bridge St", "address_2": null, "address_3": null, "city": "Bellaire", "state_province": "Michigan", "postal_code": "49615-9509", "country": "United States", "longitude": "-85.21012429", "latitude": "44.975604", "phone": "2315336622", "website_url": "http://www.shortsbrewing.com", "state": "Michigan", "street": "121 N Bridge St"}, {"id": "3463ed54-79e2-46ff-8626-acdd29dc08ba", "name": "Short's Brewing Co - Production Facility", "brewery_type": "regional", "address_1": "211 Industrial Park Dr", "address_2": null, "address_3": null, "city": "Elk Rapids", "state_province": "Michigan", "postal_code": "49629-9452", "country": "United States", "longitude": null, "latitude": null, "phone": "2314982300", "website_url": "http://www.shortsbrewing.com", "state": "Michigan", "street": "211 Industrial Park Dr"}, {"id": "ae444b8a-16f8-425f-a4ca-f3d518667f02", "name": "Shortway Brewing Company", "brewery_type": "micro", "address_1": "230 Chatham Street", "address_2": null, "address_3": null, "city": "Newport", "state_province": "North Carolina", "postal_code": "28570", "country": "United States", "longitude": "-76.85945669", "latitude": "34.78998841", "phone": "2527773065", "website_url": "http://www.shortwaybrewing.com", "state": "North Carolina", "street": "230 Chatham Street"}, {"id": "e878354b-798d-4fbc-8626-0c65e0d97420", "name": "Shoug Brewing Company", "brewery_type": "micro", "address_1": "1311 SE Cliffside Dr", "address_2": null, "address_3": null, "city": "Washougal", "state_province": "Washington", "postal_code": "98671-8750", "country": "United States", "longitude": null, "latitude": null, "phone": "3604870172", "website_url": "http://www.shougbrewing.com", "state": "Washington", "street": "1311 SE Cliffside Dr"}, {"id": "721d8224-c432-47ec-a706-3a888cdb72f2", "name": "Shovel Town Brewery, Inc.", "brewery_type": "brewpub", "address_1": "50 Oliver St Rear", "address_2": null, "address_3": null, "city": "North Easton", "state_province": "Massachusetts", "postal_code": "02356-1446", "country": "United States", "longitude": null, "latitude": null, "phone": "5082057151", "website_url": null, "state": "Massachusetts", "street": "50 Oliver St Rear"}, {"id": "3e966de2-0bdc-4557-a316-47659974b7ba", "name": "Shrewd Fox Brewery", "brewery_type": "micro", "address_1": "552 NY State Highway 55", "address_2": null, "address_3": null, "city": "Eldred", "state_province": "New York", "postal_code": "12732", "country": "United States", "longitude": null, "latitude": null, "phone": "8455578255", "website_url": "http://www.shrewdfoxbrewery.com", "state": "New York", "street": "552 NY State Highway 55"}, {"id": "feccbd60-d24e-4536-b0f3-5bcd5ea65d0e", "name": "Shrub Steppe Smokehouse Brewery", "brewery_type": "brewpub", "address_1": "2000 Logston Blvd Ste 122", "address_2": null, "address_3": null, "city": "Richland", "state_province": "Washington", "postal_code": "99354-5329", "country": "United States", "longitude": "-119.2999357", "latitude": "46.3204119", "phone": "5093759092", "website_url": "http://www.shrubsteppebrewing.com", "state": "Washington", "street": "2000 Logston Blvd Ste 122"}, {"id": "b65fa2d0-3279-4bfb-a33a-e494e263f874", "name": "ShuBrew, LLC", "brewery_type": "brewpub", "address_1": "210 S Main St", "address_2": null, "address_3": null, "city": "Zelienople", "state_province": "Pennsylvania", "postal_code": "16063-1150", "country": "United States", "longitude": "-80.13635892", "latitude": "40.79285063", "phone": "7247664426", "website_url": null, "state": "Pennsylvania", "street": "210 S Main St"}, {"id": "81a899a9-a677-4cd5-9fd8-e7ea45b298fa", "name": "Shy Bear Brewing", "brewery_type": "brewpub", "address_1": "35 Meadowbrook Ln", "address_2": null, "address_3": null, "city": "Lewistown", "state_province": "Pennsylvania", "postal_code": "17044-2802", "country": "United States", "longitude": null, "latitude": null, "phone": "7174471701", "website_url": "http://www.shybearbrewing.com", "state": "Pennsylvania", "street": "35 Meadowbrook Ln"}, {"id": "b7114432-0efb-4b42-a3f2-40c7035b4215", "name": "Sibling Revelry Brewing", "brewery_type": "micro", "address_1": "29305 Clemens Rd", "address_2": null, "address_3": null, "city": "Westlake", "state_province": "Ohio", "postal_code": "44145-1008", "country": "United States", "longitude": "-81.94620111", "latitude": "41.47040238", "phone": "4404718589", "website_url": "http://www.siblingrevelrybrewing.com", "state": "Ohio", "street": "29305 Clemens Rd"}, {"id": "c3851fdf-bb12-4d54-98a0-c7beed22a423", "name": "Sick N Twisted Brewing Co", "brewery_type": "brewpub", "address_1": "692 Main St", "address_2": null, "address_3": null, "city": "Deadwood", "state_province": "South Dakota", "postal_code": "57732-1124", "country": "United States", "longitude": "-103.7310822", "latitude": "44.37732531", "phone": "6057176831", "website_url": "http://www.sickntwistedbrewery.com", "state": "South Dakota", "street": "692 Main St"}, {"id": "2e46ffca-3a8c-4bca-86ac-ecc74131e20e", "name": "Sick N Twisted Brewing Co", "brewery_type": "brewpub", "address_1": "23851 Highway 385 Ste A", "address_2": null, "address_3": null, "city": "Hill City", "state_province": "South Dakota", "postal_code": "57745-6544", "country": "United States", "longitude": "-103.5272662", "latitude": "43.94601735", "phone": "6055749200", "website_url": "http://www.sickntwistedbrewery.com", "state": "South Dakota", "street": "23851 Highway 385 Ste A"}, {"id": "99526c72-24a9-4027-bad0-a1e42218b60a", "name": "Side By Each Brewing Co", "brewery_type": "planning", "address_1": null, "address_2": null, "address_3": null, "city": "Auburn", "state_province": "Maine", "postal_code": "04210-3739", "country": "United States", "longitude": null, "latitude": null, "phone": "2073479920", "website_url": null, "state": "Maine", "street": null}, {"id": "a2fedbfd-b74d-4d8b-9292-23f087b2ffae", "name": "Side Door Brewing Company", "brewery_type": "micro", "address_1": "1419 SE Village Green Dr", "address_2": null, "address_3": null, "city": "Port Saint Lucie", "state_province": "Florida", "postal_code": "34952-3454", "country": "United States", "longitude": "-80.3079342", "latitude": "27.30575664", "phone": "7726319068", "website_url": "http://www.sidedoorbrewery.com", "state": "Florida", "street": "1419 SE Village Green Dr"}, {"id": "60010f13-de44-4ff3-8f16-9b1feac5a9b8", "name": "Side Lot Brewery", "brewery_type": "micro", "address_1": "110 Slocum Lake Rd", "address_2": null, "address_3": null, "city": "Wauconda", "state_province": "Illinois", "postal_code": "60084-1883", "country": "United States", "longitude": "-88.14526776", "latitude": "42.26078912", "phone": "8478650281", "website_url": "http://www.sidelotbrewing.com", "state": "Illinois", "street": "110 Slocum Lake Rd"}, {"id": "c3b74785-b1d3-4e76-9037-7512e99970eb", "name": "Side Project Brewing", "brewery_type": "micro", "address_1": "7458 Manchester Rd", "address_2": null, "address_3": null, "city": "Maplewood", "state_province": "Missouri", "postal_code": "63143-3032", "country": "United States", "longitude": "-90.32221146", "latitude": "38.61223484", "phone": "3142245211", "website_url": "http://www.SideProjectBrewing.com", "state": "Missouri", "street": "7458 Manchester Rd"}, {"id": "d7e866fd-2ffb-48d2-9bea-50223c73be5e", "name": "Sidellis Lake Tahoe", "brewery_type": "brewpub", "address_1": "3350 Sandy Way", "address_2": null, "address_3": null, "city": "South Lake Tahoe", "state_province": "California", "postal_code": "96150", "country": "United States", "longitude": "-119.9698679", "latitude": "38.94472795", "phone": "5306003999", "website_url": null, "state": "California", "street": "3350 Sandy Way"}, {"id": "55cb0b84-5e32-4a93-85d0-8cc26c00e12e", "name": "Sideswipe Brewing", "brewery_type": "micro", "address_1": "2419 Scioto Harper Dr", "address_2": null, "address_3": null, "city": "Columbus", "state_province": "Ohio", "postal_code": "43204-3420", "country": "United States", "longitude": "-83.06626767", "latitude": "39.96723751", "phone": "6147199654", "website_url": "http://www.sideswipebrewing.com", "state": "Ohio", "street": "2419 Scioto Harper Dr"}, {"id": "94b87f1d-ae3f-4d3c-a147-75edaa4e5fb7", "name": "Sidetrack Brewing Company", "brewery_type": "micro", "address_1": "413 2nd St SW", "address_2": null, "address_3": null, "city": "Albuquerque", "state_province": "New Mexico", "postal_code": "87102-3307", "country": "United States", "longitude": "-106.6500567", "latitude": "35.0807893", "phone": "5052886468", "website_url": "http://www.sidetrackbrewing.net", "state": "New Mexico", "street": "413 2nd St SW"}, {"id": "1b39d4f8-f285-4bbf-a52c-429a2ba39856", "name": "Sierra Blanca Brewing Co", "brewery_type": "micro", "address_1": "1016 Industrial Rd", "address_2": null, "address_3": null, "city": "Moriarty", "state_province": "New Mexico", "postal_code": "87035-3567", "country": "United States", "longitude": null, "latitude": null, "phone": "5058322337", "website_url": "http://www.sierrablancabrewery.com", "state": "New Mexico", "street": "1016 Industrial Rd"}, {"id": "70e66be3-fd92-4db0-86f3-0f05807cc4e2", "name": "Sierra Nevada Brewing Co", "brewery_type": "regional", "address_1": "1075 E 20th St", "address_2": null, "address_3": null, "city": "Chico", "state_province": "California", "postal_code": "95928-6722", "country": "United States", "longitude": "-121.8098801", "latitude": "39.7257632", "phone": "5308933520", "website_url": "http://www.sierranevada.com", "state": "California", "street": "1075 E 20th St"}, {"id": "91799fbb-6b2d-449b-a0aa-0ac579692489", "name": "Sierra Nevada Brewing Co", "brewery_type": "regional", "address_1": "100 Sierra Nevada Way", "address_2": null, "address_3": null, "city": "Mills River", "state_province": "North Carolina", "postal_code": "28732-8608", "country": "United States", "longitude": null, "latitude": null, "phone": null, "website_url": "http://www.sierranevada.com", "state": "North Carolina", "street": "100 Sierra Nevada Way"}, {"id": "16e277b2-1959-4768-a14d-561ee4448aac", "name": "Sig Brewing Co.", "brewery_type": "micro", "address_1": "2534 Tacoma ave S.", "address_2": null, "address_3": null, "city": "Tacoma", "state_province": "Washington", "postal_code": "98402-", "country": "United States", "longitude": "-122.441312", "latitude": "47.237072", "phone": "2535036446", "website_url": "https://www.sigbrewingco.com/", "state": "Washington", "street": "2534 Tacoma ave S."}, {"id": "b9ea4135-429b-4928-8cae-680dd9d6ad17", "name": "Sigma Brewing Company", "brewery_type": "micro", "address_1": "3118 Harrisburg Blvd # 108", "address_2": null, "address_3": null, "city": "Houston", "state_province": "Texas", "postal_code": "77003-2334", "country": "United States", "longitude": "-95.3435901", "latitude": "29.7489938", "phone": "3463523190", "website_url": "http://www.sigmabrewingcompany.com", "state": "Texas", "street": "3118 Harrisburg Blvd # 108"}, {"id": "df710d4d-63ff-4fec-82e6-42b9d2f0f107", "name": "Sigma Ingredients LLC", "brewery_type": "planning", "address_1": null, "address_2": null, "address_3": null, "city": "Salisbury", "state_province": "Maryland", "postal_code": "21801-6739", "country": "United States", "longitude": null, "latitude": null, "phone": "4104308903", "website_url": "http://www.sigmaingredients.com", "state": "Maryland", "street": null}, {"id": "3e96e2f2-46b2-4a7a-860e-b7fa52a8dc0e", "name": "Silo's", "brewery_type": "brewpub", "address_1": "530 Main St", "address_2": null, "address_3": null, "city": "Napa", "state_province": "California", "postal_code": "94559-3378", "country": "United States", "longitude": "-122.2828832", "latitude": "38.29617", "phone": "7072515833", "website_url": "http://www.silosnapa.com", "state": "California", "street": "530 Main St"}, {"id": "d33c7492-1fc8-4ad6-b832-2d8b674ce585", "name": "Siluria Brewing Company", "brewery_type": "planning", "address_1": null, "address_2": null, "address_3": null, "city": "Alabaster", "state_province": "Alabama", "postal_code": "35007-8501", "country": "United States", "longitude": "-86.8163773", "latitude": "33.2442813", "phone": "2054827661", "website_url": "http://www.siluriabrewing.com", "state": "Alabama", "street": null}, {"id": "a43bae26-417f-4b3c-a1b5-1c08c74c4297", "name": "Silva Brewing", "brewery_type": "micro", "address_1": "525 Pine St Ste B", "address_2": null, "address_3": null, "city": "Paso Robles", "state_province": "California", "postal_code": "93446-3185", "country": "United States", "longitude": "-120.6886398", "latitude": "35.62031385", "phone": "8053692337", "website_url": "http://www.silvabrewing.com", "state": "California", "street": "525 Pine St Ste B"}, {"id": "0c576a06-35fd-4e9e-addc-8e4847f46d85", "name": "Silver Branch Brewing Company", "brewery_type": "planning", "address_1": null, "address_2": null, "address_3": null, "city": "Silver Spring", "state_province": "Maryland", "postal_code": "20910-3487", "country": "United States", "longitude": null, "latitude": null, "phone": "2028418646", "website_url": "http://www.silverbranchbrewing.com", "state": "Maryland", "street": null}, {"id": "0ce428f9-4c60-4536-9423-96a0017813d7", "name": "Silver City Brewery", "brewery_type": "regional", "address_1": "206 Katy Penman Ave", "address_2": null, "address_3": null, "city": "Bremerton", "state_province": "Washington", "postal_code": "98312-4301", "country": "United States", "longitude": "-122.6780101", "latitude": "47.56156065", "phone": "3608131487", "website_url": "http://www.silvercitybrewery.com", "state": "Washington", "street": "206 Katy Penman Ave"}, {"id": "471a6b86-befa-4d68-84fd-d8a2e2246112", "name": "Silver Creek Brewing Co", "brewery_type": "micro", "address_1": "N57 W6172 Portland Rd", "address_2": null, "address_3": null, "city": "Cedarburg", "state_province": "Wisconsin", "postal_code": "53012", "country": "United States", "longitude": null, "latitude": null, "phone": "2623754444", "website_url": "http://www.silvercreekbrewing.com", "state": "Wisconsin", "street": "N57 W6172 Portland Rd"}, {"id": "a1378c73-b0f9-4c1e-9217-ebca40c995b5", "name": "Silver Falls Brewery", "brewery_type": "micro", "address_1": "207 Jersey St", "address_2": null, "address_3": null, "city": "Silverton", "state_province": "Oregon", "postal_code": "97381", "country": "United States", "longitude": "-122.7821402", "latitude": "45.00421984", "phone": "5038733022", "website_url": "http://www.silverfallsbrewery.com", "state": "Oregon", "street": "207 Jersey St"}, {"id": "fac0abcb-db02-4ec6-845d-457caab0f3ab", "name": "Silver Gulch Brewing Co", "brewery_type": "micro", "address_1": "2195 Old Steese Highway", "address_2": null, "address_3": null, "city": "Fox", "state_province": "Alaska", "postal_code": "99712", "country": "United States", "longitude": "-147.6219761", "latitude": "64.95708588", "phone": "9074522739", "website_url": "http://www.silvergulch.com", "state": "Alaska", "street": "2195 Old Steese Highway"}, {"id": "74f8802c-da96-40d7-8e37-3fd4dd2cb381", "name": "Silver Harbor Brewing Company", "brewery_type": "brewpub", "address_1": "721 Pleasant St", "address_2": null, "address_3": null, "city": "Saint Joseph", "state_province": "Michigan", "postal_code": "49085-1241", "country": "United States", "longitude": "-86.48027459", "latitude": "42.10893033", "phone": "2692817100", "website_url": "http://silverharborbrewing.com", "state": "Michigan", "street": "721 Pleasant St"}, {"id": "311fdbf4-9ca3-4c23-8a18-b7ebd9348a5c", "name": "Silver Lake Brewing Project", "brewery_type": "micro", "address_1": "14 Borden Ave", "address_2": null, "address_3": null, "city": "Perry", "state_province": "New York", "postal_code": "14530", "country": "United States", "longitude": "-78.00159923", "latitude": "42.71795128", "phone": "5859694238", "website_url": "http://silverlakebrewingproject.com", "state": "New York", "street": "14 Borden Ave"}, {"id": "d8e15e0d-fcd6-49da-9f88-293ea86239b9", "name": "Silver Moon Brewing", "brewery_type": "micro", "address_1": "24 NW Greenwood Ave", "address_2": null, "address_3": null, "city": "Bend", "state_province": "Oregon", "postal_code": "97703-2027", "country": "United States", "longitude": "-121.3079151", "latitude": "44.0603904", "phone": "5413888331", "website_url": null, "state": "Oregon", "street": "24 NW Greenwood Ave"}, {"id": "ae8d5788-472e-40f6-98ce-cecfd83e889c", "name": "Silver Moon Brewing", "brewery_type": "micro", "address_1": "2095 SW Badger Ave", "address_2": null, "address_3": null, "city": "Redmond", "state_province": "Oregon", "postal_code": "97756-8164", "country": "United States", "longitude": "-121.192157", "latitude": "44.2375883", "phone": "5413888331", "website_url": "http://www.SilverMoonBrewing.com", "state": "Oregon", "street": "2095 SW Badger Ave"}, {"id": "bd708ae6-ef19-4e4d-9eca-f232fbabfdd3", "name": "Silver Peak Restaurant and Brewery", "brewery_type": "brewpub", "address_1": "124 Wonder St", "address_2": null, "address_3": null, "city": "Reno", "state_province": "Nevada", "postal_code": "89502-2424", "country": "United States", "longitude": "-119.8060433", "latitude": "39.51395749", "phone": "7753241864", "website_url": "http://www.silverpeakbrewery.com", "state": "Nevada", "street": "124 Wonder St"}, {"id": "ae3391c5-bc85-47dc-a407-53803ebdb136", "name": "Silver Rocket Brewing Ltd", "brewery_type": "micro", "address_1": "Meadows", "address_2": null, "address_3": null, "city": "Hassocks", "state_province": "West Sussex", "postal_code": "BN6 8EH", "country": "England", "longitude": "-0.143993", "latitude": "50.931319", "phone": "7950099424", "website_url": "https://silverrocketbrewing.co.uk/", "state": "West Sussex", "street": "Meadows"}, {"id": "a5b1ff54-9d6d-4742-8141-f496a1fc2d1d", "name": "Silverking Brewing Company", "brewery_type": "micro", "address_1": "325 E Lemon St", "address_2": null, "address_3": null, "city": "Tarpon Springs", "state_province": "Florida", "postal_code": "34689-4309", "country": "United States", "longitude": "-82.75325369", "latitude": "28.14509027", "phone": "7276472524", "website_url": "http://www.silverkingbrewing.com", "state": "Florida", "street": "325 E Lemon St"}, {"id": "7217ca2a-393c-4b27-a87c-70c948d113c3", "name": "Simple Roots Brewing Co", "brewery_type": "micro", "address_1": "1127 North Ave Ste 8", "address_2": null, "address_3": null, "city": "Burlington", "state_province": "Vermont", "postal_code": "05408-2756", "country": "United States", "longitude": null, "latitude": null, "phone": null, "website_url": null, "state": "Vermont", "street": "1127 North Ave Ste 8"}, {"id": "0a127250-075c-42ac-98a6-135535cd3fc6", "name": "Simplicity Brewing Company", "brewery_type": "micro", "address_1": "2473 Camden Rd", "address_2": null, "address_3": null, "city": "Warren", "state_province": "Maine", "postal_code": "04864-4113", "country": "United States", "longitude": "-69.1881349", "latitude": "44.15177662", "phone": "2072730143", "website_url": "http://www.mkt.com/simplicitybrewingsupplies", "state": "Maine", "street": "2473 Camden Rd"}, {"id": "c2b494b6-da3a-45fb-9895-25e6ef1d5009", "name": "Sin City Beer Co", "brewery_type": "contract", "address_1": "3663 Las Vegas Blvd S Ste 504 Miracle Mile Shops", "address_2": null, "address_3": null, "city": "Las Vegas", "state_province": "Nevada", "postal_code": "89109-1951", "country": "United States", "longitude": null, "latitude": null, "phone": "7028094939", "website_url": "http://www.sincitybeer.com", "state": "Nevada", "street": "3663 Las Vegas Blvd S Ste 504 Miracle Mile Shops"}, {"id": "cbc44ed9-51da-4ba7-85dd-ed20f31a67c0", "name": "Sing Sing Kill Brewery", "brewery_type": "micro", "address_1": "75 Spring St", "address_2": null, "address_3": null, "city": "Ossining", "state_province": "New York", "postal_code": "10562-4706", "country": "United States", "longitude": "-73.86373076", "latitude": "41.15860835", "phone": "9178812490", "website_url": "http://www.singsingkillbrewery.com", "state": "New York", "street": "75 Spring St"}, {"id": "ce0ed90b-f28e-476c-b61d-9465ad1e3060", "name": "Singin' River Brewing Company, LLC", "brewery_type": "micro", "address_1": "526 E College St", "address_2": null, "address_3": null, "city": "Florence", "state_province": "Alabama", "postal_code": "35630-5764", "country": "United States", "longitude": "-87.66892994", "latitude": "34.8016657", "phone": "2567600000", "website_url": "http://www.singinriverbrewing.com", "state": "Alabama", "street": "526 E College St"}, {"id": "64887428-bf8c-4404-b55e-2e355b814ac0", "name": "Single Hill Brewing Company", "brewery_type": "micro", "address_1": "102 N Naches Ave", "address_2": null, "address_3": null, "city": "Yakima", "state_province": "Washington", "postal_code": "98901-2757", "country": "United States", "longitude": "-120.5006688", "latitude": "46.6050643", "phone": "5033511197", "website_url": "http://www.singlehillbrewing.com", "state": "Washington", "street": "102 N Naches Ave"}, {"id": "925d80b0-c611-445e-8799-262a9e0f9259", "name": "Single Speed Brewing Co", "brewery_type": "brewpub", "address_1": "325 Commercial St", "address_2": null, "address_3": null, "city": "Waterloo", "state_province": "Iowa", "postal_code": "50701", "country": "United States", "longitude": "-92.34249686", "latitude": "42.49709571", "phone": "3198833604", "website_url": "http://www.singlespeedbrewing.com", "state": "Iowa", "street": "325 Commercial St"}, {"id": "17d4939c-ac7c-4283-96e9-d1cae8d2ac1a", "name": "Single Speed Brewing Co Tap Room", "brewery_type": "brewpub", "address_1": "325 Commercial St", "address_2": null, "address_3": null, "city": "Waterloo", "state_province": "Iowa", "postal_code": "50701-1315", "country": "United States", "longitude": "-92.34249686", "latitude": "42.49709571", "phone": "3198833604", "website_url": null, "state": "Iowa", "street": "325 Commercial St"}, {"id": "2787c111-e272-4a74-bde5-21ea7ec9e8a1", "name": "Singlecut Beersmiths", "brewery_type": "micro", "address_1": "19-33 37th St", "address_2": null, "address_3": null, "city": "Astoria", "state_province": "New York", "postal_code": "11105-1118", "country": "United States", "longitude": null, "latitude": null, "phone": "7186060788", "website_url": "http://www.singlecutbeer.com", "state": "New York", "street": "19-33 37th St"}, {"id": "0bec163f-c05c-4782-b15b-8d44b8d7087f", "name": "Sinistral Brewing Company", "brewery_type": "micro", "address_1": "9419 Main St", "address_2": null, "address_3": null, "city": "Manassas", "state_province": "Virginia", "postal_code": "20110", "country": "United States", "longitude": "-77.471427", "latitude": "38.75099522", "phone": "7036864575", "website_url": "http://www.sinistralbrewingcompany.com", "state": "Virginia", "street": "9419 Main St"}, {"id": "07a4bba9-7707-4a04-839c-e341490377a1", "name": "Siren Rock Brewing Company", "brewery_type": "planning", "address_1": null, "address_2": null, "address_3": null, "city": "Rockwall", "state_province": "Texas", "postal_code": "75087", "country": "United States", "longitude": null, "latitude": null, "phone": null, "website_url": null, "state": "Texas", "street": null}, {"id": "f25ef908-5b80-4cab-8aa1-76c508e3d884", "name": "Siskiyou Brew Works", "brewery_type": "brewpub", "address_1": "110 Squawvalley Rd", "address_2": null, "address_3": null, "city": "McCloud", "state_province": "California", "postal_code": "96057", "country": "United States", "longitude": "-122.1357595", "latitude": "41.25073304", "phone": "5309255894", "website_url": "http://www.siskiyoubrewworks.com", "state": "California", "street": "110 Squawvalley Rd"}, {"id": "598e9aa4-8f65-40e9-a2eb-d6822fbdaacb", "name": "Sister Lakes Brewing Company", "brewery_type": "brewpub", "address_1": "92500 County Road 690", "address_2": null, "address_3": null, "city": "Dowagiac", "state_province": "Michigan", "postal_code": "49047-9021", "country": "United States", "longitude": null, "latitude": null, "phone": "2693325135", "website_url": "http://www.sisterlakesbrewing.com", "state": "Michigan", "street": "92500 County Road 690"}, {"id": "f2fd7e1b-85a7-4a6e-9351-41e1c9b7f18f", "name": "Sisyphus Brewing", "brewery_type": "micro", "address_1": "712 Ontario Ave W", "address_2": null, "address_3": null, "city": "Minneapolis", "state_province": "Minnesota", "postal_code": "55403-1138", "country": "United States", "longitude": "-93.28833571", "latitude": "44.973158", "phone": "6124448674", "website_url": "http://www.sisyphusbrewing.com", "state": "Minnesota", "street": "712 Ontario Ave W"}, {"id": "ce1a4d63-206c-4e4e-a835-543ee2e9306f", "name": "Siuslaw Brewing", "brewery_type": "micro", "address_1": "16558 Alsea Hwy", "address_2": null, "address_3": null, "city": "Alsea", "state_province": "Oregon", "postal_code": "97324-9624", "country": "United States", "longitude": "-123.6906645", "latitude": "44.353359", "phone": "5417401606", "website_url": null, "state": "Oregon", "street": "16558 Alsea Hwy"}, {"id": "5f6f3cb4-e720-4a25-885e-903f1341049a", "name": "Six Car Pub", "brewery_type": "planning", "address_1": null, "address_2": null, "address_3": null, "city": "Amarillo", "state_province": "Texas", "postal_code": "79106", "country": "United States", "longitude": null, "latitude": null, "phone": "8062206881", "website_url": "http://www.sixcarpub.com", "state": "Texas", "street": null}, {"id": "3f3ccd69-bd9e-41fe-aaf2-48d0f3277cfa", "name": "Six Harbors Brewing Company", "brewery_type": "proprietor", "address_1": "243 New York Ave.", "address_2": null, "address_3": null, "city": "Huntington", "state_province": "New York", "postal_code": "11743-2719", "country": "United States", "longitude": "-73.4253168", "latitude": "40.8749628", "phone": "5166803528", "website_url": null, "state": "New York", "street": "243 New York Ave."}, {"id": "937b7b68-c9da-4466-851f-14a583a95844", "name": "Six Mile Bridge Brewery", "brewery_type": "micro", "address_1": "11841 Dorsett Rd", "address_2": null, "address_3": null, "city": "Maryland Heights", "state_province": "Missouri", "postal_code": "63043-2503", "country": "United States", "longitude": "-90.43182572", "latitude": "38.714489", "phone": "3149422211", "website_url": "http://www.sixmilebridgebeer.com", "state": "Missouri", "street": "11841 Dorsett Rd"}, {"id": "54b5bff4-c4a8-4c4d-869e-2068e0ed37ac", "name": "Six Rivers Brewery", "brewery_type": "brewpub", "address_1": "1300 Central Ave", "address_2": null, "address_3": null, "city": "McKinleyville", "state_province": "California", "postal_code": "95519-6429", "country": "United States", "longitude": "-124.1003888", "latitude": "40.9260642", "phone": null, "website_url": null, "state": "California", "street": "1300 Central Ave"}, {"id": "c8751600-8370-4ce2-b405-9c39238a2f17", "name": "Six Ten Brewing", "brewery_type": "micro", "address_1": "7052 Benjamin Rd", "address_2": null, "address_3": null, "city": "Tampa", "state_province": "Florida", "postal_code": "33634-3034", "country": "United States", "longitude": null, "latitude": null, "phone": "8138860610", "website_url": null, "state": "Florida", "street": "7052 Benjamin Rd"}, {"id": "2524a546-408c-47f3-bcb5-ad4be41ab69f", "name": "Sixpoint Brewery", "brewery_type": "regional", "address_1": "40 Van Dyke St", "address_2": null, "address_3": null, "city": "Brooklyn", "state_province": "New York", "postal_code": "11231-1529", "country": "United States", "longitude": "-74.01191761", "latitude": "40.67397255", "phone": "3472278676", "website_url": "http://www.sixpoint.com", "state": "New York", "street": "40 Van Dyke St"}, {"id": "1b104780-1145-4be5-8ffd-14ec7bd9532a", "name": "Sixth Sense Brewing Company", "brewery_type": "micro", "address_1": "175 Main St.", "address_2": null, "address_3": null, "city": "Jackson", "state_province": "Ohio", "postal_code": "45640", "country": "United States", "longitude": "-82.63876433", "latitude": "39.05323989", "phone": "7405773681", "website_url": "http://www.sixthsensebrewing.com", "state": "Ohio", "street": "175 Main St."}, {"id": "867284df-ee7d-4e01-9df8-c8143cdf3f20", "name": "SKA Brewing", "brewery_type": "regional", "address_1": "225 Girard, Bodo Park", "address_2": null, "address_3": null, "city": "Durango", "state_province": "Colorado", "postal_code": "81303-6827", "country": "United States", "longitude": null, "latitude": null, "phone": null, "website_url": null, "state": "Colorado", "street": "225 Girard, Bodo Park"}, {"id": "6e0c17e2-fb3c-4621-bfc8-55ccb3134cea", "name": "Skagit River Brewery", "brewery_type": "closed", "address_1": "404 S 3rd St", "address_2": null, "address_3": null, "city": "Mount Vernon", "state_province": "Washington", "postal_code": "98273-3824", "country": "United States", "longitude": "-122.3354271", "latitude": "48.4193151", "phone": "3603362884", "website_url": "http://www.skagitbrew.com", "state": "Washington", "street": "404 S 3rd St"}, {"id": "9e6976d2-154c-4fe6-8bc9-d93d2d431921", "name": "Skagit Valley Malting", "brewery_type": "micro", "address_1": "11966 Westar Ln", "address_2": null, "address_3": null, "city": "Burlington", "state_province": "Washington", "postal_code": "98233-3620", "country": "United States", "longitude": "-122.408008", "latitude": "48.473509", "phone": "3609821262", "website_url": "https://www.skagitvalleymalting.com/", "state": "Washington", "street": "11966 Westar Ln"}, {"id": "f096099d-7cbb-4e6c-be76-55d6918f3bd7", "name": "Skagway Brewing Co", "brewery_type": "brewpub", "address_1": "641 Broadway St Ste 946", "address_2": null, "address_3": null, "city": "Skagway", "state_province": "Alaska", "postal_code": "99840-9800", "country": "United States", "longitude": "-135.315716", "latitude": "59.45506", "phone": "9079832759", "website_url": "http://www.skagwaybrewing.com", "state": "Alaska", "street": "641 Broadway St Ste 946"}, {"id": "c22c2cce-f622-416c-97be-60e9ebf09154", "name": "Skeleton Crew Brew", "brewery_type": "micro", "address_1": "575 Lester Ave Ste 206", "address_2": null, "address_3": null, "city": "Onalaska", "state_province": "Wisconsin", "postal_code": "54650-8694", "country": "United States", "longitude": null, "latitude": null, "phone": "7155709463", "website_url": "http://www.skeletoncrewbrew.com", "state": "Wisconsin", "street": "575 Lester Ave Ste 206"}, {"id": "c672a50b-383f-4658-98a9-2de71addbb46", "name": "Skeleton Key Brewery", "brewery_type": "micro", "address_1": "8102 Lemont Rd Ste 300", "address_2": null, "address_3": null, "city": "Woodridge", "state_province": "Illinois", "postal_code": "60517-7764", "country": "United States", "longitude": null, "latitude": null, "phone": "6303959033", "website_url": "http://www.skeletonkeybrewery.com", "state": "Illinois", "street": "8102 Lemont Rd Ste 300"}, {"id": "667486e4-c581-4958-941e-3d7077781ea4", "name": "Sketchbook Brewing Company", "brewery_type": "micro", "address_1": "821 Chicago Ave", "address_2": null, "address_3": null, "city": "Evanston", "state_province": "Illinois", "postal_code": "60202-2307", "country": "United States", "longitude": "-87.6789794", "latitude": "42.032929", "phone": null, "website_url": null, "state": "Illinois", "street": "821 Chicago Ave"}, {"id": "4c5ef3a3-3823-4cfa-95fd-0719622cf660", "name": "Skewed Brewing", "brewery_type": "brewpub", "address_1": "21182 Salmon Run Mall Loop W, Unit B219", "address_2": null, "address_3": null, "city": "Watertown", "state_province": "New York", "postal_code": "13601-2244", "country": "United States", "longitude": null, "latitude": null, "phone": "3157882337", "website_url": "http://Skewedbrewing.com", "state": "New York", "street": "21182 Salmon Run Mall Loop W, Unit B219"}, {"id": "86c3526b-002e-4349-a570-ae6fe075f11b", "name": "Skipping Rock Beer Co.", "brewery_type": "planning", "address_1": null, "address_2": null, "address_3": null, "city": "Staunton", "state_province": "Virginia", "postal_code": "24401-6122", "country": "United States", "longitude": null, "latitude": null, "phone": "5402923417", "website_url": "http://www.skippingrockbeer.com", "state": "Virginia", "street": null}, {"id": "b2fd502a-3a2a-4bbe-8137-53a00ba5cf34", "name": "Skookum Brewery", "brewery_type": "micro", "address_1": "17925 59th Ave NE # A", "address_2": null, "address_3": null, "city": "Arlington", "state_province": "Washington", "postal_code": "98223-6352", "country": "United States", "longitude": "-122.150305", "latitude": "48.159011", "phone": "3604037094", "website_url": "http://www.skookumbrewing.com", "state": "Washington", "street": "17925 59th Ave NE # A"}, {"id": "f90c6800-2533-4fec-9ad3-2e0c910b9ae4", "name": "Skull Camp Brewing", "brewery_type": "micro", "address_1": "1980 N Bridge St", "address_2": null, "address_3": null, "city": "Elkin", "state_province": "North Carolina", "postal_code": "28621-2106", "country": "United States", "longitude": "-80.8524566", "latitude": "36.28339789", "phone": "3363525595", "website_url": "http://www.skullcampbrewing.com", "state": "North Carolina", "street": "1980 N Bridge St"}, {"id": "c43a62fc-9928-4483-a067-e18a9f6a62f4", "name": "Skull Camp Brewing", "brewery_type": "micro", "address_1": "765 Round Peak Church Rd", "address_2": null, "address_3": null, "city": "Mount Airy", "state_province": "North Carolina", "postal_code": "27030-8421", "country": "United States", "longitude": null, "latitude": null, "phone": "3363525595", "website_url": "http://www.skullcampbrewing.com", "state": "North Carolina", "street": "765 Round Peak Church Rd"}, {"id": "5f426984-68f1-4f2b-9bed-97eba2b6809e", "name": "Skull Mechanix Brewing", "brewery_type": "micro", "address_1": "1005 East St Elmo Rd Bldg 2", "address_2": null, "address_3": null, "city": "Austin", "state_province": "Texas", "postal_code": "78745", "country": "United States", "longitude": null, "latitude": null, "phone": "7373001002", "website_url": "http://www.skullmechanix.com", "state": "Texas", "street": "1005 East St Elmo Rd Bldg 2"}, {"id": "ed1133f9-48d1-4951-b47e-f67a274d6203", "name": "Sky High Brewing", "brewery_type": "brewpub", "address_1": "160 NW Jackson Ave", "address_2": null, "address_3": null, "city": "Corvallis", "state_province": "Oregon", "postal_code": "97330-4827", "country": "United States", "longitude": "-123.2590342", "latitude": "44.5648291", "phone": "5412073277", "website_url": "http://www.skyhighbrewing.com", "state": "Oregon", "street": "160 NW Jackson Ave"}, {"id": "ac1e0284-05a9-41af-b82c-7ede99ecd2e7", "name": "Skyland Ale Works", "brewery_type": "micro", "address_1": "1869 Pomona Rd Ste E", "address_2": null, "address_3": null, "city": "Corona", "state_province": "California", "postal_code": "92880-1789", "country": "United States", "longitude": "-117.6017074", "latitude": "33.88345492", "phone": "9518173037", "website_url": "http://www.skylandaleworks.com", "state": "California", "street": "1869 Pomona Rd Ste E"}, {"id": "e7cde6c1-fce9-43cd-8cb8-6867172e084c", "name": "Skyroc Brewery", "brewery_type": "micro", "address_1": "11 Riverbank Rd", "address_2": null, "address_3": null, "city": "Attleboro", "state_province": "Massachusetts", "postal_code": "02703-", "country": "United States", "longitude": "-71.28788917", "latitude": "41.94462967", "phone": "7743312336", "website_url": "http://www.skyrocbrewery.com", "state": "Massachusetts", "street": "11 Riverbank Rd"}, {"id": "e626c28c-de4e-4cd5-bc1b-d66418329731", "name": "Slack Tide Brewing Company", "brewery_type": "micro", "address_1": "1072 Route 83 Unit 3", "address_2": null, "address_3": null, "city": "Cape May Court House", "state_province": "New Jersey", "postal_code": "08210-1200", "country": "United States", "longitude": null, "latitude": null, "phone": "6094782343", "website_url": "http://www.slacktidebrewingco.com", "state": "New Jersey", "street": "1072 Route 83 Unit 3"}, {"id": "8890167c-6e54-45b2-9be3-a866eb3e6168", "name": "Slantways Brewing Company", "brewery_type": "planning", "address_1": null, "address_2": null, "address_3": null, "city": "The Woodlands", "state_province": "Texas", "postal_code": "77381-4641", "country": "United States", "longitude": null, "latitude": null, "phone": null, "website_url": null, "state": "Texas", "street": null}, {"id": "2c56fb62-1beb-4f7b-9994-c1b4413c8c80", "name": "Slate Farm Brewery", "brewery_type": "micro", "address_1": "2128 Whiteford Rd", "address_2": null, "address_3": null, "city": "Whiteford", "state_province": "Maryland", "postal_code": "21160-1402", "country": "United States", "longitude": "-76.3369752", "latitude": "39.7036891", "phone": null, "website_url": null, "state": "Maryland", "street": "2128 Whiteford Rd"}, {"id": "3a1f7d89-6e0a-4267-80c6-63e8c8a51e34", "name": "Slate Rock Brewing Company", "brewery_type": "micro", "address_1": "113 S Main St", "address_2": null, "address_3": null, "city": "Amity", "state_province": "Arkansas", "postal_code": "71921-", "country": "United States", "longitude": "-93.46113043", "latitude": "34.26406928", "phone": "8703425545", "website_url": "http://www.slaterockbrewing.com", "state": "Arkansas", "street": "113 S Main St"}, {"id": "e44fd198-7103-490f-9f20-3f6d485b22a3", "name": "Slaughter County Brewing", "brewery_type": "brewpub", "address_1": "1307 Bay St", "address_2": null, "address_3": null, "city": "Port Orchard", "state_province": "Washington", "postal_code": "98366-5105", "country": "United States", "longitude": "-122.626001", "latitude": "47.54261931", "phone": "3603292340", "website_url": "http://www.slaughtercountybrewing.com", "state": "Washington", "street": "1307 Bay St"}, {"id": "b5ca8cb2-fff7-4444-b9f8-82727cdd0dba", "name": "Sleeping Giant Brewing Company", "brewery_type": "micro", "address_1": "2500 W 5th Ave", "address_2": null, "address_3": null, "city": "Denver", "state_province": "Colorado", "postal_code": "80204-4803", "country": "United States", "longitude": "-105.0167729", "latitude": "39.7237975", "phone": null, "website_url": "http://www.sleepinggiantbrewing.com", "state": "Colorado", "street": "2500 W 5th Ave"}, {"id": "a2bdb22b-3649-43a7-85b8-7821e09c1d7c", "name": "Sleepy Dog Brewing Co", "brewery_type": "micro", "address_1": "1920 E University Dr", "address_2": null, "address_3": null, "city": "Tempe", "state_province": "Arizona", "postal_code": "85281-4608", "country": "United States", "longitude": "-111.9041833", "latitude": "33.422606", "phone": "4809675476", "website_url": null, "state": "Arizona", "street": "1920 E University Dr"}, {"id": "4c5f2814-cfef-4841-bd54-5754e47d2f34", "name": "Sleepy Owl Brewery", "brewery_type": "micro", "address_1": "151 E Main St Ste 200", "address_2": null, "address_3": null, "city": "Kingsport", "state_province": "Tennessee", "postal_code": "37660-4380", "country": "United States", "longitude": null, "latitude": null, "phone": "4232744458", "website_url": "http://www.sleepyowlbrewery.com", "state": "Tennessee", "street": "151 E Main St Ste 200"}, {"id": "6d654268-585f-4da4-9bcd-bc6a3fd550e2", "name": "Slesar Bros Brewing Co - Boston Beer Works", "brewery_type": "brewpub", "address_1": "112 Canal St", "address_2": null, "address_3": null, "city": "Boston", "state_province": "Massachusetts", "postal_code": "02114-1805", "country": "United States", "longitude": "-71.0603412", "latitude": "42.364473", "phone": "6178962337", "website_url": "http://www.beerworks.net", "state": "Massachusetts", "street": "112 Canal St"}, {"id": "6b946d80-9365-4f6c-90d5-ad9258e2b149", "name": "Slesar Bros Brewing Co - Boston Beer Works", "brewery_type": "brewpub", "address_1": "61 Brookline Ave", "address_2": null, "address_3": null, "city": "Boston", "state_province": "Massachusetts", "postal_code": "02215-3406", "country": "United States", "longitude": "-71.10772469", "latitude": "42.33883008", "phone": "6175362337", "website_url": "http://www.beerworks.net", "state": "Massachusetts", "street": "61 Brookline Ave"}, {"id": "6d9698ed-f45d-451e-92d0-e3be563e3e1c", "name": "SlickFin Brewing Company LLC", "brewery_type": "planning", "address_1": null, "address_2": null, "address_3": null, "city": "Queensbury", "state_province": "New York", "postal_code": "12804-9786", "country": "United States", "longitude": null, "latitude": null, "phone": null, "website_url": null, "state": "New York", "street": null}, {"id": "f237ee78-7b14-4d09-bead-202fd79be7d5", "name": "Slieve Bloom Brewing Company", "brewery_type": "micro", "address_1": "Main Street", "address_2": "The Walk", "address_3": null, "city": "Kinnitty", "state_province": "Offaly", "postal_code": "R42 W542", "country": "Ireland", "longitude": "-7.7211856", "latitude": "53.0978092", "phone": "353579137010", "website_url": "https://slievebloombrewing.com/", "state": "Offaly", "street": "Main Street"}, {"id": "2976ade3-23e9-4acf-8e96-48bc18b4e94a", "name": "Slippery Pig Brewery", "brewery_type": "brewpub", "address_1": "18801 Front St NE", "address_2": null, "address_3": null, "city": "Poulsbo", "state_province": "Washington", "postal_code": "98370", "country": "United States", "longitude": "-122.6459834", "latitude": "47.73347675", "phone": "3603941686", "website_url": "http://www.slipperypigbrewing.com", "state": "Washington", "street": "18801 Front St NE"}, {"id": "c9b014ab-a72f-4098-8cd7-1e30b7989b3a", "name": "SLO Brewing Co", "brewery_type": "micro", "address_1": "736 Higuera St", "address_2": null, "address_3": null, "city": "San Luis Obispo", "state_province": "California", "postal_code": "93401-3513", "country": "United States", "longitude": "-120.6640407", "latitude": "35.2793012", "phone": "8054595604", "website_url": "http://www.slobrew.com", "state": "California", "street": "736 Higuera St"}, {"id": "bbae1378-1b2d-4496-8f25-b215c7c27cf3", "name": "SLO Brewing Co - The Rock", "brewery_type": "brewpub", "address_1": "855 Aerovista Pl", "address_2": null, "address_3": null, "city": "San Luis Obispo", "state_province": "California", "postal_code": "93401-8056", "country": "United States", "longitude": "-120.6411805", "latitude": "35.24187276", "phone": "8057062915", "website_url": null, "state": "California", "street": "855 Aerovista Pl"}, {"id": "f5072e98-978a-4a4b-bd96-610257365d89", "name": "Sloop Brewing", "brewery_type": "micro", "address_1": "1065 County Route 19", "address_2": null, "address_3": null, "city": "Elizaville", "state_province": "New York", "postal_code": "12523-1205", "country": "United States", "longitude": "-73.797148", "latitude": "42.084393", "phone": "9178483865", "website_url": "http://www.sloopbrewing.com", "state": "New York", "street": "1065 County Route 19"}, {"id": "054dc3c8-bca1-4a31-94c3-4fbf7c0f5567", "name": "Slow Play Brewing Company", "brewery_type": "planning", "address_1": null, "address_2": null, "address_3": null, "city": "Rock Hill", "state_province": "South Carolina", "postal_code": "29730-3504", "country": "United States", "longitude": null, "latitude": null, "phone": null, "website_url": null, "state": "South Carolina", "street": null}, {"id": "4fd7c5d7-8725-46dd-9174-20d118057f5b", "name": "Slow Pour Brewing Company", "brewery_type": "micro", "address_1": "407 N Clayton St", "address_2": null, "address_3": null, "city": "Lawrenceville", "state_province": "Georgia", "postal_code": "30046-4818", "country": "United States", "longitude": "-83.98889581", "latitude": "33.96116747", "phone": "4045108901", "website_url": "http://www.slowpourbrewing.com", "state": "Georgia", "street": "407 N Clayton St"}, {"id": "b629eb5c-2277-41cb-b37e-a892bf3b9ce3", "name": "Slowboat Brewing Company", "brewery_type": "micro", "address_1": "318 W 5th St", "address_2": null, "address_3": null, "city": "Laurel", "state_province": "Mississippi", "postal_code": "39440-3461", "country": "United States", "longitude": "-89.12789538", "latitude": "31.69425231", "phone": "6014332723", "website_url": "http://www.slowboatbrewco.com", "state": "Mississippi", "street": "318 W 5th St"}, {"id": "bba784ea-f9b4-4d89-a713-9697cd12982d", "name": "Sluggo Brewing", "brewery_type": "micro", "address_1": "2712 6th Ave", "address_2": null, "address_3": null, "city": "Tacoma", "state_province": "Washington", "postal_code": "98406-7213", "country": "United States", "longitude": "-122.472174", "latitude": "47.2553127", "phone": "2533271894", "website_url": "http://www.halfpintpizzapub.com", "state": "Washington", "street": "2712 6th Ave"}, {"id": "ccfce8d1-c49d-4bb5-af77-36e5e0def26a", "name": "Sly Fox Brewhouse and Eatery", "brewery_type": "micro", "address_1": "520 Kimberton Rd Pikeland Village Square", "address_2": null, "address_3": null, "city": "Phoenixville", "state_province": "Pennsylvania", "postal_code": "19460-4737", "country": "United States", "longitude": null, "latitude": null, "phone": "6109354540", "website_url": "http://www.slyfoxbeer.com", "state": "Pennsylvania", "street": "520 Kimberton Rd Pikeland Village Square"}, {"id": "acd3da61-7841-48bf-9d0e-5ac89915e9dc", "name": "Sly Fox Brewing Co", "brewery_type": "regional", "address_1": "331 Circle of Progress Dr", "address_2": null, "address_3": null, "city": "Pottstown", "state_province": "Pennsylvania", "postal_code": "19464-3811", "country": "United States", "longitude": "-75.66632314", "latitude": "40.26338927", "phone": "4845248210", "website_url": "http://www.slyfoxbeer.com", "state": "Pennsylvania", "street": "331 Circle of Progress Dr"}, {"id": "a2fd5880-bb20-447c-8676-06d5c3204bb2", "name": "Small Batch Beer Co", "brewery_type": "brewpub", "address_1": "241 W 5th St", "address_2": null, "address_3": null, "city": "Winston Salem", "state_province": "North Carolina", "postal_code": "27101-2825", "country": "United States", "longitude": "-80.24656194", "latitude": "36.09984057", "phone": "3368936395", "website_url": "http://www.smallbatchws.com", "state": "North Carolina", "street": "241 W 5th St"}, {"id": "221f2f9d-0a0d-4a0e-812d-52a323b9b0b6", "name": "Small Brewpub", "brewery_type": "brewpub", "address_1": "333 W Jefferson Blvd", "address_2": null, "address_3": null, "city": "Dallas", "state_province": "Texas", "postal_code": "75208-4602", "country": "United States", "longitude": "-96.924553", "latitude": "32.747739", "phone": "9728631594", "website_url": "http://www.smallbrewpub.com", "state": "Texas", "street": "333 W Jefferson Blvd"}, {"id": "ad153816-87b7-4426-8962-a885e286c116", "name": "Small Craft Brewing Co", "brewery_type": "micro", "address_1": "66 Merrick Rd", "address_2": null, "address_3": null, "city": "Amityville", "state_province": "New York", "postal_code": "11701-3463", "country": "United States", "longitude": "-73.42019", "latitude": "40.67158556", "phone": "6314640186", "website_url": "http://www.smallcraftbrewing.com", "state": "New York", "street": "66 Merrick Rd"}, {"id": "2e7b8b79-621e-4681-8f53-0c24fedfc09d", "name": "Smartmouth Brewing Co", "brewery_type": "micro", "address_1": "1309 Raleigh Ave Ste A", "address_2": null, "address_3": null, "city": "Norfolk", "state_province": "Virginia", "postal_code": "23507-1367", "country": "United States", "longitude": null, "latitude": null, "phone": "7576243939", "website_url": "http://www.smartmouthbrewing.com", "state": "Virginia", "street": "1309 Raleigh Ave Ste A"}, {"id": "74cef93d-22b5-418a-a84f-e996784e17d7", "name": "Smartmouth Brewing Pilot House", "brewery_type": "micro", "address_1": "313 32nd St", "address_2": null, "address_3": null, "city": "Virginia Beach", "state_province": "Virginia", "postal_code": "23451-2950", "country": "United States", "longitude": "-75.98078847", "latitude": "36.86023395", "phone": null, "website_url": null, "state": "Virginia", "street": "313 32nd St"}, {"id": "8a7b82c3-9385-4588-a98a-35fc895e4a7a", "name": "Smelter City Brewing", "brewery_type": "micro", "address_1": "101 E Commercial Ave", "address_2": null, "address_3": null, "city": "Anaconda", "state_province": "Montana", "postal_code": "59711-2289", "country": "United States", "longitude": "-112.95216", "latitude": "46.130107", "phone": "4065630344", "website_url": "http://www.smeltercitybrewing.com", "state": "Montana", "street": "101 E Commercial Ave"}, {"id": "9692085e-0a88-418f-bae2-8ac272043c22", "name": "Smiling Toad Brewery", "brewery_type": "micro", "address_1": "1757 S 8th St Ste 100", "address_2": null, "address_3": null, "city": "Colorado Springs", "state_province": "Colorado", "postal_code": "80905-1926", "country": "United States", "longitude": null, "latitude": null, "phone": "7194182936", "website_url": "http://www.smilingtoadbrewery.com", "state": "Colorado", "street": "1757 S 8th St Ste 100"}, {"id": "6cd2665b-5ea4-4d78-a955-4054b95cbdee", "name": "Smith & Lentz Brewing", "brewery_type": "micro", "address_1": "903 Main St", "address_2": null, "address_3": null, "city": "Nashville", "state_province": "Tennessee", "postal_code": "37206-3609", "country": "United States", "longitude": "-86.75651722", "latitude": "36.17632511", "phone": null, "website_url": "http://www.smithandlentz.com", "state": "Tennessee", "street": "903 Main St"}, {"id": "6a6ff43f-647e-4943-8cb5-85d6258598b6", "name": "Smith Rock Brewing", "brewery_type": "brewpub", "address_1": "546 NW 7th St", "address_2": null, "address_3": null, "city": "Redmond", "state_province": "Oregon", "postal_code": "97756-1628", "country": "United States", "longitude": "-121.175239", "latitude": "44.28056302", "phone": "5412797005", "website_url": "http://www.smithrockbrewing.com", "state": "Oregon", "street": "546 NW 7th St"}, {"id": "338a035d-fe33-4406-8d9b-0acb0eb96f41", "name": "Smithwick's (Diageo)", "brewery_type": "regional", "address_1": "44 Parliament St", "address_2": "Gardens", "address_3": null, "city": "Kilkenny", "state_province": "Kilkenny", "postal_code": "R95 VK54", "country": "Ireland", "longitude": "-7.2562989", "latitude": "52.6543719", "phone": "353567786377", "website_url": "https://www.smithwicksexperience.com/", "state": "Kilkenny", "street": "44 Parliament St"}, {"id": "64348b73-e8b5-4bc3-8148-9630d2e347c3", "name": "Smitty's Brewing", "brewery_type": "micro", "address_1": null, "address_2": null, "address_3": null, "city": "Bremerton", "state_province": "Washington", "postal_code": "98312-9132", "country": "United States", "longitude": null, "latitude": null, "phone": "3607108921", "website_url": "http://smittysbrewing.com", "state": "Washington", "street": null}, {"id": "130b023b-c130-4325-8df2-2a52a62aaf21", "name": "Smockville Brewhouse", "brewery_type": "brewpub", "address_1": "22793 SW Pine St", "address_2": null, "address_3": null, "city": "Sherwood", "state_province": "Oregon", "postal_code": "97140-9303", "country": "United States", "longitude": "-122.8406694", "latitude": "45.3566248", "phone": "5036101506", "website_url": "http://www.smockvillebrewhouse.com", "state": "Oregon", "street": "22793 SW Pine St"}, {"id": "c267ba5a-d0dc-4725-85fd-18659fe5a006", "name": "Smog City Brewing", "brewery_type": "micro", "address_1": "1901 Del Amo Blvd Ste B", "address_2": null, "address_3": null, "city": "Torrance", "state_province": "California", "postal_code": "90501-1350", "country": "United States", "longitude": "-118.313547", "latitude": "33.8472774", "phone": "3103207664", "website_url": "http://www.smogcitybrewing.com", "state": "California", "street": "1901 Del Amo Blvd Ste B"}, {"id": "6fc07a95-1af8-4e00-bfd6-3841016cf901", "name": "Smog City Brewing Wood Cellar", "brewery_type": "micro", "address_1": "1879 Del Amo Blvd", "address_2": null, "address_3": null, "city": "Torrance", "state_province": "California", "postal_code": "90501", "country": "United States", "longitude": "-118.3180205", "latitude": "33.8467722", "phone": "3103207664", "website_url": "http://www.smogcitybrewing.com", "state": "California", "street": "1879 Del Amo Blvd"}, {"id": "b2c68158-4806-47ed-8150-a45d1661c2b9", "name": "Smoke Brewing Company", "brewery_type": "brewpub", "address_1": "209 SE Main St", "address_2": null, "address_3": null, "city": "Lees Summit", "state_province": "Missouri", "postal_code": "64063", "country": "United States", "longitude": "-94.37807739", "latitude": "38.91334904", "phone": "8165252337", "website_url": "http://www.smokebrewingcompany.com", "state": "Missouri", "street": "209 SE Main St"}]