[{"id": "e8a8053c-22a8-4f42-90e0-5d6474477a10", "name": "Bangor Beer Co.", "brewery_type": "brewpub", "address_1": "330 Bangor Mall Blvd", "address_2": null, "address_3": null, "city": "Bangor", "state_province": "Maine", "postal_code": "04401-3644", "country": "United States", "longitude": null, "latitude": null, "phone": "2079476605", "website_url": "http://www.bangorbeerco.com", "state": "Maine", "street": "330 Bangor Mall Blvd"}, {"id": "5d408c7c-fb56-4012-bd83-3471f43ffc2f", "name": "Bangor Trust Brewing", "brewery_type": "brewpub", "address_1": "15 Broadway", "address_2": null, "address_3": null, "city": "Bangor", "state_province": "Pennsylvania", "postal_code": "18013-2601", "country": "United States", "longitude": null, "latitude": null, "phone": "6104523232", "website_url": "http://bangortrustbrewing.com", "state": "Pennsylvania", "street": "15 Broadway"}, {"id": "9e12b6a6-9445-4a29-818c-4b96dbd30f55", "name": "Banjo Brewing", "brewery_type": "planning", "address_1": null, "address_2": null, "address_3": null, "city": "Fayetteville", "state_province": "West Virginia", "postal_code": "25840", "country": "United States", "longitude": null, "latitude": null, "phone": "3042164231", "website_url": null, "state": "West Virginia", "street": null}, {"id": "133a1850-eabe-4a10-95dc-827ae90965ee", "name": "Bank Brewing Co", "brewery_type": "micro", "address_1": "218 N Main St", "address_2": null, "address_3": null, "city": "Hendricks", "state_province": "Minnesota", "postal_code": "56136-9501", "country": "United States", "longitude": "-96.42581655", "latitude": "44.50839827", "phone": "6123092513", "website_url": "http://www.bankbrewing.com", "state": "Minnesota", "street": "218 N Main St"}, {"id": "a8a4b78e-6e6c-4c93-a1bb-e364353f25ce", "name": "Bankhead Brewing Company", "brewery_type": "brewpub", "address_1": "3840 Main St", "address_2": null, "address_3": null, "city": "Rowlett", "state_province": "Texas", "postal_code": "75088-5073", "country": "United States", "longitude": "-96.56610883", "latitude": "32.9029137", "phone": "2143847953", "website_url": "http://www.bankheadbrewing.com", "state": "Texas", "street": "3840 Main St"}, {"id": "6865f9b6-b99a-4d4c-a12a-824924ac27ea", "name": "Banning's Inc", "brewery_type": "micro", "address_1": "620 Water St", "address_2": null, "address_3": null, "city": "Summersville", "state_province": "West Virginia", "postal_code": "26651-1453", "country": "United States", "longitude": "-80.85147552", "latitude": "38.281623", "phone": "3046196972", "website_url": null, "state": "West Virginia", "street": "620 Water St"}, {"id": "38ec976b-9832-425c-818e-7843b722acec", "name": "Bar 3 BBQ and Brewing", "brewery_type": "brewpub", "address_1": "100 S Broadway", "address_2": null, "address_3": null, "city": "Belgrade", "state_province": "Montana", "postal_code": "59714-3909", "country": "United States", "longitude": "-111.1770268", "latitude": "45.7751537", "phone": "4063889182", "website_url": "http://www.bar3bbq.com", "state": "Montana", "street": "100 S Broadway"}, {"id": "ddccedb0-12d1-442c-bd66-3c2fe9b0fe80", "name": "Bar D Brew House", "brewery_type": "brewpub", "address_1": "213 N High St", "address_2": null, "address_3": null, "city": "San Saba", "state_province": "Texas", "postal_code": "76877-3533", "country": "United States", "longitude": "-98.71854917", "latitude": "31.19678472", "phone": "3253726100", "website_url": "http://www.bardbrewhouse.com", "state": "Texas", "street": "213 N High St"}, {"id": "a834c4b5-4852-4887-aa6f-c872dfc10824", "name": "Bar Hygge / Brewery Techne", "brewery_type": "brewpub", "address_1": "1720 Fairmount Ave", "address_2": null, "address_3": null, "city": "Philadelphia", "state_province": "Pennsylvania", "postal_code": "19130-2858", "country": "United States", "longitude": "-75.16567302", "latitude": "39.96707286", "phone": null, "website_url": null, "state": "Pennsylvania", "street": "1720 Fairmount Ave"}, {"id": "08fffdf5-41f6-4445-a9a5-63d4927dc366", "name": "Baranof Island Brewing Co", "brewery_type": "closed", "address_1": "1209 Sawmill Creek Rd Ste A", "address_2": null, "address_3": null, "city": "Sitka", "state_province": "Alaska", "postal_code": "99835-9759", "country": "United States", "longitude": "-135.309951", "latitude": "57.049586", "phone": "9077472739", "website_url": "http://www.baranofislandbrewing.com", "state": "Alaska", "street": "1209 Sawmill Creek Rd Ste A"}, {"id": "2f2b9e28-3550-4e57-80bf-4fa388200ed7", "name": "Barbarian Brewing - Downtown Taproom", "brewery_type": "micro", "address_1": "1022 W Main St", "address_2": null, "address_3": null, "city": "Boise", "state_province": "Idaho", "postal_code": "83702-5705", "country": "United States", "longitude": "-116.206883", "latitude": "43.618407", "phone": "2083872739", "website_url": "https://barbarianbrewing.com", "state": "Idaho", "street": "1022 W Main St"}, {"id": "056acce6-7847-43f3-9a24-c32ee66ae805", "name": "Barbarian Brewing - Garden City", "brewery_type": "micro", "address_1": "5270 W Chinden Blvd", "address_2": null, "address_3": null, "city": "Garden City", "state_province": "Idaho", "postal_code": "83714-1457", "country": "United States", "longitude": "-116.272141", "latitude": "43.646318", "phone": "2083872739", "website_url": "http://www.barbarianbrewing.com", "state": "Idaho", "street": "5270 W Chinden Blvd"}, {"id": "7cdb5832-f9fb-421c-b94c-3989c6240894", "name": "Bard's Brewery, LLC", "brewery_type": "proprietor", "address_1": null, "address_2": null, "address_3": null, "city": "Lees Summit", "state_province": "Missouri", "postal_code": "64063-0905", "country": "United States", "longitude": null, "latitude": null, "phone": "8167281707", "website_url": "http://www.bardsbeer.com", "state": "Missouri", "street": null}, {"id": "9ae35285-00ed-4066-963c-8bfad2d16c29", "name": "Bardic Brewing and Cider", "brewery_type": "micro", "address_1": "15412 E Sprague Ave #14", "address_2": null, "address_3": null, "city": "Spokane Valley", "state_province": "Washington", "postal_code": "99037", "country": "United States", "longitude": "-117.1984519", "latitude": "47.65665159", "phone": "5097236105", "website_url": "https://bardicbrewing.com", "state": "Washington", "street": "15412 E Sprague Ave #14"}, {"id": "082f06b4-93bc-4683-9223-5b64103413e8", "name": "Bardo Brewpub", "brewery_type": "micro", "address_1": "25 Potomac Ave SE", "address_2": null, "address_3": null, "city": "Washington", "state_province": "District of Columbia", "postal_code": "20003-3670", "country": "United States", "longitude": "-77.00658302", "latitude": "38.87165373", "phone": "7622337070", "website_url": "http://www.bardo.beer", "state": "District of Columbia", "street": "25 Potomac Ave SE"}, {"id": "7574d2fa-b21c-48df-a206-8ea36cbc8229", "name": "Bardwell Winery and Brewery", "brewery_type": "micro", "address_1": "716 N High St", "address_2": null, "address_3": null, "city": "Mount Orab", "state_province": "Ohio", "postal_code": "45154", "country": "United States", "longitude": "-83.9209789", "latitude": "39.0419795", "phone": null, "website_url": "http://www.bardwellwinery.com", "state": "Ohio", "street": "716 N High St"}, {"id": "df0ca5e9-9372-4516-a191-e6bfe4c466b0", "name": "Bare Arms Brewing", "brewery_type": "micro", "address_1": "2515 La Salle Ave", "address_2": null, "address_3": null, "city": "Waco", "state_province": "Texas", "postal_code": "76706-3929", "country": "United States", "longitude": "-97.13081959", "latitude": "31.52488462", "phone": "2547598480", "website_url": "http://www.barearmsbrewing.com", "state": "Texas", "street": "2515 La Salle Ave"}, {"id": "32d22f8c-1a9a-45ea-a8b0-daf3a002fb5b", "name": "Bare Bones Brewery", "brewery_type": "brewpub", "address_1": "4362 County Rd S", "address_2": null, "address_3": null, "city": "Oshkosh", "state_province": "Wisconsin", "postal_code": "54904-9575", "country": "United States", "longitude": "-88.59075354", "latitude": "44.07856457", "phone": "9207448045", "website_url": "http://www.barebonesbrewery.us", "state": "Wisconsin", "street": "4362 County Rd S"}, {"id": "eaccdf46-40c0-4a05-a4b8-680f0e38f913", "name": "Bare Hands Brewery", "brewery_type": "micro", "address_1": "12804 Sandy Ct", "address_2": null, "address_3": null, "city": "Granger", "state_province": "Indiana", "postal_code": "46530-4309", "country": "United States", "longitude": null, "latitude": null, "phone": "5742772258", "website_url": "http://www.barehandsbrewbrewery.com", "state": "Indiana", "street": "12804 Sandy Ct"}, {"id": "97ca045f-aa1a-429e-bd93-7461954b20fc", "name": "Barebottle Brewing Company", "brewery_type": "micro", "address_1": "1525 Cortland Ave", "address_2": null, "address_3": null, "city": "San Francisco", "state_province": "California", "postal_code": "94110-5714", "country": "United States", "longitude": "-122.4090405", "latitude": "37.74000915", "phone": "4159268617", "website_url": "http://www.barebottlebeer.com", "state": "California", "street": "1525 Cortland Ave"}, {"id": "1c1fec67-f169-4646-b4d4-aeda1643fafb", "name": "BareWolf Brewing", "brewery_type": "micro", "address_1": "12 Oakland St", "address_2": null, "address_3": null, "city": "Amesbury", "state_province": "Massachusetts", "postal_code": "01913", "country": "United States", "longitude": "-70.92336518", "latitude": "42.85606929", "phone": "9783906540", "website_url": "http://www.barewolfbrewing.com", "state": "Massachusetts", "street": "12 Oakland St"}, {"id": "87bfdb36-616c-455d-a2f8-a8dbd7408588", "name": "Barhop Brewing", "brewery_type": "brewpub", "address_1": "124 W Railroad Ave", "address_2": null, "address_3": null, "city": "Port Angeles", "state_province": "Washington", "postal_code": "98362-2621", "country": "United States", "longitude": "-123.4332787", "latitude": "48.12098065", "phone": "3604605155", "website_url": "http://www.barhopbrewing.com", "state": "Washington", "street": "124 W Railroad Ave"}, {"id": "de70c697-36e2-4f30-9c08-f15fbca43bc8", "name": "Bark Brewing Company", "brewery_type": "brewpub", "address_1": "3021 Spring Garden St", "address_2": null, "address_3": null, "city": "Greensboro", "state_province": "North Carolina", "postal_code": "27403-1968", "country": "United States", "longitude": "-79.84360434", "latitude": "36.06201036", "phone": "3368561406", "website_url": "http://barkbrewingcompany.com", "state": "North Carolina", "street": "3021 Spring Garden St"}, {"id": "c51c96f4-d444-4e83-b332-924d7811d236", "name": "BarkEater Craft Brewery", "brewery_type": "proprietor", "address_1": "5411 Shady Ave", "address_2": null, "address_3": null, "city": "Lowville", "state_province": "New York", "postal_code": "13367-1601", "country": "United States", "longitude": "-75.4867252", "latitude": "43.7874658", "phone": "3157758959", "website_url": "http://www.barkeaterbrew.com", "state": "New York", "street": "5411 Shady Ave"}, {"id": "2c58a683-787e-4d26-a7f0-e12e31b36e74", "name": "Barking Armadillo Brewing", "brewery_type": "micro", "address_1": "507 River Bend", "address_2": null, "address_3": null, "city": "Georgetown", "state_province": "Texas", "postal_code": "78723-3342", "country": "United States", "longitude": "-97.6932487", "latitude": "30.6608114", "phone": "512-240-5137", "website_url": "http://www.barkingarmadillo.com/", "state": "Texas", "street": "507 River Bend"}, {"id": "4e51c656-001a-4f64-9fcd-0edc5b8e6669", "name": "Barking Duck Brewing Company", "brewery_type": "micro", "address_1": "4400 Morris Park Dr Ste R", "address_2": null, "address_3": null, "city": "Mint Hill", "state_province": "North Carolina", "postal_code": "28227-9269", "country": "United States", "longitude": null, "latitude": null, "phone": "9809386300", "website_url": "http://www.barkingduckbrew.com", "state": "North Carolina", "street": "4400 Morris Park Dr Ste R"}, {"id": "63e51e47-8ece-4348-bdbc-313f2d8be6e2", "name": "Barley and Hops Grill", "brewery_type": "brewpub", "address_1": "5473 Urbana Pike", "address_2": null, "address_3": null, "city": "Frederick", "state_province": "Maryland", "postal_code": "21704-7275", "country": "United States", "longitude": "-77.3995969", "latitude": "39.38204685", "phone": "3016685555", "website_url": "http://www.barleyandhops.net", "state": "Maryland", "street": "5473 Urbana Pike"}, {"id": "7466d420-8ee9-41b1-8794-f9618df77361", "name": "Barley Boys Brewery", "brewery_type": "planning", "address_1": null, "address_2": null, "address_3": null, "city": "Omaha", "state_province": "Nebraska", "postal_code": "68144-1922", "country": "United States", "longitude": null, "latitude": null, "phone": "4025986096", "website_url": "http://www.barleyboysbrewery.com", "state": "Nebraska", "street": null}, {"id": "3f876682-7dcf-4465-8880-63253506e3e4", "name": "Barley Brothers Brewery", "brewery_type": "brewpub", "address_1": "1425 McCulloch Blvd N", "address_2": null, "address_3": null, "city": "Lake Havasu City", "state_province": "Arizona", "postal_code": "86403-6597", "country": "United States", "longitude": "-114.3206399", "latitude": "34.4770677", "phone": "9285057837", "website_url": "http://www.barleybrothers.com", "state": "Arizona", "street": "1425 McCulloch Blvd N"}, {"id": "7a470fd0-dc8f-4324-9c42-dd1428488f7d", "name": "Barley Browns Brewpub", "brewery_type": "micro", "address_1": "2190 Main St", "address_2": null, "address_3": null, "city": "Baker City", "state_province": "Oregon", "postal_code": "97814-2655", "country": "United States", "longitude": "-117.8294962", "latitude": "44.7787802", "phone": "5415234266", "website_url": "http://www.barleybrowns.com", "state": "Oregon", "street": "2190 Main St"}, {"id": "6267a2b4-289e-4720-8baf-6ab825f30380", "name": "Barley Creek Brewing Co", "brewery_type": "brewpub", "address_1": "1774 Sullivan Trl", "address_2": null, "address_3": null, "city": "Tannersville", "state_province": "Pennsylvania", "postal_code": "18372-7893", "country": "United States", "longitude": "-75.32890575", "latitude": "41.05236395", "phone": "5706299399", "website_url": "http://www.barleycreek.com", "state": "Pennsylvania", "street": "1774 Sullivan Trl"}, {"id": "fbb7714c-4583-4d4d-96f4-369b4515476d", "name": "Barley Forge Brewing", "brewery_type": "closed", "address_1": "2957 Randolph Ave Ste B", "address_2": null, "address_3": null, "city": "Costa Mesa", "state_province": "California", "postal_code": "92626-4375", "country": "United States", "longitude": "-117.8880183", "latitude": "33.67903294", "phone": "7146412084", "website_url": "http://www.barleyforge.com", "state": "California", "street": "2957 Randolph Ave Ste B"}, {"id": "fa5848d1-fd69-401e-b5ec-a59321e631b4", "name": "Barley Head Brewery", "brewery_type": "micro", "address_1": "12 Water St 1A", "address_2": null, "address_3": null, "city": "Mystic", "state_province": "Connecticut", "postal_code": "06355", "country": "United States", "longitude": null, "latitude": null, "phone": null, "website_url": "http://www.barleyheadbrewery.com", "state": "Connecticut", "street": "12 Water St 1A"}, {"id": "ee28a49f-8069-428c-a379-c4121d710821", "name": "Barley Island Brewing Co", "brewery_type": "brewpub", "address_1": "639 E Conner St", "address_2": null, "address_3": null, "city": "Noblesville", "state_province": "Indiana", "postal_code": "46060-2532", "country": "United States", "longitude": null, "latitude": null, "phone": "3177705280", "website_url": "http://www.barleyisland.com", "state": "Indiana", "street": "639 E Conner St"}, {"id": "050945b3-143d-4c19-976d-be130c5b9628", "name": "Barley Johns Brewpub", "brewery_type": "brewpub", "address_1": "781 Old Highway 8 SW", "address_2": null, "address_3": null, "city": "New Brighton", "state_province": "Minnesota", "postal_code": "55112-7735", "country": "United States", "longitude": "-93.1984831", "latitude": "45.0366982", "phone": "6516364670", "website_url": "http://www.barleyjohns.com", "state": "Minnesota", "street": "781 Old Highway 8 SW"}, {"id": "5e10fcfc-9724-4622-a95d-da266c8628ee", "name": "Barley Johns Brewpub", "brewery_type": "brewpub", "address_1": "1280 Madison Ave", "address_2": null, "address_3": null, "city": "New Richmond", "state_province": "Wisconsin", "postal_code": "54017-2236", "country": "United States", "longitude": null, "latitude": null, "phone": "7152464677", "website_url": "http://www.barleyjohnsbrewery.com", "state": "Wisconsin", "street": "1280 Madison Ave"}, {"id": "ddc78de1-9059-45e3-9c38-65e714a96062", "name": "Barley Naked Brewing Company", "brewery_type": "planning", "address_1": null, "address_2": null, "address_3": null, "city": "Stafford", "state_province": "Virginia", "postal_code": "22554", "country": "United States", "longitude": null, "latitude": null, "phone": "5406234475", "website_url": "http://www.barleynaked.com", "state": "Virginia", "street": null}, {"id": "947934b7-b0e7-4eee-81cc-8efabbfe32f7", "name": "Barley Sprouts Brewery", "brewery_type": "brewpub", "address_1": "639 SE 223rd Ave", "address_2": null, "address_3": null, "city": "Gresham", "state_province": "Oregon", "postal_code": "97030-2509", "country": "United States", "longitude": "-122.4339039", "latitude": "45.51805087", "phone": "5037586464", "website_url": "http://www.capturedbyporches.com", "state": "Oregon", "street": "639 SE 223rd Ave"}, {"id": "80683fda-c79f-4dc1-941a-a2b4165487fe", "name": "Barley's Brewing Company (Ale House No. 1)", "brewery_type": "brewpub", "address_1": "467 N High St", "address_2": null, "address_3": null, "city": "Columbus", "state_province": "Ohio", "postal_code": "43215-2007", "country": "United States", "longitude": "-83.0027669", "latitude": "39.9719408", "phone": "6142282537", "website_url": "http://www.barleysbrewing.com", "state": "Ohio", "street": "467 N High St"}, {"id": "10b2fbe8-9fc3-46f8-aaa9-d61bc19dffa8", "name": "Barley's Casino and Brewing Co", "brewery_type": "brewpub", "address_1": "4500 E Sunset Rd Ste 30", "address_2": null, "address_3": null, "city": "Henderson", "state_province": "Nevada", "postal_code": "89014-2253", "country": "United States", "longitude": null, "latitude": null, "phone": "7024582739", "website_url": "http://www.wildfire.sclv.com/barleys", "state": "Nevada", "street": "4500 E Sunset Rd Ste 30"}, {"id": "c4ed1b9c-3e81-4419-bc5b-789c3f4f53e8", "name": "Barlows Brewery", "brewery_type": "micro", "address_1": "705 SE Park Crest Ave Suite D430", "address_2": null, "address_3": null, "city": "Vancouver", "state_province": "Washington", "postal_code": "98683", "country": "United States", "longitude": "-122.5216242", "latitude": "45.6177956", "phone": "3608593795", "website_url": "https://www.barlowsbrewery.com", "state": "Washington", "street": "705 SE Park Crest Ave Suite D430"}, {"id": "9e1dfd14-4289-47ec-9362-362b7f8ed000", "name": "BarmHaus Brewing Co", "brewery_type": "closed", "address_1": "3782 Winding Creek Ln", "address_2": null, "address_3": null, "city": "Garden Valley", "state_province": "California", "postal_code": "95633-9773", "country": "United States", "longitude": "-120.8784951", "latitude": "38.8402775", "phone": "5304440478", "website_url": "http://barmhausco.com", "state": "California", "street": "3782 Winding Creek Ln"}, {"id": "545b51b8-caf4-4c63-aea4-48910ddef4c7", "name": "Barn Brewers", "brewery_type": "brewpub", "address_1": "114 N Main St", "address_2": null, "address_3": null, "city": "Lawton", "state_province": "Michigan", "postal_code": "49065-8634", "country": "United States", "longitude": "-85.84966443", "latitude": "42.16834814", "phone": "2692990482", "website_url": "http://www.barnbrewersbrewery.com", "state": "Michigan", "street": "114 N Main St"}, {"id": "bfb84336-c1e4-48e9-9d05-4a412b60e967", "name": "Barn Brewery", "brewery_type": "micro", "address_1": "2850 El Cajon Blvd Ste 3", "address_2": null, "address_3": null, "city": "San Diego", "state_province": "California", "postal_code": "92104-1389", "country": "United States", "longitude": "-117.1324165", "latitude": "32.75568723", "phone": "6199558228", "website_url": "http://www.thebarnbrew.com", "state": "California", "street": "2850 El Cajon Blvd Ste 3"}, {"id": "e468fc97-eef9-4067-9f20-2df846d8ca5b", "name": "Barn Door Brewing", "brewery_type": "micro", "address_1": "1174 SW Highway 99W", "address_2": null, "address_3": null, "city": "Dundee", "state_province": "Oregon", "postal_code": "97115", "country": "United States", "longitude": "-123.0146104", "latitude": "45.27424538", "phone": "9718328054", "website_url": "http://www.barndoorbrewing.com", "state": "Oregon", "street": "1174 SW Highway 99W"}, {"id": "976cb1b1-2e1d-4b63-b8cc-003104c9af21", "name": "Barn Town Brewing Co.", "brewery_type": "brewpub", "address_1": "9500 SE University Ave #1110", "address_2": null, "address_3": null, "city": "West Des Moines", "state_province": "Iowa", "postal_code": "50266-1888", "country": "United States", "longitude": "-93.8385143", "latitude": "41.5996472", "phone": "5159786767", "website_url": null, "state": "Iowa", "street": "9500 SE University Ave #1110"}, {"id": "5edc486d-03b2-4fe1-a794-e0a972e21bf6", "name": "Barnaby Brewing Company", "brewery_type": "micro", "address_1": "165 Shattuck Way", "address_2": null, "address_3": null, "city": "Juneau", "state_province": "Alaska", "postal_code": "99801", "country": "United States", "longitude": "-134.405962", "latitude": "58.300314", "phone": "9074190916", "website_url": "http://www.barnabybrew.com", "state": "Alaska", "street": "165 Shattuck Way"}, {"id": "57cf86a1-3d0e-4ac7-8f50-b0bae8e34d9c", "name": "Barnett and Son Brewing Company", "brewery_type": "micro", "address_1": "18425 Pony Express Dr Unit 125", "address_2": null, "address_3": null, "city": "Parker", "state_province": "Colorado", "postal_code": "80134-9605", "country": "United States", "longitude": null, "latitude": null, "phone": "7204200462", "website_url": null, "state": "Colorado", "street": "18425 Pony Express Dr Unit 125"}, {"id": "23ff0148-df41-45fd-9f11-feaf313ef149", "name": "Barnhouse Brewery", "brewery_type": "brewpub", "address_1": "43271 Spinks Ferry Rd", "address_2": null, "address_3": null, "city": "Leesburg", "state_province": "Virginia", "postal_code": "20176-5629", "country": "United States", "longitude": null, "latitude": null, "phone": "7036758480", "website_url": "http://www.barnhousebrewery.com", "state": "Virginia", "street": "43271 Spinks Ferry Rd"}, {"id": "f2b298d8-a498-41bc-9321-770e03376866", "name": "Barnshed Brewing", "brewery_type": "micro", "address_1": "100 Lauman Ln", "address_2": null, "address_3": null, "city": "Hicksville", "state_province": "New York", "postal_code": "11801-6574", "country": "United States", "longitude": "-73.50094256", "latitude": "40.74420335", "phone": "5163766514", "website_url": "http://www.barnshedbrewing.com", "state": "New York", "street": "100 Lauman Ln"}, {"id": "c6c6e790-345d-4f46-90e3-6264d4962e1d", "name": "Barnstable Brewing", "brewery_type": "micro", "address_1": "485 W Main St", "address_2": null, "address_3": null, "city": "Hyannis", "state_province": "Massachusetts", "postal_code": "02601-3644", "country": "United States", "longitude": "-70.31159594", "latitude": "41.64913517", "phone": "7744706989", "website_url": "http://www.barnstablebrewing.com", "state": "Massachusetts", "street": "485 W Main St"}, {"id": "54222b6c-3be1-4bf2-95b7-5085f07a6461", "name": "Barnstar Brewing", "brewery_type": "micro", "address_1": "4050 North Tonto Road (Forest Service Rd.102)", "address_2": null, "address_3": null, "city": "Skull Valley", "state_province": "Arizona", "postal_code": "86338", "country": "United States", "longitude": null, "latitude": null, "phone": "9284422337", "website_url": "http://www.barnstarbrew.com", "state": "Arizona", "street": "4050 North Tonto Road (Forest Service Rd.102)"}, {"id": "11903890-96c3-4019-b526-6bb0eea6c08c", "name": "Barona Brewing Company", "brewery_type": "micro", "address_1": "EM1036-1 2", "address_2": null, "address_3": null, "city": "Santo Ant\u00f3nio das Areias", "state_province": "Portalegre", "postal_code": "7330-215", "country": "Portugal", "longitude": "-7.337693604727156", "latitude": "39.43767892561163", "phone": "+351 21 468 2661", "website_url": "https://www.cervejabarona.pt/", "state": "Portalegre", "street": "EM1036-1 2"}, {"id": "3a2f762e-be48-4caf-ba77-d9253f50182a", "name": "Barrage Brewing Co", "brewery_type": "micro", "address_1": "32 Allen Blvd Ste E", "address_2": null, "address_3": null, "city": "Farmingdale", "state_province": "New York", "postal_code": "11735-5625", "country": "United States", "longitude": null, "latitude": null, "phone": "6313357941", "website_url": "http://www.barragebrewing.com", "state": "New York", "street": "32 Allen Blvd Ste E"}, {"id": "225795a5-5470-4864-99f9-6310f40bb4bb", "name": "Barrel 41 Brewing Co", "brewery_type": "brewpub", "address_1": "1132 S. Commercial St.", "address_2": null, "address_3": null, "city": "Neenah", "state_province": "Wisconsin", "postal_code": "54956", "country": "United States", "longitude": "-88.4642861", "latitude": "44.16805", "phone": "9205584021", "website_url": "https://www.barrel41.com/", "state": "Wisconsin", "street": "1132 S. Commercial St."}, {"id": "4fc60749-c0d0-4f94-ab92-e5bf566d455e", "name": "Barrel and Beam", "brewery_type": "micro", "address_1": "260 Northwoods RD", "address_2": null, "address_3": null, "city": "Marquette", "state_province": "Michigan", "postal_code": "49855", "country": "United States", "longitude": "-87.4722168", "latitude": "46.54578", "phone": "9062732559", "website_url": "http://www.barrelandbeam.com", "state": "Michigan", "street": "260 Northwoods RD"}, {"id": "d605f25e-f132-4c42-94cb-0ec7fc4fe50c", "name": "Barrel Assembly", "brewery_type": "planning", "address_1": null, "address_2": null, "address_3": null, "city": "Austin", "state_province": "Texas", "postal_code": "78751-3019", "country": "United States", "longitude": null, "latitude": null, "phone": "15124236579", "website_url": "http://www.barrelassembly.com", "state": "Texas", "street": null}, {"id": "75a66bb0-838f-4e86-adca-03c784fbda72", "name": "Barrel Brothers Brewing Company, LLC", "brewery_type": "micro", "address_1": "399 Business Park Ct. #506", "address_2": null, "address_3": null, "city": "Windsor", "state_province": "California", "postal_code": "95492", "country": "United States", "longitude": "-122.784706", "latitude": "38.52824916", "phone": "7076969487", "website_url": "http://www.barrelbrothersbrewing.com", "state": "California", "street": "399 Business Park Ct. #506"}, {"id": "0a857a91-0b76-4850-9594-08938b756d99", "name": "Barrel Culture Brewing And Blending", "brewery_type": "proprietor", "address_1": "4913 S Alston Ave", "address_2": null, "address_3": null, "city": "Durham", "state_province": "North Carolina", "postal_code": "27713-4424", "country": "United States", "longitude": "-78.88891655", "latitude": "35.89445737", "phone": null, "website_url": null, "state": "North Carolina", "street": "4913 S Alston Ave"}, {"id": "2907b143-57b4-49ec-aa41-07df64d1e14b", "name": "Barrel Dog Brewing", "brewery_type": "micro", "address_1": null, "address_2": null, "address_3": null, "city": "Evergreen", "state_province": "Colorado", "postal_code": "80439", "country": "United States", "longitude": "-105.321458", "latitude": "39.6361637", "phone": "5599176846", "website_url": null, "state": "Colorado", "street": null}, {"id": "c13feda5-f313-4dfb-be56-07cb89d5f090", "name": "Barrel Harbor Brewing Co.", "brewery_type": "micro", "address_1": "2575 Pioneer Ave Ste 104", "address_2": null, "address_3": null, "city": "Vista", "state_province": "California", "postal_code": "92081-8450", "country": "United States", "longitude": "-117.221385", "latitude": "33.14879", "phone": "7607343949", "website_url": "http://www.barrelharborbrewing.com", "state": "California", "street": "2575 Pioneer Ave Ste 104"}, {"id": "26615b1f-85a5-425c-bfc9-3ed0422329db", "name": "Barrel Head Brewhouse", "brewery_type": "brewpub", "address_1": "1785 Fulton St", "address_2": null, "address_3": null, "city": "San Francisco", "state_province": "California", "postal_code": "94117-1202", "country": "United States", "longitude": "-122.4461033", "latitude": "37.77576514", "phone": "4154166989", "website_url": "http://www.barrelheadsf.com", "state": "California", "street": "1785 Fulton St"}, {"id": "2949226a-b599-4e47-9c00-5e19012dd22b", "name": "Barrel House Z", "brewery_type": "micro", "address_1": "95 Woodrock Rd", "address_2": null, "address_3": null, "city": "Weymouth", "state_province": "Massachusetts", "postal_code": "02189-2335", "country": "United States", "longitude": null, "latitude": null, "phone": "3392017888", "website_url": "http://www.barrelhousez.net", "state": "Massachusetts", "street": "95 Woodrock Rd"}, {"id": "c7d72e4c-452f-4218-a12d-f14abd400565", "name": "Barrel Mountain Brewing", "brewery_type": "micro", "address_1": "607 E Main St", "address_2": null, "address_3": null, "city": "Battle Ground", "state_province": "Washington", "postal_code": "98604-4887", "country": "United States", "longitude": "-122.5309307", "latitude": "45.7808639", "phone": "3603428111", "website_url": "http://www.barrelmountainbrewing.com", "state": "Washington", "street": "607 E Main St"}, {"id": "60a0a684-e559-4865-ac34-561f9a0affeb", "name": "Barrel Oak Farm Taphouse", "brewery_type": "micro", "address_1": "3623 Grove Ln", "address_2": null, "address_3": null, "city": "Delaplane", "state_province": "Virginia", "postal_code": "20144-2226", "country": "United States", "longitude": null, "latitude": null, "phone": "5403646402", "website_url": "http://www.barreloak.com", "state": "Virginia", "street": "3623 Grove Ln"}, {"id": "4eb9962b-708d-4221-9eee-f68e2abead7a", "name": "Barrel of Monks Brewing", "brewery_type": "micro", "address_1": "1141 S Rogers Cir Ste 5", "address_2": null, "address_3": null, "city": "Boca Raton", "state_province": "Florida", "postal_code": "33487-2789", "country": "United States", "longitude": null, "latitude": null, "phone": "5615101253", "website_url": "http://www.barrelofmonks.com", "state": "Florida", "street": "1141 S Rogers Cir Ste 5"}, {"id": "e11f74dd-00c9-4b81-b284-879dc08f3132", "name": "Barrel Theory Beer Company", "brewery_type": "micro", "address_1": "248 7th St E", "address_2": null, "address_3": null, "city": "Saint Paul", "state_province": "Minnesota", "postal_code": "55101-2349", "country": "United States", "longitude": "-93.08803482", "latitude": "44.95106551", "phone": "6516003422", "website_url": "http://www.barreltheory.com", "state": "Minnesota", "street": "248 7th St E"}, {"id": "6ea2ecc3-d933-4c8d-852c-f20db3b19976", "name": "Barreled Souls Brewing Company LLC", "brewery_type": "micro", "address_1": "743 Portland Rd", "address_2": null, "address_3": null, "city": "Saco", "state_province": "Maine", "postal_code": "04072-9005", "country": "United States", "longitude": "-70.405728", "latitude": "43.553358", "phone": "2076026439", "website_url": "http://www.barreledsouls.com", "state": "Maine", "street": "743 Portland Rd"}, {"id": "9bf73e25-63d1-48df-a3b8-f916d9f9edeb", "name": "Barrelhead Brewery", "brewery_type": "micro", "address_1": "2 Fairview Strand", "address_2": "Ballybough", "address_3": "Dublin 3", "city": "Dublin", "state_province": "Dublin", "postal_code": "D03 R8P3", "country": "Ireland", "longitude": "-6.2400171", "latitude": "53.3625745", "phone": "353879900914", "website_url": "https://barrelheadbrewery.com/", "state": "Dublin", "street": "2 Fairview Strand"}, {"id": "fcac3d27-e6e5-4249-821b-15a0306895bb", "name": "Barrelhouse Brewing", "brewery_type": "micro", "address_1": "3055 Limestone Way", "address_2": null, "address_3": null, "city": "Paso Robles", "state_province": "California", "postal_code": "93446-5988", "country": "United States", "longitude": "-120.6911529", "latitude": "35.5762216", "phone": "8052961128", "website_url": "http://www.barrelhousebrewing.com", "state": "California", "street": "3055 Limestone Way"}, {"id": "ace9df76-b786-4d17-9be9-33a009f48ba2", "name": "Barrels & Bottles Brewery", "brewery_type": "brewpub", "address_1": "600 12th St Ste 160", "address_2": null, "address_3": null, "city": "Golden", "state_province": "Colorado", "postal_code": "80401-6145", "country": "United States", "longitude": "-105.2202098", "latitude": "39.7562107", "phone": "7203283643", "website_url": "http://www.barrelsbottles.com", "state": "Colorado", "street": "600 12th St Ste 160"}, {"id": "a6704545-a3ff-4e4d-a458-90979968fe1c", "name": "Barrier Brewing Co", "brewery_type": "micro", "address_1": "3001 New St Ste A2", "address_2": null, "address_3": null, "city": "Oceanside", "state_province": "New York", "postal_code": "11572-2747", "country": "United States", "longitude": null, "latitude": null, "phone": "5165941028", "website_url": "http://www.barrierbrewing.com", "state": "New York", "street": "3001 New St Ste A2"}, {"id": "d92bd59c-e6ad-4311-90a0-ff2c7fa721ee", "name": "Barrington Brewery and Restaurant", "brewery_type": "brewpub", "address_1": "420 Stockbridge Rd Ste 4", "address_2": null, "address_3": null, "city": "Great Barrington", "state_province": "Massachusetts", "postal_code": "01230-9512", "country": "United States", "longitude": null, "latitude": null, "phone": "4135288282", "website_url": "http://www.barringtonbrewery.net", "state": "Massachusetts", "street": "420 Stockbridge Rd Ste 4"}, {"id": "01f591c5-3a87-4685-af4f-c4e9fccb3a47", "name": "Barrio Brewing Co", "brewery_type": "micro", "address_1": "800 E 16th St", "address_2": null, "address_3": null, "city": "Tucson", "state_province": "Arizona", "postal_code": "85719-6603", "country": "United States", "longitude": "-110.959665", "latitude": "32.214613", "phone": "5207912739", "website_url": "http://www.barriobrewing.co", "state": "Arizona", "street": "800 E 16th St"}, {"id": "8000063a-f3ac-41e0-8c1d-ad58ba3ad562", "name": "Barrow Brewing Company", "brewery_type": "micro", "address_1": "108 Royal St", "address_2": null, "address_3": null, "city": "Salado", "state_province": "Texas", "postal_code": "76571", "country": "United States", "longitude": "-97.53703133", "latitude": "30.94295989", "phone": "2549473544", "website_url": "http://www.barrowbrewing.com", "state": "Texas", "street": "108 Royal St"}, {"id": "ed597116-57e6-472c-8cd1-41d2915d6544", "name": "Barsideous Brewing Co", "brewery_type": "brewpub", "address_1": "644 S Main St", "address_2": null, "address_3": null, "city": "Lebanon", "state_province": "Oregon", "postal_code": "97355-3337", "country": "United States", "longitude": "-122.9070824", "latitude": "44.5247777", "phone": "5415701789", "website_url": "http://www.barsideousbrewing.com", "state": "Oregon", "street": "644 S Main St"}, {"id": "481b46b4-5731-45cb-a1b9-f773c55b8372", "name": "Bartlett Hall", "brewery_type": "brewpub", "address_1": "242 Ofarrell St", "address_2": null, "address_3": null, "city": "San Francisco", "state_province": "California", "postal_code": "94102-2119", "country": "United States", "longitude": "-122.4087293", "latitude": "37.78640638", "phone": "4154334332", "website_url": "http://www.bartletthall.com", "state": "California", "street": "242 Ofarrell St"}, {"id": "d73def5b-b039-4331-98b7-d84bd8a18a64", "name": "Bascule Brewery And Public House", "brewery_type": "micro", "address_1": "1397 Colorado Ave", "address_2": null, "address_3": null, "city": "Lorain", "state_province": "Ohio", "postal_code": "44052-3377", "country": "United States", "longitude": "-82.15710792", "latitude": "41.46560548", "phone": null, "website_url": "http://www.basculebrewingcompany.com", "state": "Ohio", "street": "1397 Colorado Ave"}, {"id": "c4e818fa-6abc-440b-bdb5-c8172bb5fbd8", "name": "Base Camp Brewing Co", "brewery_type": "micro", "address_1": "930 SE Oak St", "address_2": null, "address_3": null, "city": "Portland", "state_province": "Oregon", "postal_code": "97214-1307", "country": "United States", "longitude": "-122.6561108", "latitude": "45.5198818", "phone": "5034777479", "website_url": "http://www.basecampbrewingco.com", "state": "Oregon", "street": "930 SE Oak St"}, {"id": "4a9101f6-a7eb-461c-95c9-a0ce6bffdaeb", "name": "Basement Brewers of Texas", "brewery_type": "micro", "address_1": "521 Clay St", "address_2": null, "address_3": null, "city": "Kerrville", "state_province": "Texas", "postal_code": "78028-4525", "country": "United States", "longitude": "-99.1392822", "latitude": "30.05042839", "phone": "8309555073", "website_url": "http://www.basementbrewersoftexas.com", "state": "Texas", "street": "521 Clay St"}, {"id": "c9df8aa5-3a45-42fb-bac7-731e8aed32cb", "name": "Basic City Beer Co.", "brewery_type": "micro", "address_1": "1010 E Main St", "address_2": null, "address_3": null, "city": "Waynesboro", "state_province": "Virginia", "postal_code": "22980-5855", "country": "United States", "longitude": "-78.87398588", "latitude": "38.0644451", "phone": "8162713211", "website_url": "http://www.basiccitybeer.com", "state": "Virginia", "street": "1010 E Main St"}, {"id": "1e03e945-7418-4d87-9e61-ca95542a4580", "name": "Basic City Beer Co. (Southside RVA)", "brewery_type": "micro", "address_1": "212 W 6th St", "address_2": null, "address_3": null, "city": "Richmond", "state_province": "Virginia", "postal_code": "23224", "country": "United States", "longitude": null, "latitude": null, "phone": "8044474735", "website_url": "https://www.basiccitybeer.com/rva-map", "state": "Virginia", "street": "212 W 6th St"}, {"id": "4d515475-dfce-446d-bf21-62a12a4021c3", "name": "Basket Case Brewing Co", "brewery_type": "brewpub", "address_1": "1340 Mill St", "address_2": null, "address_3": null, "city": "Jasper", "state_province": "Indiana", "postal_code": "47546-2310", "country": "United States", "longitude": "-86.92850063", "latitude": "38.39736355", "phone": "8124824345", "website_url": "http://www.basketcasebeer.com", "state": "Indiana", "street": "1340 Mill St"}, {"id": "66e4ffa1-88da-4a41-8bf3-fea86dbcaada", "name": "Bastard Brothers Brewing Company", "brewery_type": "micro", "address_1": "2114 Penta Dr", "address_2": null, "address_3": null, "city": "High Ridge", "state_province": "Missouri", "postal_code": "63049-2684", "country": "United States", "longitude": "-90.503349", "latitude": "38.48282", "phone": "3145203401", "website_url": "http://www.bastardbrothersbrewery.com", "state": "Missouri", "street": "2114 Penta Dr"}, {"id": "469e0667-cecc-4e07-b27c-443a187baf51", "name": "Bastet Brewing", "brewery_type": "planning", "address_1": null, "address_2": null, "address_3": null, "city": "Tampa", "state_province": "Florida", "postal_code": "33613-1254", "country": "United States", "longitude": null, "latitude": null, "phone": null, "website_url": "http://www.bastetbrewing.com", "state": "Florida", "street": null}, {"id": "52f98458-5a40-43bc-88f7-f6dbc6b4cc95", "name": "Bastion Brewing Company", "brewery_type": "brewpub", "address_1": "12529 Christianson Rd", "address_2": null, "address_3": null, "city": "Anacortes", "state_province": "Washington", "postal_code": "98221-8682", "country": "United States", "longitude": "-122.5708729", "latitude": "48.46080506", "phone": "3603991614", "website_url": "http://www.bastionbrewingcompany.com", "state": "Washington", "street": "12529 Christianson Rd"}, {"id": "e48f036b-e371-4e7e-b78f-08a976dc26db", "name": "Bastone Brewery", "brewery_type": "brewpub", "address_1": "419 S Main St", "address_2": null, "address_3": null, "city": "Royal Oak", "state_province": "Michigan", "postal_code": "48067-2615", "country": "United States", "longitude": "-83.1440578", "latitude": "42.4836283", "phone": "2485446250", "website_url": "http://www.bastone.net/br/bastone-brewery", "state": "Michigan", "street": "419 S Main St"}, {"id": "e9ce69e2-13cf-48bd-81e2-10235db692aa", "name": "Batch Brewing Co", "brewery_type": "brewpub", "address_1": "1400 Porter St", "address_2": null, "address_3": null, "city": "Detroit", "state_province": "Michigan", "postal_code": "48216-1934", "country": "United States", "longitude": "-83.088689", "latitude": "42.3184806", "phone": "3133388008", "website_url": "http://www.BatchBrewingCompany.com", "state": "Michigan", "street": "1400 Porter St"}, {"id": "a0fe534d-c9f1-4232-88cd-b918d16952d8", "name": "Batch Craft Beer and Kolaches", "brewery_type": "planning", "address_1": null, "address_2": null, "address_3": null, "city": "Austin", "state_province": "Texas", "postal_code": "78723", "country": "United States", "longitude": null, "latitude": null, "phone": "5124013025", "website_url": "http://www.batchatx.com", "state": "Texas", "street": null}, {"id": "b9371de8-5c61-41c2-b2dd-9d4f5fd6eae7", "name": "Bath Brewing Company", "brewery_type": "brewpub", "address_1": "141 Front St", "address_2": null, "address_3": null, "city": "Bath", "state_province": "Maine", "postal_code": "04530", "country": "United States", "longitude": "-69.81414593", "latitude": "43.91408541", "phone": "2075603389", "website_url": "http://www.bathbrewing.com", "state": "Maine", "street": "141 Front St"}, {"id": "7166c5a7-c772-44de-b0e1-fea41d5b4368", "name": "Bathtub Row Brewing Co-op", "brewery_type": "micro", "address_1": "163 Central Park Sq", "address_2": null, "address_3": null, "city": "Los Alamos", "state_province": "New Mexico", "postal_code": "87544-4029", "country": "United States", "longitude": "-106.3007594", "latitude": "35.8839054", "phone": "5055008381", "website_url": null, "state": "New Mexico", "street": "163 Central Park Sq"}, {"id": "8fa5ceba-e668-479e-9eb6-792be566eff2", "name": "Battered Boar Brewing Co", "brewery_type": "micro", "address_1": "14700 Metro Plaza Blvd Ste F", "address_2": null, "address_3": null, "city": "Edmond", "state_province": "Oklahoma", "postal_code": "73013-1991", "country": "United States", "longitude": "-97.50849", "latitude": "35.619996", "phone": "4052545000", "website_url": "http://www.batteredboar.com", "state": "Oklahoma", "street": "14700 Metro Plaza Blvd Ste F"}, {"id": "5d9e917f-4b58-41bf-9acb-a4d06fcacba5", "name": "Battery Steele Brewing", "brewery_type": "micro", "address_1": "1 Industrial Way Ste 12", "address_2": null, "address_3": null, "city": "Portland", "state_province": "Maine", "postal_code": "04103-1072", "country": "United States", "longitude": null, "latitude": null, "phone": null, "website_url": "http://www.batterysteele.com", "state": "Maine", "street": "1 Industrial Way Ste 12"}, {"id": "b630a613-c4e9-4d35-a437-beef57df6fd7", "name": "Battle Born\u00c2\u00ae Beer", "brewery_type": "contract", "address_1": "100 N Arlington Ave Ste 100", "address_2": null, "address_3": null, "city": "Reno", "state_province": "Nevada", "postal_code": "89501-1233", "country": "United States", "longitude": null, "latitude": null, "phone": "8183173128", "website_url": "http://battleborn.beer", "state": "Nevada", "street": "100 N Arlington Ave Ste 100"}, {"id": "ef48afa5-9ac1-439c-851d-0fb04b43786f", "name": "Battle Brewery", "brewery_type": "micro", "address_1": "North Trade Road", "address_2": null, "address_3": null, "city": "Battle", "state_province": "East Sussex", "postal_code": "TN33 0HN", "country": "England", "longitude": "0.457425", "latitude": "50.916346", "phone": "1424772838", "website_url": "http://battlebrewery.co.uk/", "state": "East Sussex", "street": "North Trade Road"}, {"id": "ee894df8-970e-4fcd-96fd-56a385f03aab", "name": "Battle Hill Brewing Company", "brewery_type": "micro", "address_1": "4 Charles Street", "address_2": null, "address_3": null, "city": "Fort Ann", "state_province": "New York", "postal_code": "12827", "country": "United States", "longitude": "-73.48739346", "latitude": "43.41676935", "phone": "5186391033", "website_url": "http://www.battlehillbrewing.com", "state": "New York", "street": "4 Charles Street"}, {"id": "bbacaa05-6e27-4383-8e2d-f36e3f52b8d5", "name": "Battle Road Brewing Co", "brewery_type": "micro", "address_1": "5 Clock Tower Pl", "address_2": null, "address_3": null, "city": "Maynard", "state_province": "Massachusetts", "postal_code": "01754-2530", "country": "United States", "longitude": "-71.45416113", "latitude": "42.43001225", "phone": "9782985229", "website_url": "http://www.battleroadbh.com", "state": "Massachusetts", "street": "5 Clock Tower Pl"}, {"id": "b5857838-ef52-47ed-b4e4-849a321374eb", "name": "Battlefield Brew Works", "brewery_type": "brewpub", "address_1": "248 Hunterstown Rd", "address_2": null, "address_3": null, "city": "Gettysburg", "state_province": "Pennsylvania", "postal_code": "17325-7840", "country": "United States", "longitude": null, "latitude": null, "phone": "7173982907", "website_url": "http://www.battlefieldbrewworks.com", "state": "Pennsylvania", "street": "248 Hunterstown Rd"}, {"id": "aa5a338a-a6ac-46d1-9fb1-d376df65e0bb", "name": "Battlefield Brewing Co", "brewery_type": "brewpub", "address_1": "4187 Plank Rd", "address_2": null, "address_3": null, "city": "Fredericksburg", "state_province": "Virginia", "postal_code": "22407-4896", "country": "United States", "longitude": null, "latitude": null, "phone": "5407852164", "website_url": null, "state": "Virginia", "street": "4187 Plank Rd"}, {"id": "cbe608f9-a825-478c-bdab-ef2359ab53c5", "name": "BattleHops Brewing", "brewery_type": "planning", "address_1": null, "address_2": null, "address_3": null, "city": "Katy", "state_province": "Texas", "postal_code": "77494", "country": "United States", "longitude": null, "latitude": null, "phone": "8323245284", "website_url": "http://www.battlehopsbrewing.com", "state": "Texas", "street": null}, {"id": "a3d48843-21ee-44be-9f51-d83784bf12f7", "name": "Battlemage Brewing Co", "brewery_type": "micro", "address_1": "2870 Scott St Ste 102", "address_2": null, "address_3": null, "city": "Vista", "state_province": "California", "postal_code": "92081-8556", "country": "United States", "longitude": "-117.227634", "latitude": "33.140153", "phone": "7602166425", "website_url": "http://www.battlemagebrewing.com", "state": "California", "street": "2870 Scott St Ste 102"}, {"id": "45bf9811-0d89-40c3-a020-2d2638a0c932", "name": "Bauhaus Brew Labs", "brewery_type": "micro", "address_1": "1315 Tyler St NE", "address_2": null, "address_3": null, "city": "Minneapolis", "state_province": "Minnesota", "postal_code": "55413-1530", "country": "United States", "longitude": "-93.237365", "latitude": "45.042082", "phone": "6122976911", "website_url": "http://bauhausbrewlabs.com", "state": "Minnesota", "street": "1315 Tyler St NE"}, {"id": "e5b27570-2203-47b4-b92a-92e8eb46a4f8", "name": "Bavarian Bierhaus", "brewery_type": "brewpub", "address_1": "700 W Lexington Blvd", "address_2": null, "address_3": null, "city": "Glendale", "state_province": "Wisconsin", "postal_code": "53217-4912", "country": "United States", "longitude": "-87.91923009", "latitude": "43.11415845", "phone": "4142367000", "website_url": "http://www.thebavarianbierhaus.com", "state": "Wisconsin", "street": "700 W Lexington Blvd"}, {"id": "f5d36db3-999a-49b8-84e0-7416f86bd23a", "name": "Bavarian Brothers Brewing", "brewery_type": "brewpub", "address_1": "164 Shepherd Grade Rd", "address_2": null, "address_3": null, "city": "Shepherdstown", "state_province": "West Virginia", "postal_code": "25443-4601", "country": "United States", "longitude": "-77.804886", "latitude": "39.436699", "phone": "3048762551", "website_url": null, "state": "West Virginia", "street": "164 Shepherd Grade Rd"}, {"id": "9c9033e3-8657-4d05-af18-5bc1d3077810", "name": "Bawden Street Brewing Company", "brewery_type": "micro", "address_1": "325 Bawden St", "address_2": null, "address_3": null, "city": "Ketchikan", "state_province": "Alaska", "postal_code": "99901", "country": "United States", "longitude": "-131.644822", "latitude": "55.34321", "phone": "9072254722", "website_url": "https://www.facebook.com/bawdenstreetbrewing", "state": "Alaska", "street": "325 Bawden St"}, {"id": "8fb49b63-7bf4-489e-ab18-bf77a99dfc34", "name": "Baxter Brewing Co, LLC", "brewery_type": "regional", "address_1": "130 Mill St", "address_2": null, "address_3": null, "city": "Lewiston", "state_province": "Maine", "postal_code": "04240-7774", "country": "United States", "longitude": "-70.219607", "latitude": "44.09567728", "phone": "2073336769", "website_url": "http://www.baxterbrewing.com", "state": "Maine", "street": "130 Mill St"}, {"id": "b39a23d8-56f2-48a3-b505-3f460935ec54", "name": "Bay Brewing Company", "brewery_type": "planning", "address_1": null, "address_2": null, "address_3": null, "city": "Miami", "state_province": "Florida", "postal_code": "33130-3488", "country": "United States", "longitude": null, "latitude": null, "phone": "18134763767", "website_url": null, "state": "Florida", "street": null}, {"id": "decc7931-94cf-4acb-badc-4b3ab00736be", "name": "Bay Bridge Brewing Co", "brewery_type": "micro", "address_1": "688 Marsat Ct Ste B", "address_2": null, "address_3": null, "city": "Chula Vista", "state_province": "California", "postal_code": "91911-4697", "country": "United States", "longitude": "-117.0830312", "latitude": "32.601264", "phone": "6199347371", "website_url": "http://www.baybridgebrewing.com", "state": "California", "street": "688 Marsat Ct Ste B"}, {"id": "ee153c57-00c1-4321-8ae7-473a3cb65fa2", "name": "Bay City Brewing Co.", "brewery_type": "micro", "address_1": "3760 Hancock St", "address_2": null, "address_3": null, "city": "San Diego", "state_province": "California", "postal_code": "92110", "country": "United States", "longitude": "-117.2117833", "latitude": "32.7580759", "phone": "6197274926", "website_url": "http://www.baycitybrewingco.com", "state": "California", "street": "3760 Hancock St"}, {"id": "eb869777-2904-4e42-bff5-c3251b88735a", "name": "Bay State Beer Company", "brewery_type": "micro", "address_1": null, "address_2": null, "address_3": null, "city": "Sturbridge", "state_province": "Massachusetts", "postal_code": "01566-1568", "country": "United States", "longitude": null, "latitude": null, "phone": "6174130939", "website_url": "http://www.baystatebeer.com", "state": "Massachusetts", "street": null}, {"id": "ee95babd-8312-4f94-8c5a-a411c1dbd999", "name": "Bayern Brewing Inc.", "brewery_type": "micro", "address_1": "1507 Montana St", "address_2": null, "address_3": null, "city": "Missoula", "state_province": "Montana", "postal_code": "59801-1409", "country": "United States", "longitude": "-114.0202088", "latitude": "46.8725952", "phone": "4067211482", "website_url": "http://www.bayernbrewery.com", "state": "Montana", "street": "1507 Montana St"}, {"id": "fa0b9910-a718-4a33-ace8-59e9def925f6", "name": "Bayonet Cider Company", "brewery_type": "planning", "address_1": null, "address_2": null, "address_3": null, "city": "Pittsburgh", "state_province": "Pennsylvania", "postal_code": "15206-5111", "country": "United States", "longitude": null, "latitude": null, "phone": "5134841943", "website_url": null, "state": "Pennsylvania", "street": null}, {"id": "faabb5c6-fc44-4300-84cd-66f8af67e8fd", "name": "Bayou Teche Brewing", "brewery_type": "micro", "address_1": "1094 Bushville Hwy", "address_2": null, "address_3": null, "city": "Arnaudville", "state_province": "Louisiana", "postal_code": "70512-3526", "country": "United States", "longitude": null, "latitude": null, "phone": "3373038117", "website_url": "http://www.bayoutechebrewing.com", "state": "Louisiana", "street": "1094 Bushville Hwy"}, {"id": "b6a77bad-f595-40f7-9741-ed4c63d804e1", "name": "BBGB Brewery And Hop Farm", "brewery_type": "brewpub", "address_1": "2000 Orchard Rd", "address_2": null, "address_3": null, "city": "North Aurora", "state_province": "Illinois", "postal_code": "60542-1674", "country": "United States", "longitude": null, "latitude": null, "phone": "8479093072", "website_url": "http://www.eathardware.com/", "state": "Illinois", "street": "2000 Orchard Rd"}, {"id": "a30cdbff-d7d7-48b2-8aa1-90a25758ad02", "name": "BDD Brewing Company", "brewery_type": "micro", "address_1": "1147 Falls Rd Ste 107", "address_2": null, "address_3": null, "city": "Rocky Mount", "state_province": "North Carolina", "postal_code": "27804", "country": "United States", "longitude": "-77.80208267", "latitude": "35.958026", "phone": "9196327551", "website_url": null, "state": "North Carolina", "street": "1147 Falls Rd Ste 107"}, {"id": "ad77c6d8-4801-47a3-b9a2-28cb708ba512", "name": "Beach Cat Brewing", "brewery_type": "micro", "address_1": "7876 Birch Bay Dr #101", "address_2": null, "address_3": null, "city": "Blaine", "state_province": "Washington", "postal_code": "98230", "country": "United States", "longitude": "-122.7447863", "latitude": "48.92831088", "phone": "3603668065", "website_url": "https://beachcatbrewing.com", "state": "Washington", "street": "7876 Birch Bay Dr #101"}, {"id": "0585bea4-0b4b-4933-9770-df4c124618c7", "name": "Beach Chalet Brewing Co", "brewery_type": "brewpub", "address_1": "1000 Great Hwy", "address_2": null, "address_3": null, "city": "San Francisco", "state_province": "California", "postal_code": "94121-3268", "country": "United States", "longitude": "-122.502981", "latitude": "37.7252994", "phone": "4153868439", "website_url": "http://www.beachchalet.com", "state": "California", "street": "1000 Great Hwy"}, {"id": "2ba06f5f-f88d-472c-a281-cea7f32c7d36", "name": "Beach Grease Beer Company", "brewery_type": "micro", "address_1": "1280 Activity Dr Ste B", "address_2": null, "address_3": null, "city": "Vista", "state_province": "California", "postal_code": "92081", "country": "United States", "longitude": "-117.219665", "latitude": "33.14225042", "phone": null, "website_url": "http://www.beachgreasebeerco.com", "state": "California", "street": "1280 Activity Dr Ste B"}, {"id": "864c6024-1ead-484f-9a4c-71572c000060", "name": "Beach Haus Brewery", "brewery_type": "micro", "address_1": "801 Main St", "address_2": null, "address_3": null, "city": "Belmar", "state_province": "New Jersey", "postal_code": "07719-2705", "country": "United States", "longitude": "-74.0251959", "latitude": "40.1812131", "phone": "7322027782", "website_url": "http://Www.beachhausbeer.com", "state": "New Jersey", "street": "801 Main St"}, {"id": "827042d6-0920-484e-94ae-6f8ef520cd74", "name": "BeachFly Brewing Company", "brewery_type": "planning", "address_1": null, "address_2": null, "address_3": null, "city": "Indian Harbour Beach", "state_province": "Florida", "postal_code": "32937", "country": "United States", "longitude": null, "latitude": null, "phone": "3214124900", "website_url": null, "state": "Florida", "street": null}, {"id": "4f5f6278-99db-45cf-9ed3-72744cd475d4", "name": "Beachside Brew Pub", "brewery_type": "micro", "address_1": "1368 Ocean Shore Blvd", "address_2": null, "address_3": null, "city": "Ormond Beach", "state_province": "Florida", "postal_code": "32176-3630", "country": "United States", "longitude": "-81.057048", "latitude": "29.326634", "phone": "3868465143", "website_url": "http://www.beachsidebrewpub.com", "state": "Florida", "street": "1368 Ocean Shore Blvd"}, {"id": "dfefae25-ded6-4109-b6ed-e494a393dc07", "name": "Beachwood BBQ & Brewing", "brewery_type": "brewpub", "address_1": "210 E 3rd St Ste A", "address_2": null, "address_3": null, "city": "Long Beach", "state_province": "California", "postal_code": "90802-3197", "country": "United States", "longitude": "-118.1909007", "latitude": "33.77017138", "phone": "5624364020", "website_url": "http://www.beachwoodbbq.com", "state": "California", "street": "210 E 3rd St Ste A"}, {"id": "8a7df4b6-5ea6-4ca2-bb72-8b9813cb1e62", "name": "Beachwood Blendery", "brewery_type": "micro", "address_1": "247 Long Beach Blvd", "address_2": null, "address_3": null, "city": "Long Beach", "state_province": "California", "postal_code": "90802-3136", "country": "United States", "longitude": "-118.1894715", "latitude": "33.77015096", "phone": null, "website_url": "http://beachwoodbbq.com/blendery.html", "state": "California", "street": "247 Long Beach Blvd"}, {"id": "67b706ab-6f63-4178-a09c-fdd2119b6b32", "name": "Beachwood Brewing", "brewery_type": "micro", "address_1": "7631 Woodwind Dr Ste B", "address_2": null, "address_3": null, "city": "Huntington Beach", "state_province": "California", "postal_code": "92647-7117", "country": "United States", "longitude": "-117.9953281", "latitude": "33.70446704", "phone": "5103269575", "website_url": "http://www.beachwoodbbq.com", "state": "California", "street": "7631 Woodwind Dr Ste B"}, {"id": "8f3af559-423d-42c8-903e-fe45750307cb", "name": "Beale St Brewing Co", "brewery_type": "planning", "address_1": null, "address_2": null, "address_3": null, "city": "Memphis", "state_province": "Tennessee", "postal_code": "38104-6826", "country": "United States", "longitude": null, "latitude": null, "phone": "9014917197", "website_url": "http://www.bealestbrewing.com", "state": "Tennessee", "street": null}, {"id": "797a05a9-52b7-4d53-b0fe-f89237eaffc5", "name": "Beale's", "brewery_type": "brewpub", "address_1": "510 Grove St", "address_2": null, "address_3": null, "city": "Bedford", "state_province": "Virginia", "postal_code": "24523", "country": "United States", "longitude": "-79.51785", "latitude": "37.33585", "phone": null, "website_url": "http://www.bealesbeer.com", "state": "Virginia", "street": "510 Grove St"}, {"id": "81a41e48-68a4-4835-bf31-1d41fd16880a", "name": "Beamish and Crawford (Heineken)", "brewery_type": "large", "address_1": "Leitrim Street", "address_2": null, "address_3": null, "city": "Cork", "state_province": "Cork", "postal_code": "T23 VF78", "country": "Ireland", "longitude": "-8.4750739", "latitude": "51.9037117", "phone": "353214503371", "website_url": "http://beamish.ie/", "state": "Cork", "street": "Leitrim Street"}, {"id": "5703ac6f-9a97-4529-b62e-7034433e0636", "name": "Bear and Bramble Brewing Company", "brewery_type": "micro", "address_1": "10 Payson Ave # 1", "address_2": null, "address_3": null, "city": "Easthampton", "state_province": "Massachusetts", "postal_code": "01027-2207", "country": "United States", "longitude": null, "latitude": null, "phone": null, "website_url": null, "state": "Massachusetts", "street": "10 Payson Ave # 1"}, {"id": "70141f89-287c-496b-8379-bdef1a8f4d0d", "name": "Bear Bones Beer", "brewery_type": "micro", "address_1": "2 Cottage St Ste 1", "address_2": null, "address_3": null, "city": "Bridgton", "state_province": "Maine", "postal_code": "04009-1137", "country": "United States", "longitude": null, "latitude": null, "phone": "2076478000", "website_url": null, "state": "Maine", "street": "2 Cottage St Ste 1"}, {"id": "25a5fef8-192f-4cd3-95b2-9d0a903354f5", "name": "Bear Bones Beer", "brewery_type": "micro", "address_1": "43 Lisbon St", "address_2": null, "address_3": null, "city": "Lewiston", "state_province": "Maine", "postal_code": "04240-7115", "country": "United States", "longitude": "-70.09605519", "latitude": "44.02012732", "phone": "2072001324", "website_url": "http://www.bearbonesbeer.com", "state": "Maine", "street": "43 Lisbon St"}, {"id": "09e6754a-6a78-486d-8baf-e47ea63612f7", "name": "Bear Chase Brewing Company", "brewery_type": "planning", "address_1": null, "address_2": null, "address_3": null, "city": "Bluemont", "state_province": "Virginia", "postal_code": "20135", "country": "United States", "longitude": null, "latitude": null, "phone": null, "website_url": null, "state": "Virginia", "street": null}, {"id": "c682b36a-29b9-429f-b109-e75251bb6cd8", "name": "Bear Creek Brews", "brewery_type": "micro", "address_1": "10538 Nc 902 Hwy", "address_2": null, "address_3": null, "city": "Bear Creek", "state_province": "North Carolina", "postal_code": "27207-9269", "country": "United States", "longitude": null, "latitude": null, "phone": "9192003930", "website_url": "http://www.bearcreekbrews.com", "state": "North Carolina", "street": "10538 Nc 902 Hwy"}, {"id": "7ce869c5-a47a-4bab-ac9f-775ee05a0a2e", "name": "Bear Island Brewing Company", "brewery_type": "micro", "address_1": "1620 N Liberty St", "address_2": null, "address_3": null, "city": "Boise", "state_province": "Idaho", "postal_code": "83704-7739", "country": "United States", "longitude": "-116.260854", "latitude": "43.620592", "phone": "2089082496", "website_url": "http://www.bearislandbrewing.com", "state": "Idaho", "street": "1620 N Liberty St"}, {"id": "c316f64a-b4d1-40f5-a5b3-65cc2498cbc5", "name": "Bear Republic Brewing Co", "brewery_type": "regional", "address_1": "345 Healdsburg Ave", "address_2": null, "address_3": null, "city": "Healdsburg", "state_province": "California", "postal_code": "95448-4105", "country": "United States", "longitude": "-122.8713046", "latitude": "38.6110317", "phone": "7074332337", "website_url": "http://www.bearrepublic.com", "state": "California", "street": "345 Healdsburg Ave"}, {"id": "13209af8-ee4b-40f6-8396-17ecb6ff09ff", "name": "Bear Republic Brewing Co - Production facility", "brewery_type": "regional", "address_1": "110 Sandholm Ln Ste 10", "address_2": null, "address_3": null, "city": "Cloverdale", "state_province": "California", "postal_code": "95425-4439", "country": "United States", "longitude": "-123.0108285", "latitude": "38.78169817", "phone": "7078942722", "website_url": "http://www.bearrepublic.com", "state": "California", "street": "110 Sandholm Ln Ste 10"}, {"id": "9d17cc50-aa5b-41a1-9aa7-2ae4dd82e743", "name": "Bear Republic Brewing Co Pub & Restaurant - Lakeside", "brewery_type": "brewpub", "address_1": "5000 Roberts Lake Rd", "address_2": null, "address_3": null, "city": "Rohnert Park", "state_province": "California", "postal_code": "94928", "country": "United States", "longitude": "-122.7101405", "latitude": "38.3649703", "phone": "7075852722", "website_url": "http://bearrepublic.com", "state": "California", "street": "5000 Roberts Lake Rd"}, {"id": "05d9957f-92a7-4616-baeb-9f85fa170f22", "name": "Bear Roots Brewing Company", "brewery_type": "micro", "address_1": "1213 S Santa Fe Ave", "address_2": null, "address_3": null, "city": "Vista", "state_province": "California", "postal_code": "92083-7230", "country": "United States", "longitude": "-117.226238", "latitude": "33.188251", "phone": "7607264204", "website_url": "http://www.bearrootsbrewing.com", "state": "California", "street": "1213 S Santa Fe Ave"}, {"id": "a24f319e-eb59-4658-b104-3437dbb34068", "name": "Beara Brewing Co.", "brewery_type": "micro", "address_1": "2800 Lafayette Rd", "address_2": null, "address_3": null, "city": "Portsmouth", "state_province": "New Hampshire", "postal_code": "03801-5915", "country": "United States", "longitude": "-70.790732", "latitude": "43.027935", "phone": "3475780585", "website_url": "http://www.bearairishbrew.com", "state": "New Hampshire", "street": "2800 Lafayette Rd"}, {"id": "cfd1342e-ac6e-4c57-9d5c-c120c6d7468b", "name": "Beard Engine Brewing Co", "brewery_type": "micro", "address_1": "208 Main St", "address_2": null, "address_3": null, "city": "Alba", "state_province": "Missouri", "postal_code": "64830", "country": "United States", "longitude": "-94.418276", "latitude": "37.248046", "phone": "4174830709", "website_url": null, "state": "Missouri", "street": "208 Main St"}, {"id": "3a8c6632-e9df-4d42-9adb-a2cb5c6863c8", "name": "Bearded Fox Brewing Co.", "brewery_type": "micro", "address_1": "11729 Spring Cypress Rd Ste R", "address_2": null, "address_3": null, "city": "Tomball", "state_province": "Texas", "postal_code": "77377-6063", "country": "United States", "longitude": null, "latitude": null, "phone": "8327617928", "website_url": "http://www.beardedfoxbrewing.com", "state": "Texas", "street": "11729 Spring Cypress Rd Ste R"}, {"id": "667547fa-dcf1-4b05-9f59-53c6c7a24847", "name": "Bearded Iris Brewing", "brewery_type": "micro", "address_1": "101 Van Buren St", "address_2": null, "address_3": null, "city": "Nashville", "state_province": "Tennessee", "postal_code": "37208-1719", "country": "United States", "longitude": "-86.786174", "latitude": "36.181424", "phone": "6159287988", "website_url": "http://www.beardedirisbrewing.com", "state": "Tennessee", "street": "101 Van Buren St"}, {"id": "6bece4ab-f1f5-487e-a326-150ee9487d0b", "name": "Bearded Owl Brewing", "brewery_type": "brewpub", "address_1": "112 State St Ste 1A", "address_2": null, "address_3": null, "city": "Peoria", "state_province": "Illinois", "postal_code": "61602-5121", "country": "United States", "longitude": null, "latitude": null, "phone": "3093601980", "website_url": null, "state": "Illinois", "street": "112 State St Ste 1A"}, {"id": "b4e2e758-52bb-4745-b36a-6732aae2a4c2", "name": "Beards Brewery", "brewery_type": "brewpub", "address_1": "215 E Lake St", "address_2": null, "address_3": null, "city": "Petoskey", "state_province": "Michigan", "postal_code": "49770-2415", "country": "United States", "longitude": "-84.95425838", "latitude": "45.37533801", "phone": "2317532221", "website_url": "http://www.beardsbrewery.com", "state": "Michigan", "street": "215 E Lake St"}, {"id": "882b9abc-a864-42f2-9cc3-f35286b0aaec", "name": "Beards Brewery Production Facility", "brewery_type": "micro", "address_1": "6328 Ferry Ave", "address_2": null, "address_3": null, "city": "Charlevoix", "state_province": "Michigan", "postal_code": "49720-9504", "country": "United States", "longitude": "-85.249116", "latitude": "45.304738", "phone": null, "website_url": null, "state": "Michigan", "street": "6328 Ferry Ave"}, {"id": "9ba20e75-2968-42ad-b08d-8241c134deeb", "name": "Beardslee Public House", "brewery_type": "brewpub", "address_1": "19116 Beardslee Blvd Ste 201", "address_2": null, "address_3": null, "city": "Bothell", "state_province": "Washington", "postal_code": "98011-0202", "country": "United States", "longitude": "-122.1914046", "latitude": "47.7663209", "phone": "4252861001", "website_url": "https://beardsleeph.com", "state": "Washington", "street": "19116 Beardslee Blvd Ste 201"}, {"id": "b534a072-f086-416b-bfce-3efdcba1784b", "name": "Bearpaw River Brewing Co", "brewery_type": "micro", "address_1": "4605 E Palmer Wasilla Hwy", "address_2": null, "address_3": null, "city": "Wasilla", "state_province": "Alaska", "postal_code": "99654-7679", "country": "United States", "longitude": "-149.4127103", "latitude": "61.5752695", "phone": null, "website_url": "http://bearpawriverbrewing.com", "state": "Alaska", "street": "4605 E Palmer Wasilla Hwy"}, {"id": "a2a4f05a-7e2d-4b7c-a22f-45f90db7d334", "name": "BearWaters Brewing Co", "brewery_type": "brewpub", "address_1": "101 Park St", "address_2": null, "address_3": null, "city": "Canton", "state_province": "North Carolina", "postal_code": "28716-4319", "country": "United States", "longitude": "-82.843001", "latitude": "35.53137", "phone": "8282734200", "website_url": "http://www.bwbrewing.com", "state": "North Carolina", "street": "101 Park St"}, {"id": "713bb4bb-a85b-490f-aae2-9d08fcdc094f", "name": "Beaver Beer Co", "brewery_type": "contract", "address_1": "307 Greens Farms Rd", "address_2": null, "address_3": null, "city": "Westport", "state_province": "Connecticut", "postal_code": "06880-6227", "country": "United States", "longitude": "-73.311685", "latitude": "41.12587", "phone": null, "website_url": "http://www.beaverbeer.com", "state": "Connecticut", "street": "307 Greens Farms Rd"}, {"id": "571e446c-b17d-40ba-98b1-a60daa9bb961", "name": "Beaver Brewery At Mo's Place", "brewery_type": "brewpub", "address_1": "1908 Elm St", "address_2": null, "address_3": null, "city": "Beaver", "state_province": "Kansas", "postal_code": "67525-9231", "country": "United States", "longitude": "-98.667933", "latitude": "38.639049", "phone": "6205872350", "website_url": "http://www.mosbrewpub.com", "state": "Kansas", "street": "1908 Elm St"}, {"id": "c0b53d0f-5c81-435b-920d-a193e02e1b73", "name": "Beaver Brewing Co", "brewery_type": "brewpub", "address_1": "1820 7th Ave", "address_2": null, "address_3": null, "city": "Beaver Falls", "state_province": "Pennsylvania", "postal_code": "15010-4001", "country": "United States", "longitude": "-80.3192793", "latitude": "40.7650557", "phone": null, "website_url": "http://www.beaverbrewingcompany.com", "state": "Pennsylvania", "street": "1820 7th Ave"}]