[{"id": "9dc2d761-e45b-463c-8eef-c2c340176f3b", "name": "Mount Dora Brewing Co", "brewery_type": "micro", "address_1": "405 S Highland St", "address_2": null, "address_3": null, "city": "Mount Dora", "state_province": "Florida", "postal_code": "32757-6101", "country": "United States", "longitude": null, "latitude": null, "phone": "3527351111", "website_url": "http://www.mountdorabrewing.com", "state": "Florida", "street": "405 S Highland St"}, {"id": "6547c1e3-c0e6-43ec-9bc7-f6d254cb5d85", "name": "Mount Gretna Craft Brewery", "brewery_type": "micro", "address_1": "2701 Horseshoe Pike", "address_2": null, "address_3": null, "city": "Palmyra", "state_province": "Pennsylvania", "postal_code": "17078-8949", "country": "United States", "longitude": null, "latitude": null, "phone": "7178383545", "website_url": "http://www.gretnabrewery.com", "state": "Pennsylvania", "street": "2701 Horseshoe Pike"}, {"id": "4949c8f1-8073-4644-9d1d-e97001f4f7a7", "name": "Mount Hood Brewing Co", "brewery_type": "brewpub", "address_1": "87304 E Government Camp Loop", "address_2": null, "address_3": null, "city": "Government Camp", "state_province": "Oregon", "postal_code": "97028", "country": "United States", "longitude": "-121.7662065", "latitude": "45.30311485", "phone": "5032723272", "website_url": "http://www.mthoodbrewing.com", "state": "Oregon", "street": "87304 E Government Camp Loop"}, {"id": "5976e057-8502-4193-839c-8129210a9766", "name": "Mount Shasta Brewing Co", "brewery_type": "micro", "address_1": "360 College Ave", "address_2": null, "address_3": null, "city": "Weed", "state_province": "California", "postal_code": "96094-2706", "country": "United States", "longitude": "-122.3866251", "latitude": "41.41662138", "phone": "5309382394", "website_url": "http://www.weedales.com", "state": "California", "street": "360 College Ave"}, {"id": "b26705f7-3797-4dd9-8f7c-86a5fbadda58", "name": "Mountain Cowboy Brewing Company", "brewery_type": "brewpub", "address_1": "318 5th St", "address_2": null, "address_3": null, "city": "Frederick", "state_province": "Colorado", "postal_code": "80530", "country": "United States", "longitude": "-104.9369796", "latitude": "40.09855473", "phone": "3039524433", "website_url": "http://www.mountaincowboybrewing.com", "state": "Colorado", "street": "318 5th St"}, {"id": "8b6d327f-e82c-43c9-b068-f80a1ae4cbb2", "name": "Mountain Fork Brewery", "brewery_type": "micro", "address_1": "89 N Lukfata Trail Rd", "address_2": null, "address_3": null, "city": "Broken Bow", "state_province": "Oklahoma", "postal_code": "74728-7025", "country": "United States", "longitude": "-94.7770233", "latitude": "34.1827774", "phone": "5804943233", "website_url": "http://www.mountainforkbrewery.com", "state": "Oklahoma", "street": "89 N Lukfata Trail Rd"}, {"id": "fc357e85-908c-49a9-a3e4-8a96cbb6bf39", "name": "Mountain Lakes Brewing Company", "brewery_type": "micro", "address_1": "201 W Riverside Ave", "address_2": null, "address_3": null, "city": "Spokane", "state_province": "Washington", "postal_code": "99201", "country": "United States", "longitude": "-117.4133414", "latitude": "47.65840592", "phone": "5033481733", "website_url": "https://mountainlakesbrewco.com", "state": "Washington", "street": "201 W Riverside Ave"}, {"id": "a88bd839-f573-4ef2-97cc-f7e997e54781", "name": "Mountain Layers Brewing Company", "brewery_type": "micro", "address_1": "90 Everett Street", "address_2": null, "address_3": null, "city": "Bryson City", "state_province": "North Carolina", "postal_code": "28713", "country": "United States", "longitude": "-83.446029", "latitude": "35.428795", "phone": "8285380115", "website_url": "http://www.mtnlayersbeer.com", "state": "North Carolina", "street": "90 Everett Street"}, {"id": "e0da629e-cf70-4545-b029-e1658759b49f", "name": "Mountain Rambler Brewery", "brewery_type": "micro", "address_1": "186 S Main St", "address_2": null, "address_3": null, "city": "Bishop", "state_province": "California", "postal_code": "93514-3415", "country": "United States", "longitude": "-118.3944494", "latitude": "37.3606708", "phone": "7602581348", "website_url": "http://www.mountainramblerbrewery.com", "state": "California", "street": "186 S Main St"}, {"id": "750a134b-a13a-44ed-a7d4-56d429d5e9aa", "name": "Mountain State Brewing Co", "brewery_type": "micro", "address_1": "1 Nelson Blvd", "address_2": null, "address_3": null, "city": "Thomas", "state_province": "West Virginia", "postal_code": "26292", "country": "United States", "longitude": "-79.498521", "latitude": "39.142037", "phone": "3044634500", "website_url": "http://www.mountainstatebrewing.com", "state": "West Virginia", "street": "1 Nelson Blvd"}, {"id": "e5a383c9-cf8d-4115-b2ab-e59aa504624e", "name": "Mountain Sun Pub and Brewery", "brewery_type": "brewpub", "address_1": "1535 Pearl St", "address_2": null, "address_3": null, "city": "Boulder", "state_province": "Colorado", "postal_code": "80302-5408", "country": "United States", "longitude": "-105.2752277", "latitude": "40.0190131", "phone": "3035460886", "website_url": "http://www.mountainsunpub.com", "state": "Colorado", "street": "1535 Pearl St"}, {"id": "b38e3a59-9874-4d96-960b-631548ec3187", "name": "Mountain Tap Brewery", "brewery_type": "brewpub", "address_1": "910 Yampa Street", "address_2": null, "address_3": null, "city": "Steamboat Springs", "state_province": "Colorado", "postal_code": "80487", "country": "United States", "longitude": "-106.8355071", "latitude": "40.4853039", "phone": "9708796646", "website_url": "http://www.mountaintapbrewery.com", "state": "Colorado", "street": "910 Yampa Street"}, {"id": "a3a41098-15ef-4968-9edd-d68257f14f08", "name": "Mountain Toad Brewing", "brewery_type": "micro", "address_1": "900 Washington Ave", "address_2": null, "address_3": null, "city": "Golden", "state_province": "Colorado", "postal_code": "80401-1047", "country": "United States", "longitude": "-105.2242563", "latitude": "39.75807905", "phone": "7206383244", "website_url": "http://mountaintoadbrewing.com", "state": "Colorado", "street": "900 Washington Ave"}, {"id": "6e501b8a-a337-4bd2-bdb9-d22ab3e166a9", "name": "Mountain Town Brewing Co", "brewery_type": "micro", "address_1": "614 W Pickard St", "address_2": null, "address_3": null, "city": "Mt Pleasant", "state_province": "Michigan", "postal_code": "48858-1504", "country": "United States", "longitude": "-84.78689552", "latitude": "43.61180948", "phone": "9894004666", "website_url": "http://www.mountaintownbrew.com", "state": "Michigan", "street": "614 W Pickard St"}, {"id": "335bffa7-c0f1-4593-929c-1f80ed7ab7c6", "name": "Mountain Town Station Restaurant & Brew Pub", "brewery_type": "brewpub", "address_1": "506 W Broadway St", "address_2": null, "address_3": null, "city": "Mt Pleasant", "state_province": "Michigan", "postal_code": "48858-2441", "country": "United States", "longitude": "-84.7822205", "latitude": "43.604568", "phone": "9894004666", "website_url": "http://www.mountaintownbrew.com", "state": "Michigan", "street": "506 W Broadway St"}, {"id": "2ad0448b-96e8-4537-b990-9cbf5e4702db", "name": "Mountain Valley Brewing", "brewery_type": "micro", "address_1": "4220 Mountain Valley Rd", "address_2": null, "address_3": null, "city": "Axton", "state_province": "Virginia", "postal_code": "24054-2985", "country": "United States", "longitude": "-79.70721", "latitude": "36.715687", "phone": "2768332171", "website_url": null, "state": "Virginia", "street": "4220 Mountain Valley Rd"}, {"id": "251596fe-58b7-4690-a823-f8c65be73228", "name": "Mountain View Brewing", "brewery_type": "micro", "address_1": "6670 Trout Creek Ridge Rd", "address_2": null, "address_3": null, "city": "Mt Hood", "state_province": "Oregon", "postal_code": "97041", "country": "United States", "longitude": "-121.6229737", "latitude": "45.53707415", "phone": "5414410314", "website_url": "https://www.mtviewbrewing.com/", "state": "Oregon", "street": "6670 Trout Creek Ridge Rd"}, {"id": "988365c4-fe44-46d3-9c39-200dd18b1817", "name": "Mountains Walking", "brewery_type": "brewpub", "address_1": "422 N Plum Ave", "address_2": null, "address_3": null, "city": "Bozeman", "state_province": "Montana", "postal_code": "59718", "country": "United States", "longitude": "-111.025561", "latitude": "45.68418789", "phone": "4062193480", "website_url": "http://www.mountainswalking.com", "state": "Montana", "street": "422 N Plum Ave"}, {"id": "f7302824-3eb3-428b-bb02-4109d635110e", "name": "Moustache Brewing Co", "brewery_type": "micro", "address_1": "400 Hallett Ave Ste A", "address_2": null, "address_3": null, "city": "Riverhead", "state_province": "New York", "postal_code": "11901-3076", "country": "United States", "longitude": null, "latitude": null, "phone": "6315913250", "website_url": "http://www.moustachebrewing.com", "state": "New York", "street": "400 Hallett Ave Ste A"}, {"id": "168bd14c-df6e-4148-a502-674b1e1dac9a", "name": "Moylan's Brewery & Restaurant", "brewery_type": "brewpub", "address_1": "15 Rowland Way", "address_2": null, "address_3": null, "city": "Novato", "state_province": "California", "postal_code": "94945-5001", "country": "United States", "longitude": "-122.5570548", "latitude": "38.09448604", "phone": "4158984677", "website_url": "http://www.moylans.com", "state": "California", "street": "15 Rowland Way"}, {"id": "9b6630e3-3499-4472-8406-a9c59037fb9f", "name": "Mr Dunderbaks Biergarten and Brewery / Dunderbrau Brewing", "brewery_type": "brewpub", "address_1": "14929 Bruce B Downs Blvd", "address_2": null, "address_3": null, "city": "Tampa", "state_province": "Florida", "postal_code": "33613-2860", "country": "United States", "longitude": "-82.4138299", "latitude": "28.08237293", "phone": "8139774104", "website_url": "http://www.dunderbaks.ieasysite.com", "state": "Florida", "street": "14929 Bruce B Downs Blvd"}, {"id": "64563779-eb9d-4c45-860d-e67e922c2e2f", "name": "Mraz Brewing Company", "brewery_type": "micro", "address_1": "2222 Francisco Dr Ste 510", "address_2": null, "address_3": null, "city": "El Dorado Hills", "state_province": "California", "postal_code": "95762-3766", "country": "United States", "longitude": "-121.0862427", "latitude": "38.71041848", "phone": "9169340744", "website_url": "http://www.mrazbrewingcompany.com", "state": "California", "street": "2222 Francisco Dr Ste 510"}, {"id": "65afa778-c70a-4caf-9947-1f15d4b4135f", "name": "MT Head Brewing Co", "brewery_type": "closed", "address_1": "27307 159th Ave E", "address_2": null, "address_3": null, "city": "Graham", "state_province": "Washington", "postal_code": "98338-5608", "country": "United States", "longitude": null, "latitude": null, "phone": "2532088999", "website_url": "http://www.mtheadbrewingco.com", "state": "Washington", "street": "27307 159th Ave E"}, {"id": "85d7d8c6-51ec-402b-9099-f5bcca019965", "name": "Mt Index Brewery", "brewery_type": "closed", "address_1": "49315 State Road 2 Ste B", "address_2": null, "address_3": null, "city": "index", "state_province": "Washington", "postal_code": "98256", "country": "United States", "longitude": null, "latitude": null, "phone": "3607936584", "website_url": "https://www.facebook.com/mt.index.brewery.and.distillery", "state": "Washington", "street": "49315 State Road 2 Ste B"}, {"id": "fb66a688-771b-42cd-bedb-1be0eb9db41a", "name": "Mt Lowe Brewing Company", "brewery_type": "micro", "address_1": "150 E Saint Joseph St", "address_2": null, "address_3": null, "city": "Arcadia", "state_province": "California", "postal_code": "91006-2851", "country": "United States", "longitude": "-118.0268254", "latitude": "34.14332231", "phone": "6262447593", "website_url": "http://www.mtlowebrewing.com", "state": "California", "street": "150 E Saint Joseph St"}, {"id": "93581811-3b23-49a5-83db-8214c6d36a9f", "name": "Mt Tabor Brewing Co", "brewery_type": "micro", "address_1": "124 SE 11th Ave", "address_2": null, "address_3": null, "city": "Portland", "state_province": "Oregon", "postal_code": "97214-1354", "country": "United States", "longitude": "-122.654188", "latitude": "45.52171275", "phone": "3605678199", "website_url": "http://www.mttaborbrewing.com", "state": "Oregon", "street": "124 SE 11th Ave"}, {"id": "c59d0db5-f675-4808-97c4-ab1a38643c58", "name": "Mt. Carmel Brewing Co", "brewery_type": "micro", "address_1": "4362 Mount Carmel Tobasco Rd", "address_2": null, "address_3": null, "city": "Cincinnati", "state_province": "Ohio", "postal_code": "45244-2338", "country": "United States", "longitude": null, "latitude": null, "phone": "5132402739", "website_url": null, "state": "Ohio", "street": "4362 Mount Carmel Tobasco Rd"}, {"id": "7bbaf187-f244-43c9-9c28-d8ee0c904958", "name": "Mt. Rushmore Brewing Company", "brewery_type": "brewpub", "address_1": "140 Mt Rushmore Rd", "address_2": null, "address_3": null, "city": "Custer", "state_province": "South Dakota", "postal_code": "57730-1829", "country": "United States", "longitude": "-103.605392", "latitude": "43.764722", "phone": null, "website_url": "http://www.mtrushmorebrewing.com", "state": "South Dakota", "street": "140 Mt Rushmore Rd"}, {"id": "52ee5ff2-5e93-447c-ac91-80670d1ed06f", "name": "Mucky Duck Brewery", "brewery_type": "brewpub", "address_1": "4019 S Main St", "address_2": null, "address_3": null, "city": "Akron", "state_province": "Ohio", "postal_code": "44319-3668", "country": "United States", "longitude": "-81.5268804", "latitude": "41.0629094", "phone": "3306445444", "website_url": null, "state": "Ohio", "street": "4019 S Main St"}, {"id": "9283a53b-c0aa-4a08-8ec7-7dc35b9d818e", "name": "Mud Hound Brewing Co / MacDowell Brew Kitchen", "brewery_type": "brewpub", "address_1": "202B Harrison St SE", "address_2": null, "address_3": null, "city": "Leesburg", "state_province": "Virginia", "postal_code": "20175-3701", "country": "United States", "longitude": "-77.56266978", "latitude": "39.11221609", "phone": "7037772739", "website_url": "http://www.macdowellbrewkitchen.com", "state": "Virginia", "street": "202B Harrison St SE"}, {"id": "7fd0b5f9-cf63-4db1-b797-fe50461dcbc5", "name": "Mudbug Brewery", "brewery_type": "micro", "address_1": "1878 LA Hwy 3185", "address_2": null, "address_3": null, "city": "Thibodaux", "state_province": "Louisiana", "postal_code": "70302-1077", "country": "United States", "longitude": null, "latitude": null, "phone": "9854921610", "website_url": "http://www.mudbugbrewery.com", "state": "Louisiana", "street": "1878 LA Hwy 3185"}, {"id": "105393d3-d4cb-443d-8933-e2563f9faef3", "name": "Muddy Creek Brewery", "brewery_type": "micro", "address_1": "2 E Galena St", "address_2": null, "address_3": null, "city": "Butte", "state_province": "Montana", "postal_code": "59701-1704", "country": "United States", "longitude": "-112.535291", "latitude": "46.01201", "phone": "4062993645", "website_url": "http://muddycreekbrewery.com", "state": "Montana", "street": "2 E Galena St"}, {"id": "e38497fd-5545-43be-9100-518277458517", "name": "Mudhen Brewing Company", "brewery_type": "brewpub", "address_1": "127 W Rio Grande Ave", "address_2": null, "address_3": null, "city": "Wildwood", "state_province": "New Jersey", "postal_code": "08260", "country": "United States", "longitude": "-74.82509314", "latitude": "38.98453453", "phone": "6095228383", "website_url": null, "state": "New Jersey", "street": "127 W Rio Grande Ave"}, {"id": "3e9c673b-0ccd-4204-a712-5536b40cd036", "name": "Mudhook Brewing Co", "brewery_type": "brewpub", "address_1": "34 N Cherry Ln", "address_2": null, "address_3": null, "city": "York", "state_province": "Pennsylvania", "postal_code": "17401-5306", "country": "United States", "longitude": "-76.72935297", "latitude": "39.96311069", "phone": "7177473605", "website_url": "http://www.mudhookbrewing.com", "state": "Pennsylvania", "street": "34 N Cherry Ln"}, {"id": "b9694c75-826d-486d-82ca-b21db45e8008", "name": "Mudshark Brewing Co", "brewery_type": "micro", "address_1": "210 Swanson Ave", "address_2": null, "address_3": null, "city": "Lake Havasu City", "state_province": "Arizona", "postal_code": "86403-0966", "country": "United States", "longitude": "-114.3424335", "latitude": "34.46897363", "phone": "9284532981", "website_url": "http://www.mudsharkbrewingco.com", "state": "Arizona", "street": "210 Swanson Ave"}, {"id": "a45b8540-39be-4c4a-a9a7-8fd88568c06d", "name": "Mule & Elk Brewing Co", "brewery_type": "micro", "address_1": "418 East 1st St Ste 7", "address_2": null, "address_3": null, "city": "Cle Elum", "state_province": "Washington", "postal_code": "98922", "country": "United States", "longitude": "-120.932084", "latitude": "47.19441", "phone": "2063211911", "website_url": "http://www.muleandelk.com", "state": "Washington", "street": "418 East 1st St Ste 7"}, {"id": "ab31aeb1-b596-461a-85d2-d0bbdee0b890", "name": "Mully's Brewery", "brewery_type": "micro", "address_1": "141 Schooner Ln Ste 15", "address_2": null, "address_3": null, "city": "Prince Frederick", "state_province": "Maryland", "postal_code": "20678-3482", "country": "United States", "longitude": null, "latitude": null, "phone": "4439689426", "website_url": "http://www.mullysbrewery.com", "state": "Maryland", "street": "141 Schooner Ln Ste 15"}, {"id": "3341c9bb-1676-4f4c-a884-156f8fd827bf", "name": "Multiple Brewing Company", "brewery_type": "micro", "address_1": "82 W Washington St", "address_2": null, "address_3": null, "city": "Nelsonville", "state_province": "Ohio", "postal_code": "45764-1135", "country": "United States", "longitude": "-82.23343359", "latitude": "39.46109582", "phone": "6144957199", "website_url": null, "state": "Ohio", "street": "82 W Washington St"}, {"id": "9db35316-e5f4-485f-a071-addf0a05feb0", "name": "Mumford Brewing Company", "brewery_type": "micro", "address_1": "416 Boyd St", "address_2": null, "address_3": null, "city": "Los Angeles", "state_province": "California", "postal_code": "90013-1631", "country": "United States", "longitude": "-118.2425998", "latitude": "34.0464181", "phone": "6263759353", "website_url": "http://www.mumfordbrewing.com", "state": "California", "street": "416 Boyd St"}, {"id": "f03af10b-8b0b-4acf-b3a2-494ccb06f346", "name": "Municipal Brew Works", "brewery_type": "micro", "address_1": "20 High St", "address_2": null, "address_3": null, "city": "Hamilton", "state_province": "Ohio", "postal_code": "45011-2709", "country": "United States", "longitude": "-84.5638199", "latitude": "39.4009136", "phone": "5136422424", "website_url": "http://municipalbrewworks.com", "state": "Ohio", "street": "20 High St"}, {"id": "597c06aa-6c9f-4652-a0b0-7db11364374f", "name": "Munkle Brewing Company", "brewery_type": "micro", "address_1": "1513 Meeting Street Rd", "address_2": null, "address_3": null, "city": "Charleston", "state_province": "South Carolina", "postal_code": "29405-9301", "country": "United States", "longitude": "-79.95068928", "latitude": "32.81853", "phone": "8437893109", "website_url": "http://MunkleBrewing.com", "state": "South Carolina", "street": "1513 Meeting Street Rd"}, {"id": "8078ec7c-ac31-421e-b073-4bb9f784c0cb", "name": "Munster Brewery", "brewery_type": "micro", "address_1": "Unit 2F", "address_2": "Youghal Business Park", "address_3": "Parkmountain", "city": "Youghal", "state_province": "Cork", "postal_code": "P36 ET22", "country": "Ireland", "longitude": "-7.8708284", "latitude": "51.9535199", "phone": "353879878171", "website_url": "http://munsterbrewery.com/", "state": "Cork", "street": "Unit 2F"}, {"id": "524ab865-1df1-4655-b19f-0eb427cfa0d6", "name": "Murauer Brauerei", "brewery_type": "large", "address_1": "Raffaltpl. 19", "address_2": null, "address_3": null, "city": "Murau", "state_province": "Steiermark", "postal_code": "8850", "country": "Austria", "longitude": "14.165060917014614", "latitude": "47.11101605760986", "phone": "+43353232660", "website_url": "https://www.murauerbier.at", "state": "Steiermark", "street": "Raffaltpl. 19"}, {"id": "96588a03-7341-4e7d-bda7-454a3c74a3f7", "name": "Murphy's Brewery (Heineken)", "brewery_type": "large", "address_1": "Leitrim Street", "address_2": null, "address_3": null, "city": "Cork", "state_province": "Cork", "postal_code": "T23 VF78", "country": "Ireland", "longitude": "-8.4750739", "latitude": "51.9037117", "phone": "353214503371", "website_url": "http://www.murphys.com/", "state": "Cork", "street": "Leitrim Street"}, {"id": "8af28f23-b686-4f3f-ad7e-7962ef086450", "name": "Muskellunge Brewing Company", "brewery_type": "micro", "address_1": "425 5th St NW", "address_2": null, "address_3": null, "city": "Canton", "state_province": "Ohio", "postal_code": "44702", "country": "United States", "longitude": "-81.37672433", "latitude": "40.80191841", "phone": null, "website_url": "http://www.muskybrewco.com", "state": "Ohio", "street": "425 5th St NW"}, {"id": "090daff9-0723-4795-8feb-7dfa16ffb7b5", "name": "Mustang Sally Brewing Co", "brewery_type": "micro", "address_1": "14140 Parke Long Ct # A-C", "address_2": null, "address_3": null, "city": "Chantilly", "state_province": "Virginia", "postal_code": "20151-4009", "country": "United States", "longitude": null, "latitude": null, "phone": "7033787450", "website_url": "http://www.msbrewing.com", "state": "Virginia", "street": "14140 Parke Long Ct # A-C"}, {"id": "d86ed112-0baa-4205-8848-7a4387b1d1ae", "name": "MyGrain Brewing Company", "brewery_type": "brewpub", "address_1": "50 E Jefferson St Ste 106", "address_2": null, "address_3": null, "city": "Joliet", "state_province": "Illinois", "postal_code": "60432-4299", "country": "United States", "longitude": null, "latitude": null, "phone": "8153453339", "website_url": "http://www.mygrainbrewing.com", "state": "Illinois", "street": "50 E Jefferson St Ste 106"}, {"id": "cd8b09a9-6ebf-43a8-bd96-8b889e8b753f", "name": "Mystery Brewing Co", "brewery_type": "brewpub", "address_1": "437 Dimmocks Mill Rd Ste 41", "address_2": null, "address_3": null, "city": "Hillsborough", "state_province": "North Carolina", "postal_code": "27278-2379", "country": "United States", "longitude": "-79.1135558", "latitude": "36.0695647", "phone": "9196978379", "website_url": "http://www.mysterybrewing.com", "state": "North Carolina", "street": "437 Dimmocks Mill Rd Ste 41"}, {"id": "8de27ce6-0a50-4c0c-99a1-52f361e954a0", "name": "Mystic Brewery", "brewery_type": "micro", "address_1": "174 Williams St", "address_2": null, "address_3": null, "city": "Chelsea", "state_province": "Massachusetts", "postal_code": "02150-3804", "country": "United States", "longitude": "-71.0445104", "latitude": "42.3915659", "phone": null, "website_url": null, "state": "Massachusetts", "street": "174 Williams St"}, {"id": "8ead3533-6041-4b94-a2d3-fb2cd6493f3e", "name": "Myths and Legends Brewing Company", "brewery_type": "micro", "address_1": "1115 Zygmunt Cir", "address_2": null, "address_3": null, "city": "Westmont", "state_province": "Illinois", "postal_code": "60559-2684", "country": "United States", "longitude": "-87.9817647", "latitude": "41.7763011", "phone": "6304427864", "website_url": "http://www.mythsandlegendsbeer.com", "state": "Illinois", "street": "1115 Zygmunt Cir"}, {"id": "6941d5e5-667a-44ef-908e-ef167f9119eb", "name": "Nacogdoches Brewing Company, Inc.", "brewery_type": "planning", "address_1": null, "address_2": null, "address_3": null, "city": "Nacogdoches", "state_province": "Texas", "postal_code": "75964-8327", "country": "United States", "longitude": null, "latitude": null, "phone": "9365604532", "website_url": null, "state": "Texas", "street": null}, {"id": "117409b7-7f6d-49cb-90de-f635ed1b9756", "name": "Nailers Brewing Company", "brewery_type": "brewpub", "address_1": "6001 N US Highway 31", "address_2": null, "address_3": null, "city": "Whiteland", "state_province": "Indiana", "postal_code": "46184", "country": "United States", "longitude": null, "latitude": null, "phone": "3172813132", "website_url": null, "state": "Indiana", "street": "6001 N US Highway 31"}, {"id": "9a8aa674-ce4f-43a3-9120-b19396612cfb", "name": "Naked Brewing Co", "brewery_type": "micro", "address_1": "51 Buck Rd", "address_2": null, "address_3": null, "city": "Huntingdon Valley", "state_province": "Pennsylvania", "postal_code": "19006-1501", "country": "United States", "longitude": null, "latitude": null, "phone": "2673559561", "website_url": "http://www.nakedbrewingcompany.com", "state": "Pennsylvania", "street": "51 Buck Rd"}, {"id": "94ef9e07-0ae2-4143-b85e-8ce28a0a22c4", "name": "Naked City Brewing Co", "brewery_type": "brewpub", "address_1": "8564 Greenwood Ave N", "address_2": null, "address_3": null, "city": "Seattle", "state_province": "Washington", "postal_code": "98103-3614", "country": "United States", "longitude": "-122.3550832", "latitude": "47.6918221", "phone": "2068386299", "website_url": "http://www.nakedcitybrewing.com", "state": "Washington", "street": "8564 Greenwood Ave N"}, {"id": "23446263-7940-42b3-a488-271188b02d0c", "name": "Naked Dove Brewing Company", "brewery_type": "micro", "address_1": "4048 State Route 5 and 20", "address_2": null, "address_3": null, "city": "Canandaigua", "state_province": "New York", "postal_code": "14424-9591", "country": "United States", "longitude": null, "latitude": null, "phone": "5853962537", "website_url": "http://www.nakeddovebrewing.com", "state": "New York", "street": "4048 State Route 5 and 20"}, {"id": "79624d32-8675-4d62-87e4-6a61d7d259b1", "name": "Nale House Brewing Co", "brewery_type": "micro", "address_1": "32 N Main St", "address_2": null, "address_3": null, "city": "Medford", "state_province": "New Jersey", "postal_code": "08055-2412", "country": "United States", "longitude": "-74.82362121", "latitude": "39.90072015", "phone": "6097607246", "website_url": "http://www.nalehousebrewing.com", "state": "New Jersey", "street": "32 N Main St"}, {"id": "624ccbcf-ed20-42c3-8d17-2253046f82ca", "name": "Nano 108 Brewing Co", "brewery_type": "micro", "address_1": "2402 Waynoka Rd", "address_2": null, "address_3": null, "city": "Colorado Springs", "state_province": "Colorado", "postal_code": "80915-1612", "country": "United States", "longitude": null, "latitude": null, "phone": "7195962337", "website_url": "http://www.nano108brewing.com", "state": "Colorado", "street": "2402 Waynoka Rd"}, {"id": "02738c45-4084-46f9-9dec-a0cbe7c9656b", "name": "Nano Brew Cleveland", "brewery_type": "brewpub", "address_1": "1859 W 25th St", "address_2": null, "address_3": null, "city": "Cleveland", "state_province": "Ohio", "postal_code": "44113", "country": "United States", "longitude": "-81.7045531", "latitude": "41.4860486", "phone": "2168626631", "website_url": "http://www.nanobrewcleveland.com", "state": "Ohio", "street": "1859 W 25th St"}, {"id": "910d5a63-31aa-40ba-b720-91d1c21cdb52", "name": "Nantahala Brewing Co", "brewery_type": "micro", "address_1": "61 Depot Street", "address_2": null, "address_3": null, "city": "Bryson City", "state_province": "North Carolina", "postal_code": "28713-0483", "country": "United States", "longitude": "-83.446278", "latitude": "35.4311525", "phone": "8287886185", "website_url": "http://www.nantahalabrewing.com", "state": "North Carolina", "street": "61 Depot Street"}, {"id": "b5546fd2-e680-4269-a348-0f174d618fb7", "name": "Napa Palisades Beer Company", "brewery_type": "proprietor", "address_1": "1000 Main St", "address_2": null, "address_3": null, "city": "Napa", "state_province": "California", "postal_code": "94559-2645", "country": "United States", "longitude": "-122.285449", "latitude": "38.299359", "phone": "7072961552", "website_url": "http://www.napapalisadesbeer.com", "state": "California", "street": "1000 Main St"}, {"id": "f57b8d04-75ed-419a-bfbb-949790b88ea8", "name": "Napa Smith Brewery", "brewery_type": "micro", "address_1": "101 Yolano Dr", "address_2": null, "address_3": null, "city": "Vallejo", "state_province": "California", "postal_code": "94589-2250", "country": "United States", "longitude": "-122.259292", "latitude": "38.132142", "phone": "7072552912", "website_url": "http://www.napasmithbrewery.com", "state": "California", "street": "101 Yolano Dr"}, {"id": "3a0d142a-68f3-4dac-8c32-31513fca14d0", "name": "Napa Valley Brewing Co/ Calistoga Inn", "brewery_type": "brewpub", "address_1": "1250 Lincoln Ave", "address_2": null, "address_3": null, "city": "Calistoga", "state_province": "California", "postal_code": "94515-1741", "country": "United States", "longitude": "-122.5796312", "latitude": "38.57693444", "phone": "7079424101", "website_url": "http://www.napabeer.com", "state": "California", "street": "1250 Lincoln Ave"}, {"id": "f40926c8-e9e3-490b-9756-0972db299bcf", "name": "Naples Beach Brewery", "brewery_type": "micro", "address_1": "4110 Enterprise Ave Ste 217", "address_2": null, "address_3": null, "city": "Naples", "state_province": "Florida", "postal_code": "34104-7084", "country": "United States", "longitude": null, "latitude": null, "phone": "2393048795", "website_url": "http://www.naplesbeachbrewery.com", "state": "Florida", "street": "4110 Enterprise Ave Ste 217"}, {"id": "f30c94db-0f97-492d-be18-e0e0d362e360", "name": "Narragansett Brewing Co - Pawtucket", "brewery_type": "regional", "address_1": "461 Main St", "address_2": null, "address_3": null, "city": "Pawtucket", "state_province": "Rhode Island", "postal_code": "02860-2913", "country": "United States", "longitude": "-71.38847715", "latitude": "41.87668875", "phone": "4014378970", "website_url": "http://www.narragansettbeer.com", "state": "Rhode Island", "street": "461 Main St"}, {"id": "29d69ef0-65de-402a-a98f-7c6db6ae5271", "name": "Narragansett Brewing Co - Providence", "brewery_type": "brewpub", "address_1": "271 Tockwotton St", "address_2": null, "address_3": null, "city": "Providence", "state_province": "Rhode Island", "postal_code": "02903-4356", "country": "United States", "longitude": "-71.3904225", "latitude": "41.8185153", "phone": "4014378970", "website_url": "http://www.narragansettbeer.com", "state": "Rhode Island", "street": "271 Tockwotton St"}, {"id": "02e33b6d-ac7d-44ad-8b38-cb1c8ebea1e7", "name": "Narrow Gauge Brewing Company", "brewery_type": "brewpub", "address_1": "1595 N Highway 67 St", "address_2": null, "address_3": null, "city": "Florissant", "state_province": "Missouri", "postal_code": "63031-4606", "country": "United States", "longitude": "-90.319028", "latitude": "38.799", "phone": "3148313222", "website_url": "http://www.narrowgaugestl.com", "state": "Missouri", "street": "1595 N Highway 67 St"}, {"id": "659f6d61-f3e0-431f-9da0-9234fe22b6b3", "name": "Narrow Path Brewing Company", "brewery_type": "micro", "address_1": "106 Karl Brown Way", "address_2": null, "address_3": null, "city": "Loveland", "state_province": "Ohio", "postal_code": "45140-2902", "country": "United States", "longitude": null, "latitude": null, "phone": "5133123414", "website_url": "http://www.narrowpathbrewing.com", "state": "Ohio", "street": "106 Karl Brown Way"}, {"id": "c1b991c2-5780-4e19-b925-c9c1adb89df9", "name": "Narrows Brewing Company", "brewery_type": "micro", "address_1": "9007 S 19th St", "address_2": null, "address_3": null, "city": "Tacoma", "state_province": "Washington", "postal_code": "98466-1819", "country": "United States", "longitude": "-122.5022378", "latitude": "47.2428871", "phone": "2533271400", "website_url": "http://www.narrowsbrewing.com", "state": "Washington", "street": "9007 S 19th St"}, {"id": "c2d17a53-99d9-4d1e-a0cd-8314ddc93b5c", "name": "Natchez Brewing Co", "brewery_type": "micro", "address_1": "207 High St", "address_2": null, "address_3": null, "city": "Natchez", "state_province": "Mississippi", "postal_code": "39120-3222", "country": "United States", "longitude": "-91.4021969", "latitude": "31.56348326", "phone": "8287135311", "website_url": "http://www.natchezbrew.com", "state": "Mississippi", "street": "207 High St"}, {"id": "8b10db58-b7e8-473e-9cdd-001212299a6d", "name": "Natian Brewery", "brewery_type": "micro", "address_1": "1321 NE Couch St", "address_2": null, "address_3": null, "city": "Portland", "state_province": "Oregon", "postal_code": "97232-3007", "country": "United States", "longitude": "-122.6529733", "latitude": "45.5249032", "phone": "9716787116", "website_url": "http://www.natianbrewery.com", "state": "Oregon", "street": "1321 NE Couch St"}, {"id": "ccdbc69e-ab8d-4133-9897-7728cb066c4b", "name": "National Beer Museum Development Group", "brewery_type": "planning", "address_1": null, "address_2": null, "address_3": null, "city": "Pittsburgh", "state_province": "Pennsylvania", "postal_code": "15212", "country": "United States", "longitude": null, "latitude": null, "phone": "4123983236", "website_url": "http://www.BrewMuseum.com", "state": "Pennsylvania", "street": null}, {"id": "c53ae7dd-b837-47ed-899f-1179608c7434", "name": "National Brewing Company", "brewery_type": "contract", "address_1": "28102 Baileys Neck Rd", "address_2": null, "address_3": null, "city": "Easton", "state_province": "Maryland", "postal_code": "21601-8520", "country": "United States", "longitude": null, "latitude": null, "phone": "4103103553", "website_url": "http://www.nationalpremiumbeer.com", "state": "Maryland", "street": "28102 Baileys Neck Rd"}, {"id": "68fc2bdf-4401-4dc0-a3c0-2a8a29189e6e", "name": "Natty Greene's Brewing Co", "brewery_type": "regional", "address_1": "1918 W Gate City Blvd", "address_2": null, "address_3": null, "city": "Greensboro", "state_province": "North Carolina", "postal_code": "27403-2615", "country": "United States", "longitude": "-79.7923996", "latitude": "36.0646259", "phone": "3362741373", "website_url": "http://www.nattygreenes.com", "state": "North Carolina", "street": "1918 W Gate City Blvd"}, {"id": "e4ada546-4330-42bd-9304-5fcbe922f4f5", "name": "Natty Greene's Pub & Brewing Co", "brewery_type": "brewpub", "address_1": "345 S Elm St", "address_2": null, "address_3": null, "city": "Greensboro", "state_province": "North Carolina", "postal_code": "27401-2603", "country": "United States", "longitude": "-79.7903852", "latitude": "36.0686458", "phone": "3368566111", "website_url": "http://www.nattygreenes.com", "state": "North Carolina", "street": "345 S Elm St"}, {"id": "ef38df48-391f-4f62-81a0-5263d7ab21fb", "name": "Nature Coast Brewing Company", "brewery_type": "micro", "address_1": "564 N Citrus Ave", "address_2": null, "address_3": null, "city": "Crystal River", "state_province": "Florida", "postal_code": "34428-4017", "country": "United States", "longitude": "-82.5931784", "latitude": "28.89917957", "phone": "3527950956", "website_url": "http://www.naturecoastbrewingco.com", "state": "Florida", "street": "564 N Citrus Ave"}, {"id": "d7b5805d-0762-4f33-b677-8269d16c6a61", "name": "Naughty Monk Brewery L.L.C.", "brewery_type": "micro", "address_1": "2507 Lakewood Ranch Blvd", "address_2": null, "address_3": null, "city": "Bradenton", "state_province": "Florida", "postal_code": "34211-4949", "country": "United States", "longitude": "-82.4324118", "latitude": "27.4519957", "phone": "9417082966", "website_url": "http://www.naughtymonkbrewery.com", "state": "Florida", "street": "2507 Lakewood Ranch Blvd"}, {"id": "d523e3ba-ac09-4d9d-be40-c42d5888cf23", "name": "Naughty Oak Brewing Company", "brewery_type": "micro", "address_1": "165 S Broadway St Ste 102", "address_2": null, "address_3": null, "city": "Orcutt", "state_province": "California", "postal_code": "93455-4627", "country": "United States", "longitude": "-120.4482865", "latitude": "34.86506483", "phone": "8052879663", "website_url": "http://www.naughtyoak.com", "state": "California", "street": "165 S Broadway St Ste 102"}, {"id": "4aac21f5-3cd7-450e-9245-fa07d1c444f7", "name": "Naukabout Brewery", "brewery_type": "micro", "address_1": "13 Lake Ave", "address_2": null, "address_3": null, "city": "Mashpee", "state_province": "Massachusetts", "postal_code": "02649-2075", "country": "United States", "longitude": "-70.48425901", "latitude": "41.64936239", "phone": "7743130200", "website_url": "http://www.naukabout.com", "state": "Massachusetts", "street": "13 Lake Ave"}, {"id": "facec4b8-02cb-4257-b12f-6188679557d8", "name": "Navigation Brewing Co", "brewery_type": "micro", "address_1": "122 Western Ave", "address_2": null, "address_3": null, "city": "Lowell", "state_province": "Massachusetts", "postal_code": "01851-1433", "country": "United States", "longitude": "-71.32464812", "latitude": "42.64034997", "phone": null, "website_url": "http://www.navigationbrewing.com", "state": "Massachusetts", "street": "122 Western Ave"}, {"id": "6c4dc675-17ad-4f13-afd5-d69438a709d8", "name": "NAZZ'D Brew Works and Pub", "brewery_type": "planning", "address_1": null, "address_2": null, "address_3": null, "city": "Pittsboro", "state_province": "North Carolina", "postal_code": "27312", "country": "United States", "longitude": null, "latitude": null, "phone": "9196042081", "website_url": "http://www.nazzdbrew.com", "state": "North Carolina", "street": null}, {"id": "e21cd242-f85b-4dd1-9328-e9ca1237624a", "name": "NC State Brewery", "brewery_type": "micro", "address_1": "400 Dan Allen Drive Campus Box 7624", "address_2": null, "address_3": null, "city": "Raleigh", "state_province": "North Carolina", "postal_code": "27695-0001", "country": "United States", "longitude": null, "latitude": null, "phone": "9195130802", "website_url": "http://www.fbns.ncsu.edu/Sheppard/", "state": "North Carolina", "street": "400 Dan Allen Drive Campus Box 7624"}, {"id": "32643a19-4321-44dc-b351-792d878226da", "name": "Nebraska Brewing Co - La Vista", "brewery_type": "micro", "address_1": "6950 S 108th St", "address_2": null, "address_3": null, "city": "La Vista", "state_province": "Nebraska", "postal_code": "68128-5701", "country": "United States", "longitude": "-96.0813295", "latitude": "41.1772046", "phone": "4029340950", "website_url": null, "state": "Nebraska", "street": "6950 S 108th St"}, {"id": "4d7b67c5-34a4-4586-8f19-e3c8447cd601", "name": "Nebraska Brewing Co - Papillion", "brewery_type": "closed", "address_1": "7474 Towne Center Pkwy Ste 101 Shadow Lake Towne Center", "address_2": null, "address_3": null, "city": "Papillion", "state_province": "Nebraska", "postal_code": "68046-4805", "country": "United States", "longitude": null, "latitude": null, "phone": "4029347100", "website_url": "http://www.nebraskabrewingco.com", "state": "Nebraska", "street": "7474 Towne Center Pkwy Ste 101 Shadow Lake Towne Center"}, {"id": "43b8ace8-09d2-4c96-9b4f-357b6a0467ab", "name": "Neches Brewing Company", "brewery_type": "brewpub", "address_1": "1108 Port Neches Ave", "address_2": null, "address_3": null, "city": "Port Neches", "state_province": "Texas", "postal_code": "77651-2804", "country": "United States", "longitude": "-93.958435", "latitude": "29.991653", "phone": "4092375700", "website_url": null, "state": "Texas", "street": "1108 Port Neches Ave"}, {"id": "7ceebde8-ab10-4657-9c3e-8f725b8cc388", "name": "Neon Groundhog Brewery - Majestic Oak Winery", "brewery_type": "micro", "address_1": "13554 Mohler Rd", "address_2": null, "address_3": null, "city": "Grand Rapids", "state_province": "Ohio", "postal_code": "43522-9648", "country": "United States", "longitude": null, "latitude": null, "phone": "4198756474", "website_url": "http://www.majesticoakwinery.com", "state": "Ohio", "street": "13554 Mohler Rd"}, {"id": "0a9f352e-21f4-4eb6-a11e-2c4aa3732307", "name": "Nepenthe Homebrew & Brewery", "brewery_type": "planning", "address_1": null, "address_2": null, "address_3": null, "city": "Baltimore", "state_province": "Maryland", "postal_code": "21211-1900", "country": "United States", "longitude": null, "latitude": null, "phone": "4434384846", "website_url": "http://www.nepenthehomebrew.com", "state": "Maryland", "street": null}, {"id": "e2b88f90-f367-4c3d-8b0f-69dc62e47f4c", "name": "Neptunes Brewery, LLC", "brewery_type": "micro", "address_1": "119 N L St", "address_2": null, "address_3": null, "city": "Livingston", "state_province": "Montana", "postal_code": "59047-2819", "country": "United States", "longitude": null, "latitude": null, "phone": "4062227837", "website_url": "http://www.neptunesbrewery.com", "state": "Montana", "street": "119 N L St"}, {"id": "bbf8905d-9def-4a8f-b24b-91d3e6cdccd9", "name": "Neshaminy Creek Brewing Co", "brewery_type": "regional", "address_1": "909 Ray Ave", "address_2": null, "address_3": null, "city": "Croydon", "state_province": "Pennsylvania", "postal_code": "19021-7510", "country": "United States", "longitude": "-74.90222455", "latitude": "40.08537673", "phone": "2154587081", "website_url": "http://www.neshaminycreekbrewing.com", "state": "Pennsylvania", "street": "909 Ray Ave"}, {"id": "4dd39fbc-c476-4816-bc7c-6eab5d962db7", "name": "Network Brewery", "brewery_type": "micro", "address_1": "1824 Carnegie Ave", "address_2": null, "address_3": null, "city": "Santa Ana", "state_province": "California", "postal_code": "92705-5503", "country": "United States", "longitude": "-117.845559", "latitude": "33.7119033", "phone": "6578598004", "website_url": "http://www.networkbrewery.com", "state": "California", "street": "1824 Carnegie Ave"}, {"id": "061fcb41-7dd1-4db4-8963-733096eea370", "name": "Neuse River Brewing Company", "brewery_type": "micro", "address_1": "518 Pershing Rd", "address_2": null, "address_3": null, "city": "Raleigh", "state_province": "North Carolina", "postal_code": "27608-2624", "country": "United States", "longitude": "-78.63345205", "latitude": "35.8045083", "phone": "9842328479", "website_url": "http://www.neuseriverbrewing.com", "state": "North Carolina", "street": "518 Pershing Rd"}, {"id": "05ce38c8-0c0b-4c51-93dc-ae5f5e98a625", "name": "Nevadan Brewing Company", "brewery_type": "planning", "address_1": null, "address_2": null, "address_3": null, "city": "Las Vegas", "state_province": "Nevada", "postal_code": "89139-5939", "country": "United States", "longitude": null, "latitude": null, "phone": "7028455768", "website_url": "http://nevadanbrewing.com", "state": "Nevada", "street": null}, {"id": "7ad422f8-cd8a-4706-9583-8d20c5242f24", "name": "Never Summer Brewing Co", "brewery_type": "micro", "address_1": "62 E Agate Ave", "address_2": null, "address_3": null, "city": "Granby", "state_province": "Colorado", "postal_code": "80446", "country": "United States", "longitude": "-105.9415686", "latitude": "40.0855713", "phone": "9708870333", "website_url": null, "state": "Colorado", "street": "62 E Agate Ave"}, {"id": "28f5a67c-49b0-4197-b7a7-5882a491d63d", "name": "New Albanian Bank Street Brewhouse", "brewery_type": "brewpub", "address_1": "415 Bank St", "address_2": null, "address_3": null, "city": "New Albany", "state_province": "Indiana", "postal_code": "47150-3407", "country": "United States", "longitude": "-85.82220842", "latitude": "38.28656732", "phone": "8127259585", "website_url": "http://www.newalbanian.com", "state": "Indiana", "street": "415 Bank St"}, {"id": "bb34f1bf-8108-4dba-8b6a-18553ce95809", "name": "New Albanian Brewing Co", "brewery_type": "brewpub", "address_1": "3312 Plaza Dr", "address_2": null, "address_3": null, "city": "New Albany", "state_province": "Indiana", "postal_code": "47150-2478", "country": "United States", "longitude": null, "latitude": null, "phone": "8129442577", "website_url": "http://www.newalbanian.com", "state": "Indiana", "street": "3312 Plaza Dr"}, {"id": "e1cf02fc-0380-4c80-89e4-0e52946d9338", "name": "New American Brewing Company", "brewery_type": "closed", "address_1": "1631 SW Main St Ste 105", "address_2": null, "address_3": null, "city": "Ankeny", "state_province": "Iowa", "postal_code": "50023-7254", "country": "United States", "longitude": "-93.618309", "latitude": "41.712502", "phone": "5152505648", "website_url": "http://www.newamericanbeer.com", "state": "Iowa", "street": "1631 SW Main St Ste 105"}, {"id": "d76c7a31-bcf2-42b5-842c-abb9b40d8cb1", "name": "New Anthem Beer Project", "brewery_type": "micro", "address_1": "116 Dock St", "address_2": null, "address_3": null, "city": "Wilmington", "state_province": "North Carolina", "postal_code": "28401-4433", "country": "United States", "longitude": "-77.94826959", "latitude": "34.23413971", "phone": "9103994683", "website_url": "http://www.newanthembeer.com", "state": "North Carolina", "street": "116 Dock St"}, {"id": "40c11daf-e510-45be-bf1f-6b8f0b77ebed", "name": "New Axiom Brewing Company", "brewery_type": "micro", "address_1": "949 NE Columbus ", "address_2": null, "address_3": null, "city": "Lees Summit", "state_province": "Missouri", "postal_code": "64086", "country": "United States", "longitude": "-94.351812", "latitude": "38.947403", "phone": null, "website_url": "http://www.newaxiombrewco.com", "state": "Missouri", "street": "949 NE Columbus "}, {"id": "e316621b-7562-49c0-9f76-37a3af389eb8", "name": "New Barons Brewing Cooperative", "brewery_type": "planning", "address_1": null, "address_2": null, "address_3": null, "city": "Milwaukee", "state_province": "Wisconsin", "postal_code": "53202-2821", "country": "United States", "longitude": null, "latitude": null, "phone": "3147050016", "website_url": "http://www.newbaronsbrewing.com", "state": "Wisconsin", "street": null}, {"id": "93a19d3e-c4cf-480d-83da-74c6e41d07c7", "name": "New Belgium - The Woods At The Source", "brewery_type": "planning", "address_1": null, "address_2": null, "address_3": null, "city": "Denver", "state_province": "Colorado", "postal_code": "80216-5021", "country": "United States", "longitude": null, "latitude": null, "phone": null, "website_url": "http://www.newbelgium.com/Brewery/TheWoods", "state": "Colorado", "street": null}, {"id": "1b0bf444-c830-4958-922c-5c1b46fe37f5", "name": "New Belgium Brewing Co", "brewery_type": "regional", "address_1": "500 Linden St", "address_2": null, "address_3": null, "city": "Fort Collins", "state_province": "Colorado", "postal_code": "80524-2457", "country": "United States", "longitude": "-105.0678422", "latitude": "40.59335825", "phone": "9702210524", "website_url": "http://www.newbelgium.com", "state": "Colorado", "street": "500 Linden St"}, {"id": "de5ee7c1-54e0-4d20-960a-b825a76ddc9e", "name": "New Belgium Brewing Co", "brewery_type": "regional", "address_1": "21 Craven St", "address_2": null, "address_3": null, "city": "Asheville", "state_province": "North Carolina", "postal_code": "28806-", "country": "United States", "longitude": "-82.57194293", "latitude": "35.5879302", "phone": "8885989552", "website_url": "http://www.newbelgium.com", "state": "North Carolina", "street": "21 Craven St"}, {"id": "cc6f97c5-b82b-4c18-be62-896e2ac2cad0", "name": "New Bohemia Brewing Co", "brewery_type": "brewpub", "address_1": "1030 41st Ave", "address_2": null, "address_3": null, "city": "Santa Cruz", "state_province": "California", "postal_code": "95062-4447", "country": "United States", "longitude": "-121.9647935", "latitude": "36.96661524", "phone": "8313500253", "website_url": "http://www.nubobrew.com", "state": "California", "street": "1030 41st Ave"}, {"id": "806f78ce-18d8-4a28-a871-403807795cbe", "name": "New Boswell Brewing Co", "brewery_type": "micro", "address_1": "410 N 10th St", "address_2": null, "address_3": null, "city": "Richmond", "state_province": "Indiana", "postal_code": "47374", "country": "United States", "longitude": "-84.88916811", "latitude": "39.83306544", "phone": "7655467856", "website_url": "http://www.newboswell.com", "state": "Indiana", "street": "410 N 10th St"}, {"id": "7564bb65-8745-4c77-ba1b-2b264a694c2b", "name": "New Braunfels Brewing", "brewery_type": "micro", "address_1": "180 W Mill St Ste 100", "address_2": null, "address_3": null, "city": "New Braunfels", "state_province": "Texas", "postal_code": "78130-5058", "country": "United States", "longitude": null, "latitude": null, "phone": "8306262739", "website_url": "http://www.nbbrewing.com", "state": "Texas", "street": "180 W Mill St Ste 100"}, {"id": "d550e8d8-a356-4188-bf71-8febfcb326f9", "name": "New Bremen Brewing Company", "brewery_type": "planning", "address_1": null, "address_2": null, "address_3": null, "city": "New Bremen", "state_province": "Ohio", "postal_code": "45869-1328", "country": "United States", "longitude": null, "latitude": null, "phone": null, "website_url": "http://www.gongoozlersbeer.com", "state": "Ohio", "street": null}, {"id": "a0ee9d3c-4672-45c4-9d1c-372ce110fd01", "name": "New City Brewery", "brewery_type": "micro", "address_1": "180 Pleasant St Ste 2", "address_2": null, "address_3": null, "city": "Easthampton", "state_province": "Massachusetts", "postal_code": "01027-1297", "country": "United States", "longitude": null, "latitude": null, "phone": "4135292000", "website_url": null, "state": "Massachusetts", "street": "180 Pleasant St Ste 2"}, {"id": "652351af-c051-4151-8d02-fb562513ec35", "name": "New Corner Brewing Company", "brewery_type": "micro", "address_1": "1900 W Mt Pleasant Blvd Ste G", "address_2": null, "address_3": null, "city": "Muncie", "state_province": "Indiana", "postal_code": "47302-9566", "country": "United States", "longitude": null, "latitude": null, "phone": "7657304376", "website_url": "http://www.newcornerbrewing.com", "state": "Indiana", "street": "1900 W Mt Pleasant Blvd Ste G"}, {"id": "ba128e4b-4941-45cd-96b0-d500a5c02758", "name": "New District Brewing Company", "brewery_type": "micro", "address_1": "2709 S Oakland St", "address_2": null, "address_3": null, "city": "Arlington", "state_province": "Virginia", "postal_code": "22206-2309", "country": "United States", "longitude": "-77.08966299", "latitude": "38.84421984", "phone": "7038885820", "website_url": "http://www.newdistrictbrewing.com", "state": "Virginia", "street": "2709 S Oakland St"}, {"id": "9c2e0292-e7aa-4f8f-babd-38ec3fd466a0", "name": "New England Brewing Co", "brewery_type": "micro", "address_1": "175 Amity Rd", "address_2": null, "address_3": null, "city": "Woodbridge", "state_province": "Connecticut", "postal_code": "06525-2201", "country": "United States", "longitude": "-72.98046406", "latitude": "41.33858942", "phone": "2033872222", "website_url": "http://www.newenglandbrewing.com", "state": "Connecticut", "street": "175 Amity Rd"}, {"id": "31b2f8e2-17c1-4344-aeb1-93575d3d5f79", "name": "New English Brewing Co Inc", "brewery_type": "micro", "address_1": "11545 Sorrento Valley Rd Ste 305", "address_2": null, "address_3": null, "city": "San Diego", "state_province": "California", "postal_code": "92121-1322", "country": "United States", "longitude": "-117.230519", "latitude": "32.912641", "phone": "6198578023", "website_url": "http://www.newenglishbrewing.com", "state": "California", "street": "11545 Sorrento Valley Rd Ste 305"}, {"id": "55a4aaa7-503f-45e4-bd82-522e5ad20d42", "name": "New Era Fine Fermentations", "brewery_type": "micro", "address_1": "321 S Frankfort Ave", "address_2": null, "address_3": null, "city": "Tulsa", "state_province": "Oklahoma", "postal_code": "74120", "country": "United States", "longitude": "-95.984497", "latitude": "36.1548985", "phone": "9183670640", "website_url": "http://www.neffbrewing.com", "state": "Oklahoma", "street": "321 S Frankfort Ave"}, {"id": "c33c63b9-317d-4f75-a5ea-fc492766cae9", "name": "New Glarus Brewing Co", "brewery_type": "regional", "address_1": "2400 State Highway 69", "address_2": null, "address_3": null, "city": "New Glarus", "state_province": "Wisconsin", "postal_code": "53574", "country": "United States", "longitude": "-89.6312918", "latitude": "42.8095311", "phone": "6085275850", "website_url": "http://www.newglarusbrewing.com", "state": "Wisconsin", "street": "2400 State Highway 69"}, {"id": "edc8857b-8955-48f1-8b22-a16b5693d1fc", "name": "New Glarus Brewing Co - Riverside", "brewery_type": "micro", "address_1": "2400 State Hwy 69", "address_2": null, "address_3": null, "city": "New Glarus", "state_province": "Wisconsin", "postal_code": "53574", "country": "United States", "longitude": null, "latitude": null, "phone": "6085275851", "website_url": "http://www.newglarusbrewing.com", "state": "Wisconsin", "street": "2400 State Hwy 69"}, {"id": "547f2a09-6f76-4801-a631-ed0b0b9ffb60", "name": "New Glory Craft Brewery", "brewery_type": "micro", "address_1": "8251 Alpine Ave", "address_2": null, "address_3": null, "city": "Sacramento", "state_province": "California", "postal_code": "95826-4708", "country": "United States", "longitude": "-121.402102", "latitude": "38.53562933", "phone": "9164519355", "website_url": "http://www.newglorybeer.com", "state": "California", "street": "8251 Alpine Ave"}, {"id": "6822dfaf-6c12-448f-a8b7-4855aa280994", "name": "New Groove Artisan Brewery", "brewery_type": "brewpub", "address_1": "4078 Highway 9", "address_2": null, "address_3": null, "city": "Boiling Springs", "state_province": "South Carolina", "postal_code": "29316-8501", "country": "United States", "longitude": "-82.017032", "latitude": "35.072809", "phone": "8645863900", "website_url": "http://www.newgroovebrew.com", "state": "South Carolina", "street": "4078 Highway 9"}, {"id": "3b1b09ef-f184-420f-85b7-f4585546ccc7", "name": "New Heights Brewing Co", "brewery_type": "micro", "address_1": "928 5th Ave S", "address_2": null, "address_3": null, "city": "Nashville", "state_province": "Tennessee", "postal_code": "37203-4612", "country": "United States", "longitude": "-86.7706476", "latitude": "36.1491212", "phone": "6154906901", "website_url": "http://www.newheightsbrewing.com", "state": "Tennessee", "street": "928 5th Ave S"}, {"id": "b88aedd3-6a71-4619-9589-2ff83748a5a0", "name": "New Helvetia Brewing Company", "brewery_type": "micro", "address_1": "1730 Broadway", "address_2": null, "address_3": null, "city": "Sacramento", "state_province": "California", "postal_code": "95818-2320", "country": "United States", "longitude": "-121.4899398", "latitude": "38.5607772", "phone": "9164699889", "website_url": "http://www.newhelvetiabrew.com", "state": "California", "street": "1730 Broadway"}, {"id": "c0b2baea-ccb7-4bd2-8793-9e2691a9a6ad", "name": "New Holland Brewing", "brewery_type": "planning", "address_1": null, "address_2": null, "address_3": null, "city": "Battle Creek", "state_province": "Michigan", "postal_code": "49017", "country": "United States", "longitude": null, "latitude": null, "phone": null, "website_url": null, "state": "Michigan", "street": null}, {"id": "c141e061-ebed-4b52-8ab6-3b5d53955f18", "name": "New Holland Brewing Co", "brewery_type": "regional", "address_1": "66 E 8th St", "address_2": null, "address_3": null, "city": "Holland", "state_province": "Michigan", "postal_code": "49423-3504", "country": "United States", "longitude": "-86.10411872", "latitude": "42.79010355", "phone": "6163556422", "website_url": "http://www.newhollandbrew.com", "state": "Michigan", "street": "66 E 8th St"}, {"id": "7228225d-87b3-450e-bb6d-838d21e0975f", "name": "New Holland Brewing Co - Production Facility", "brewery_type": "regional", "address_1": "690 Commerce Ct", "address_2": null, "address_3": null, "city": "Holland", "state_province": "Michigan", "postal_code": "49424-2913", "country": "United States", "longitude": null, "latitude": null, "phone": "6165102259", "website_url": null, "state": "Michigan", "street": "690 Commerce Ct"}, {"id": "03aa438e-fd51-47a7-a3ce-3c6fde02295c", "name": "New Image Brewing Co", "brewery_type": "brewpub", "address_1": "5622 Yukon St", "address_2": null, "address_3": null, "city": "Arvada", "state_province": "Colorado", "postal_code": "80002-2446", "country": "United States", "longitude": "-105.0824595", "latitude": "39.79938347", "phone": "7708811010", "website_url": "http://www.nibrewing.com", "state": "Colorado", "street": "5622 Yukon St"}, {"id": "c51a1926-490d-4558-a569-7664be014334", "name": "New Jersey Beer Co", "brewery_type": "micro", "address_1": "4201 Tonnelle Ave", "address_2": null, "address_3": null, "city": "North Bergen", "state_province": "New Jersey", "postal_code": "07047-2430", "country": "United States", "longitude": "-74.0428134", "latitude": "40.7714151", "phone": "2017588342", "website_url": "http://www.njbeerco.com", "state": "New Jersey", "street": "4201 Tonnelle Ave"}, {"id": "1f10e149-7bb3-43b4-9102-feebb8f5f65a", "name": "New Magnolia Brewing Co", "brewery_type": "micro", "address_1": "1616 Bevis St", "address_2": null, "address_3": null, "city": "Houston", "state_province": "Texas", "postal_code": "77008", "country": "United States", "longitude": null, "latitude": null, "phone": null, "website_url": "https://www.instagram.com/newmagnoliabrewing/?hl=en", "state": "Texas", "street": "1616 Bevis St"}, {"id": "bd61da27-2aa3-411f-aeff-6d141479c847", "name": "New Mexico State University Department Of Chemical", "brewery_type": "planning", "address_1": null, "address_2": null, "address_3": null, "city": "Las Cruces", "state_province": "New Mexico", "postal_code": "88003", "country": "United States", "longitude": null, "latitude": null, "phone": "5756461213", "website_url": "http://chme.nmsu.edu", "state": "New Mexico", "street": null}, {"id": "b3ffdca4-08b3-4759-9520-74691fd65bf6", "name": "New Oberpfalz Brewing", "brewery_type": "brewpub", "address_1": "121 E Main St", "address_2": null, "address_3": null, "city": "Griffith", "state_province": "Indiana", "postal_code": "46319-2243", "country": "United States", "longitude": "-87.42727571", "latitude": "41.52270212", "phone": "3127381308", "website_url": "http://www.newoberpfalz.com", "state": "Indiana", "street": "121 E Main St"}, {"id": "9eb2f4e3-a109-438b-8a64-61b3d572488c", "name": "New Orleans Lager and Ale Brewing (NOLA Brewing)", "brewery_type": "micro", "address_1": "3001 Tchoupitoulas St", "address_2": null, "address_3": null, "city": "New Orleans", "state_province": "Louisiana", "postal_code": "70115-1039", "country": "United States", "longitude": "-90.08141776", "latitude": "29.9199522", "phone": "5048969996", "website_url": "http://www.nolabrewing.com", "state": "Louisiana", "street": "3001 Tchoupitoulas St"}, {"id": "60ad3907-0555-4573-8d41-a669adfbc777", "name": "New Paltz Brewing Company", "brewery_type": "micro", "address_1": "7174 Route 209", "address_2": null, "address_3": null, "city": "Wawarsing", "state_province": "New York", "postal_code": "12489", "country": "United States", "longitude": null, "latitude": null, "phone": "8454193040", "website_url": "http://www.pfalzerbrau.com", "state": "New York", "street": "7174 Route 209"}, {"id": "d0ef1b88-ae8d-4d85-889c-16bf9f4fb58e", "name": "New Planet Beer Co", "brewery_type": "contract", "address_1": "3980 Broadway St Ste 103 # 116", "address_2": null, "address_3": null, "city": "Boulder", "state_province": "Colorado", "postal_code": "80304-1161", "country": "United States", "longitude": null, "latitude": null, "phone": "3034994978", "website_url": "http://www.newplanetbeer.com", "state": "Colorado", "street": "3980 Broadway St Ste 103 # 116"}, {"id": "e5f6f505-df0a-440a-a014-57a6cd59e21b", "name": "New Province Brewing Company", "brewery_type": "micro", "address_1": "1310 W Hudson Rd", "address_2": null, "address_3": null, "city": "Rogers", "state_province": "Arkansas", "postal_code": "72756-2311", "country": "United States", "longitude": "-94.13279216", "latitude": "36.355352", "phone": "4795313233", "website_url": "http://newprovincebrewing.com", "state": "Arkansas", "street": "1310 W Hudson Rd"}, {"id": "2d2814f6-493a-48aa-b037-1710e2926a61", "name": "New Realm Brewing", "brewery_type": "brewpub", "address_1": "550 Somerset Ter NE Unit 101", "address_2": null, "address_3": null, "city": "Atlanta", "state_province": "Georgia", "postal_code": "30306-4317", "country": "United States", "longitude": null, "latitude": null, "phone": "4049682778", "website_url": "http://www.newrealmbrewing.com", "state": "Georgia", "street": "550 Somerset Ter NE Unit 101"}, {"id": "285b5827-7b82-428b-856c-f12e3756c663", "name": "New Realm Brewing", "brewery_type": "planning", "address_1": null, "address_2": null, "address_3": null, "city": "Charlotte", "state_province": "North Carolina", "postal_code": "28203", "country": "United States", "longitude": null, "latitude": null, "phone": null, "website_url": null, "state": "North Carolina", "street": null}, {"id": "b2080e4b-22ae-4a79-b04c-933448cb98dc", "name": "New Realm Brewing", "brewery_type": "planning", "address_1": null, "address_2": null, "address_3": null, "city": "Virginia Beach", "state_province": "Virginia", "postal_code": "23454", "country": "United States", "longitude": null, "latitude": null, "phone": null, "website_url": null, "state": "Virginia", "street": null}, {"id": "41c942ce-4213-44eb-a73b-d6541d7a807c", "name": "New Republic Brewing", "brewery_type": "micro", "address_1": "11405 N Dowling Rd Ste C", "address_2": null, "address_3": null, "city": "College Station", "state_province": "Texas", "postal_code": "77845-8500", "country": "United States", "longitude": null, "latitude": null, "phone": "7134894667", "website_url": "http://www.nrb.beer", "state": "Texas", "street": "11405 N Dowling Rd Ste C"}, {"id": "c6d7e285-5fbb-4a5c-acc2-6d1555340ac2", "name": "New River Brewing", "brewery_type": "micro", "address_1": "9211 NC Hwy 194 N Unit A", "address_2": null, "address_3": null, "city": "Lansing", "state_province": "North Carolina", "postal_code": "28643", "country": "United States", "longitude": null, "latitude": null, "phone": "9194528367", "website_url": "http://www.newriverbrewing.beer", "state": "North Carolina", "street": "9211 NC Hwy 194 N Unit A"}, {"id": "612e347f-19d3-4bab-896a-ba6783ef3cd9", "name": "New Sarum Brewing", "brewery_type": "micro", "address_1": "109 N Lee St", "address_2": null, "address_3": null, "city": "Salisbury", "state_province": "North Carolina", "postal_code": "28144", "country": "United States", "longitude": "-80.46853163", "latitude": "35.66652728", "phone": "7043105048", "website_url": "http://www.newsarumbrewing.com", "state": "North Carolina", "street": "109 N Lee St"}, {"id": "d482fba0-cae2-4d98-b1ad-5de60ebef9ef", "name": "New Smyrna Beach Brewing Co", "brewery_type": "micro", "address_1": "143 Canal St", "address_2": null, "address_3": null, "city": "New Smyrna Beach", "state_province": "Florida", "postal_code": "32168-7067", "country": "United States", "longitude": "-80.92236384", "latitude": "29.02541495", "phone": "3869573802", "website_url": "http://www.newsmyrnabrewing.com", "state": "Florida", "street": "143 Canal St"}, {"id": "65d76230-d04a-4104-bec6-83cdb4431b7b", "name": "New South Brewing Co", "brewery_type": "micro", "address_1": "1109 Campbell St", "address_2": null, "address_3": null, "city": "Myrtle Beach", "state_province": "South Carolina", "postal_code": "29577-3527", "country": "United States", "longitude": "-78.88989113", "latitude": "33.69734797", "phone": "8439162337", "website_url": "http://www.newsouthbrewing.com", "state": "South Carolina", "street": "1109 Campbell St"}, {"id": "8b37edb9-f2e1-45a9-bafe-53bd74bceb9b", "name": "New Terrain Brewing Company", "brewery_type": "micro", "address_1": "16401 Table Mountain Pkwy", "address_2": null, "address_3": null, "city": "Golden", "state_province": "Colorado", "postal_code": "80403-1863", "country": "United States", "longitude": "-105.1851036", "latitude": "39.77781975", "phone": "7206977848", "website_url": "http://newterrainbrewing.com", "state": "Colorado", "street": "16401 Table Mountain Pkwy"}, {"id": "8a5156f9-1517-4f92-831c-20788cd4e0ef", "name": "New Trail Brewing Company", "brewery_type": "micro", "address_1": "240 Arch St Bldg 18", "address_2": null, "address_3": null, "city": "Williamsport", "state_province": "Pennsylvania", "postal_code": "17701-7810", "country": "United States", "longitude": null, "latitude": null, "phone": null, "website_url": "http://www.newtrailbrewing.com", "state": "Pennsylvania", "street": "240 Arch St Bldg 18"}, {"id": "88c6fe70-e9aa-4658-b6d8-0b4859be19aa", "name": "New Union Brewing", "brewery_type": "micro", "address_1": "400 W Main St", "address_2": null, "address_3": null, "city": "Lowell", "state_province": "Michigan", "postal_code": "49331-1617", "country": "United States", "longitude": "-85.355545", "latitude": "42.931398", "phone": "6163197171", "website_url": "http://www.newunionbrewery.com", "state": "Michigan", "street": "400 W Main St"}, {"id": "ca3fbf41-dcfb-478e-bede-15a75f61090b", "name": "New Village Brewery and Taproom", "brewery_type": "micro", "address_1": "702 Broad St", "address_2": null, "address_3": null, "city": "Oriental", "state_province": "North Carolina", "postal_code": "28571-9778", "country": "United States", "longitude": "-76.69472257", "latitude": "35.02921067", "phone": "2522496132", "website_url": "http://www.newvillagebrewery.com", "state": "North Carolina", "street": "702 Broad St"}, {"id": "1e59404f-441b-44b8-83d8-7ab28fb49828", "name": "New York Beer Project", "brewery_type": "brewpub", "address_1": "6933 S Transit Rd", "address_2": null, "address_3": null, "city": "Lockport", "state_province": "New York", "postal_code": "14094-6330", "country": "United States", "longitude": "-78.69614336", "latitude": "43.0897514", "phone": "7167436927", "website_url": "http://www.nybeerproject.com", "state": "New York", "street": "6933 S Transit Rd"}, {"id": "9b0aded2-f485-490f-b527-7cf3218af77b", "name": "Newaygo Brewing Co", "brewery_type": "brewpub", "address_1": "19 State Rd", "address_2": null, "address_3": null, "city": "Newaygo", "state_province": "Michigan", "postal_code": "49337-7951", "country": "United States", "longitude": "-85.79585808", "latitude": "43.42386642", "phone": "2314526551", "website_url": "http://www.newaygobrewing.com", "state": "Michigan", "street": "19 State Rd"}, {"id": "2c946155-4263-420c-8b11-eca20cdf51ff", "name": "Newburgh Brewing Company", "brewery_type": "micro", "address_1": "88 S Colden St", "address_2": null, "address_3": null, "city": "Newburgh", "state_province": "New York", "postal_code": "12550-5640", "country": "United States", "longitude": "-74.00811699", "latitude": "41.49659119", "phone": "8455692337", "website_url": "http://www.newburghbrewing.com", "state": "New York", "street": "88 S Colden St"}, {"id": "c94db1c9-bd81-4a4d-a3c6-bfab07f991cc", "name": "Newburyport Brewing Co", "brewery_type": "micro", "address_1": "4 New Pasture Rd", "address_2": null, "address_3": null, "city": "Newburyport", "state_province": "Massachusetts", "postal_code": "01950-4040", "country": "United States", "longitude": "-70.88715582", "latitude": "42.8019577", "phone": "9784638700", "website_url": "http://www.nbptbrewing.com", "state": "Massachusetts", "street": "4 New Pasture Rd"}, {"id": "3e49da3b-a8b2-454c-a97d-ada31a36d104", "name": "Newgrass Brewing Company", "brewery_type": "micro", "address_1": "213 S Lafayette St", "address_2": null, "address_3": null, "city": "Shelby", "state_province": "North Carolina", "postal_code": "28150-5349", "country": "United States", "longitude": "-81.54035756", "latitude": "35.29061978", "phone": "7049371280", "website_url": "http://www.newgrassbrewing.com", "state": "North Carolina", "street": "213 S Lafayette St"}, {"id": "a3649b1f-6f4d-47f4-b4e6-572cef4b510b", "name": "Newport Craft Bewing & Distilling Co", "brewery_type": "micro", "address_1": "293 JT Connell Hwy", "address_2": null, "address_3": null, "city": "Newport", "state_province": "Rhode Island", "postal_code": "02840", "country": "United States", "longitude": "-71.3159781", "latitude": "41.5140254", "phone": "4018495232", "website_url": "https://newportcraft.com", "state": "Rhode Island", "street": "293 JT Connell Hwy"}, {"id": "cc6d0abb-b1d2-4ff0-be2a-d5b506804d26", "name": "Next Door Brewing Company", "brewery_type": "brewpub", "address_1": "2439 Atwood Ave", "address_2": null, "address_3": null, "city": "Madison", "state_province": "Wisconsin", "postal_code": "53704-5604", "country": "United States", "longitude": "-89.34572018", "latitude": "43.09371275", "phone": "6087293683", "website_url": "http://www.nextdoorbrewing.com", "state": "Wisconsin", "street": "2439 Atwood Ave"}, {"id": "0d6daf79-df94-4045-966e-20dae3433511", "name": "Next Trick Brewing LLC", "brewery_type": "brewpub", "address_1": "2370 US Route 5", "address_2": null, "address_3": null, "city": "West Burke", "state_province": "Vermont", "postal_code": "05871-", "country": "United States", "longitude": null, "latitude": null, "phone": "8023281364", "website_url": "http://www.nexttrickbrewing.com", "state": "Vermont", "street": "2370 US Route 5"}, {"id": "b140291a-b48c-4ed0-bafd-fee68859e48f", "name": "Nexus Brewery", "brewery_type": "brewpub", "address_1": "4730 Pan American Fwy NE Ste D", "address_2": null, "address_3": null, "city": "Albuquerque", "state_province": "New Mexico", "postal_code": "87109-2204", "country": "United States", "longitude": null, "latitude": null, "phone": "5052424100", "website_url": "http://www.nexusbrewery.com", "state": "New Mexico", "street": "4730 Pan American Fwy NE Ste D"}]