[{"id": "81af98d0-0d70-4e84-8b4f-2804dd75e227", "name": "The Livery", "brewery_type": "brewpub", "address_1": "190 5th St", "address_2": null, "address_3": null, "city": "Benton Harbor", "state_province": "Michigan", "postal_code": "49022-3484", "country": "United States", "longitude": "-86.45330019", "latitude": "42.11813538", "phone": "2699258760", "website_url": "http://www.liverybrew.com", "state": "Michigan", "street": "190 5th St"}, {"id": "ed81bb82-b081-445b-98f2-0af438ce3ddc", "name": "The Lodge Restaurant & Microbrewery", "brewery_type": "brewpub", "address_1": "29042 Hide AWay Hills Rd", "address_2": null, "address_3": null, "city": "Sugar Grove", "state_province": "Ohio", "postal_code": "43155", "country": "United States", "longitude": null, "latitude": null, "phone": "7405697944", "website_url": "http://www.hideawayhillslodge.com", "state": "Ohio", "street": "29042 Hide AWay Hills Rd"}, {"id": "c091b80f-b526-406a-80bf-efe69faa3df0", "name": "The Lone Girl Brewing Company", "brewery_type": "brewpub", "address_1": "114 E Main St Ste 101", "address_2": null, "address_3": null, "city": "Waunakee", "state_province": "Wisconsin", "postal_code": "53597-1274", "country": "United States", "longitude": null, "latitude": null, "phone": "6088507175", "website_url": "http://www.thelonegirl.com", "state": "Wisconsin", "street": "114 E Main St Ste 101"}, {"id": "1659960d-4953-4546-8008-e7f54c0fbdc7", "name": "The Lone Wolfe Brewing Co.", "brewery_type": "brewpub", "address_1": "36 Mill St", "address_2": null, "address_3": null, "city": "Wolfeboro", "state_province": "New Hampshire", "postal_code": "03894-4485", "country": "United States", "longitude": "-71.21503305", "latitude": "43.58572415", "phone": "6035151273", "website_url": "http://www.thelonewolfe.com", "state": "New Hampshire", "street": "36 Mill St"}, {"id": "f940396c-fb8a-4849-a6b2-7d4a4653208f", "name": "The Long Man Brewery", "brewery_type": "micro", "address_1": "Church Farm", "address_2": null, "address_3": null, "city": "Polegate", "state_province": "East Sussex", "postal_code": "BN26 5RA", "country": "England", "longitude": "0.160243", "latitude": "50.799904", "phone": "1323871850", "website_url": "https://www.longmanbrewery.com/", "state": "East Sussex", "street": "Church Farm"}, {"id": "e9d9ae5d-f068-4cc5-bced-56218eb3f528", "name": "The Lost Borough Brewing Company", "brewery_type": "micro", "address_1": "543 Atlantic Ave", "address_2": null, "address_3": null, "city": "Rochester", "state_province": "New York", "postal_code": "14609-7316", "country": "United States", "longitude": "-77.56856467", "latitude": "43.15638738", "phone": "5854718122", "website_url": "http://www.lostboroughbrewing.com", "state": "New York", "street": "543 Atlantic Ave"}, {"id": "64bfb175-46f6-421c-9771-7fffb984c4c7", "name": "The Lost Druid", "brewery_type": "planning", "address_1": null, "address_2": null, "address_3": null, "city": "Atlanta", "state_province": "Georgia", "postal_code": "30307-2758", "country": "United States", "longitude": null, "latitude": null, "phone": null, "website_url": null, "state": "Georgia", "street": null}, {"id": "9250d166-8224-4a1b-a75f-7470c2f7a268", "name": "The Mack House Brewpub", "brewery_type": "brewpub", "address_1": "9118 W State Road 84", "address_2": null, "address_3": null, "city": "Davie", "state_province": "Florida", "postal_code": "33324-4416", "country": "United States", "longitude": null, "latitude": null, "phone": "9544745040", "website_url": "http://www.themackhouse.com", "state": "Florida", "street": "9118 W State Road 84"}, {"id": "a30a71ca-d8c6-4413-b939-f38667f4ef6e", "name": "The Malai Kitchen", "brewery_type": "brewpub", "address_1": "3699 McKinney Ave Ste 319", "address_2": null, "address_3": null, "city": "Dallas", "state_province": "Texas", "postal_code": "75204-4563", "country": "United States", "longitude": "-96.796677", "latitude": "32.808204", "phone": "2145997857", "website_url": "http://www.malaikitchen.com", "state": "Texas", "street": "3699 McKinney Ave Ste 319"}, {"id": "392f102d-b772-47ab-bed8-641e5b70a2b6", "name": "The Manhattan Project Beer Company", "brewery_type": "micro", "address_1": "15103 Surveyor Blvd", "address_2": null, "address_3": null, "city": "Addison", "state_province": "Texas", "postal_code": "75001-4316", "country": "United States", "longitude": "-96.845846", "latitude": "32.951222", "phone": null, "website_url": "http://www.manhattanproject.beer", "state": "Texas", "street": "15103 Surveyor Blvd"}, {"id": "0f1463ef-9547-4387-bcdd-cf2704a1f035", "name": "The Maple Grille LLC", "brewery_type": "brewpub", "address_1": "13105 Gratiot Rd", "address_2": null, "address_3": null, "city": "Hemlock", "state_province": "Michigan", "postal_code": "48626-8444", "country": "United States", "longitude": "-84.1741049", "latitude": "43.4157758", "phone": null, "website_url": null, "state": "Michigan", "street": "13105 Gratiot Rd"}, {"id": "5d3e644a-e243-4bfb-ba06-f62b21bb94e7", "name": "The Mason Jar Brewing Company", "brewery_type": "micro", "address_1": "29683 New Hub Dr Ste A", "address_2": null, "address_3": null, "city": "Menifee", "state_province": "California", "postal_code": "92586-6545", "country": "United States", "longitude": "-117.1772064", "latitude": "33.68931288", "phone": "9512445277", "website_url": "http://www.masonjarbrewing.com", "state": "California", "street": "29683 New Hub Dr Ste A"}, {"id": "419f3a76-0970-4e3b-90f9-e242deb0a782", "name": "The Millworks Brewery", "brewery_type": "brewpub", "address_1": "340 Verbeke St", "address_2": null, "address_3": null, "city": "Harrisburg", "state_province": "Pennsylvania", "postal_code": "17102-2052", "country": "United States", "longitude": "-76.8874206", "latitude": "40.270538", "phone": "7176954888", "website_url": "http://www.millworksharrisburg.com", "state": "Pennsylvania", "street": "340 Verbeke St"}, {"id": "f49b6091-444c-46ea-99d6-e798815ab4ee", "name": "The Mitten Brewing Co", "brewery_type": "brewpub", "address_1": "527 Leonard St NW", "address_2": null, "address_3": null, "city": "Grand Rapids", "state_province": "Michigan", "postal_code": "49504-4278", "country": "United States", "longitude": "-85.68101", "latitude": "42.98507733", "phone": "6166085612", "website_url": "http://www.mittenbrewing.com", "state": "Michigan", "street": "527 Leonard St NW"}, {"id": "7550c372-1e49-49f5-b7d9-764e260fdba5", "name": "The Mitten Brewing Company - Saugatuck", "brewery_type": "brewpub", "address_1": "329 Water St", "address_2": null, "address_3": null, "city": "Saugatuck", "state_province": "Michigan", "postal_code": "49453", "country": "United States", "longitude": "-86.20524129", "latitude": "42.65689129", "phone": "6166085612", "website_url": null, "state": "Michigan", "street": "329 Water St"}, {"id": "4d0ab1cf-bb3a-4432-8108-3bd91cb900d4", "name": "The Mitten Brewing Company Production Facility", "brewery_type": "micro", "address_1": "540 Leonard St NW", "address_2": null, "address_3": null, "city": "Grand Rapids", "state_province": "Michigan", "postal_code": "49504-4260", "country": "United States", "longitude": "-85.68100276", "latitude": "42.98491266", "phone": null, "website_url": null, "state": "Michigan", "street": "540 Leonard St NW"}, {"id": "91557e74-fcdb-496c-b10c-43a488ae4e11", "name": "The Neighborhood Beer Co.", "brewery_type": "micro", "address_1": "156 Epping Rd", "address_2": null, "address_3": null, "city": "Exeter", "state_province": "New Hampshire", "postal_code": "03833-4521", "country": "United States", "longitude": "-70.97431918", "latitude": "42.99880009", "phone": "6035126228", "website_url": "http://nhbeerco.com", "state": "New Hampshire", "street": "156 Epping Rd"}, {"id": "ea79cbe7-681e-4d92-8604-85cb892834ae", "name": "The New Buffalo Brewing Co. Inc", "brewery_type": "contract", "address_1": "11163 Main St", "address_2": null, "address_3": null, "city": "Clarence", "state_province": "New York", "postal_code": "14031-1701", "country": "United States", "longitude": "-78.57052941", "latitude": "42.98442517", "phone": "7162007275", "website_url": "http://www.newbuffalobrewing.com", "state": "New York", "street": "11163 Main St"}, {"id": "2198a974-f3cd-4290-83b7-a3d0600ad12d", "name": "The North Slope Brewing Company", "brewery_type": "brewpub", "address_1": "2439 Sr 309 Hwy", "address_2": null, "address_3": null, "city": "Dallas", "state_province": "Pennsylvania", "postal_code": "18612-9251", "country": "United States", "longitude": null, "latitude": null, "phone": "5702554012", "website_url": "http://www.northslopebrewing.com", "state": "Pennsylvania", "street": "2439 Sr 309 Hwy"}, {"id": "5e3c3edf-7aa5-4c52-92ef-769f6ac6e918", "name": "The Norwich Inn - Jasper Murdock's Alehouse", "brewery_type": "brewpub", "address_1": "325 Main St", "address_2": null, "address_3": null, "city": "Norwich", "state_province": "Vermont", "postal_code": "05055-9453", "country": "United States", "longitude": "-72.3091387", "latitude": "43.7150119", "phone": "8026491143", "website_url": "http://www.norwichinn.com", "state": "Vermont", "street": "325 Main St"}, {"id": "ef7f6bae-48fd-4583-b5cf-342c7a5987fe", "name": "The Old Bakery Beer Company", "brewery_type": "brewpub", "address_1": "400 Landmarks Blvd", "address_2": null, "address_3": null, "city": "Alton", "state_province": "Illinois", "postal_code": "62002-2405", "country": "United States", "longitude": null, "latitude": null, "phone": "6184631470", "website_url": null, "state": "Illinois", "street": "400 Landmarks Blvd"}, {"id": "5de171b9-729f-4203-bdb5-33aca95fdd46", "name": "The Olde Mecklenburg Brewery", "brewery_type": "regional", "address_1": "4150 Yancey Rd", "address_2": null, "address_3": null, "city": "Charlotte", "state_province": "North Carolina", "postal_code": "28217-1738", "country": "United States", "longitude": "-80.88195345", "latitude": "35.18741705", "phone": "7045255644", "website_url": "http://www.oldemeckbrew.com", "state": "North Carolina", "street": "4150 Yancey Rd"}, {"id": "b17e985e-6d4c-4887-9cd2-d88fce11b0c2", "name": "The Oozlefinch Craft Brewery", "brewery_type": "micro", "address_1": "81 Patch Rd", "address_2": null, "address_3": null, "city": "Fort Monroe", "state_province": "Virginia", "postal_code": "23651-1052", "country": "United States", "longitude": null, "latitude": null, "phone": "7572247042", "website_url": "http://www.oozlefinchbeers.com", "state": "Virginia", "street": "81 Patch Rd"}, {"id": "f6715a67-222b-4bed-802c-25b228aed9e0", "name": "The Other Farm Brewing Company", "brewery_type": "brewpub", "address_1": "128 E Philadelphia Ave Ste 1", "address_2": null, "address_3": null, "city": "Boyertown", "state_province": "Pennsylvania", "postal_code": "19512-1161", "country": "United States", "longitude": null, "latitude": null, "phone": "4844150741", "website_url": "http://www.theotherfarmbrewingcompany.com", "state": "Pennsylvania", "street": "128 E Philadelphia Ave Ste 1"}, {"id": "9ec433d3-96fc-4055-88ef-cdc1b2aa9caa", "name": "The Other Side of the Moon - Jamestown", "brewery_type": "brewpub", "address_1": "103 W Main St", "address_2": null, "address_3": null, "city": "Jamestown", "state_province": "North Carolina", "postal_code": "27282", "country": "United States", "longitude": "-79.93765165", "latitude": "35.99284597", "phone": "3633072887", "website_url": null, "state": "North Carolina", "street": "103 W Main St"}, {"id": "f6a4ecaa-2045-43ed-8563-9d4bf0af345f", "name": "The Outlaw Brewing Company", "brewery_type": "micro", "address_1": "215 Scotland Rd", "address_2": null, "address_3": null, "city": "Winchester", "state_province": "New Hampshire", "postal_code": "03470-3006", "country": "United States", "longitude": "-72.35620045", "latitude": "42.75012519", "phone": "4136279700", "website_url": "http://Www.theoutlawbrewingcompany.com", "state": "New Hampshire", "street": "215 Scotland Rd"}, {"id": "451c1c4a-fd8d-4cda-a43d-7cc527c8ff37", "name": "The Owls Brew", "brewery_type": "large", "address_1": "135 W 29th St Rm 602", "address_2": null, "address_3": null, "city": "New York", "state_province": "New York", "postal_code": "10001-5175", "country": "United States", "longitude": null, "latitude": null, "phone": "2125640218", "website_url": "http://www.theowlsbrew.com", "state": "New York", "street": "135 W 29th St Rm 602"}, {"id": "15c5f1c0-f36a-42a0-89ce-dfff6bf9636e", "name": "The Parlor", "brewery_type": "brewpub", "address_1": "205 Lake Ave", "address_2": null, "address_3": null, "city": "Traverse City", "state_province": "Michigan", "postal_code": "49684-2532", "country": "United States", "longitude": "-85.6204308", "latitude": "44.7601402", "phone": "2319414422", "website_url": "http://www.bigtoebrewery.com", "state": "Michigan", "street": "205 Lake Ave"}, {"id": "ddf0bca8-b865-460a-a287-19c2fd69d061", "name": "The Peak Brewing Company", "brewery_type": "brewpub", "address_1": "78491 US-40", "address_2": null, "address_3": null, "city": "Winter Park", "state_province": "Colorado", "postal_code": "80482", "country": "United States", "longitude": null, "latitude": null, "phone": "9707267951", "website_url": "http://www.thepeakwp.com", "state": "Colorado", "street": "78491 US-40"}, {"id": "1dd33c00-3a98-42bc-a33c-4c19da3a6a8b", "name": "The Peddler", "brewery_type": "brewpub", "address_1": "835 3rd Ave", "address_2": null, "address_3": null, "city": "Huntington", "state_province": "West Virginia", "postal_code": "25701", "country": "United States", "longitude": "-82.44527196", "latitude": "38.42165769", "phone": "3046910415", "website_url": null, "state": "West Virginia", "street": "835 3rd Ave"}, {"id": "044fc194-fa8d-41cb-8a8c-6b1d18b4b3bd", "name": "The Peoples Pint / Franklin County Brewing Co", "brewery_type": "brewpub", "address_1": "76 Hope St", "address_2": null, "address_3": null, "city": "Greenfield", "state_province": "Massachusetts", "postal_code": "01301-3573", "country": "United States", "longitude": "-72.59769229", "latitude": "42.58187599", "phone": "4137730333", "website_url": "http://www.thepeoplespint.com", "state": "Massachusetts", "street": "76 Hope St"}, {"id": "0bec1266-0d4a-4df2-bfb5-6b2c405c9983", "name": "The Perch Pub & Brewery", "brewery_type": "brewpub", "address_1": "232 S Wall St", "address_2": null, "address_3": null, "city": "Chandler", "state_province": "Arizona", "postal_code": "85225-9528", "country": "United States", "longitude": "-111.8424808", "latitude": "33.3000878", "phone": "4805808044", "website_url": "http://www.perchpubbrewery.com", "state": "Arizona", "street": "232 S Wall St"}, {"id": "916c862e-98d5-4dcb-aba7-20389e5676fd", "name": "The Phoenix Ale Brewery", "brewery_type": "micro", "address_1": "3002 E Washington St # 3002", "address_2": null, "address_3": null, "city": "Phoenix", "state_province": "Arizona", "postal_code": "85034-1518", "country": "United States", "longitude": "-111.9642922", "latitude": "33.4457883", "phone": "6022755049", "website_url": "http://phoenixale.com", "state": "Arizona", "street": "3002 E Washington St # 3002"}, {"id": "b351f9ac-ec78-4778-8dbf-a5359bdf5bd0", "name": "The Phoenix Brewing Company", "brewery_type": "micro", "address_1": "131 N Diamond St", "address_2": null, "address_3": null, "city": "Mansfield", "state_province": "Ohio", "postal_code": "44902-1331", "country": "United States", "longitude": "-82.51395188", "latitude": "40.76201837", "phone": "4195222552", "website_url": "http://www.phoenixbrewing.com", "state": "Ohio", "street": "131 N Diamond St"}, {"id": "3e98180b-d811-49d8-8085-f6a9f67af1ca", "name": "The Phoenix On Westheimer", "brewery_type": "brewpub", "address_1": "1915 Westheimer Rd", "address_2": null, "address_3": null, "city": "Houston", "state_province": "Texas", "postal_code": "77098-1521", "country": "United States", "longitude": "-95.4966157", "latitude": "29.7377481", "phone": "7135263100", "website_url": "http://www.phoenixow.com", "state": "Texas", "street": "1915 Westheimer Rd"}, {"id": "cdc5bcd0-ffab-47b9-a21b-bbd5f02c171b", "name": "The Plains Brewing Company", "brewery_type": "micro", "address_1": "515 N FM 179", "address_2": null, "address_3": null, "city": "Lubbock", "state_province": "Texas", "postal_code": "79416-9512", "country": "United States", "longitude": null, "latitude": null, "phone": "8067868583", "website_url": null, "state": "Texas", "street": "515 N FM 179"}, {"id": "0c76b63a-b885-4f71-9c03-1274cc347cb9", "name": "The Porterhouse Brewing Company", "brewery_type": "micro", "address_1": "3-4 Stag Industrial Estate", "address_2": "Ballyboggan Road", "address_3": "Dublin 11", "city": "Dublin", "state_province": "Dublin", "postal_code": "D11 AY91", "country": "Ireland", "longitude": "-6.2998473", "latitude": "53.3735147", "phone": "35318227415", "website_url": "http://www.porterhousebrewco.ie/", "state": "Dublin", "street": "3-4 Stag Industrial Estate"}, {"id": "7f7e73b4-7a05-4f3b-937a-b1dc33e43795", "name": "The Portsmouth Brewery", "brewery_type": "brewpub", "address_1": "56 Market St", "address_2": null, "address_3": null, "city": "Portsmouth", "state_province": "New Hampshire", "postal_code": "03801-3750", "country": "United States", "longitude": "-70.7576875", "latitude": "43.0780072", "phone": "6034311115", "website_url": "http://www.portsmouthbrewery.com", "state": "New Hampshire", "street": "56 Market St"}, {"id": "8d658be9-25c4-4c6c-8067-f2f48ca84796", "name": "The Post Brewing Co", "brewery_type": "brewpub", "address_1": "2027 13th St", "address_2": null, "address_3": null, "city": "Boulder", "state_province": "Colorado", "postal_code": "80302-5201", "country": "United States", "longitude": "-105.2788942", "latitude": "40.01847649", "phone": "7203723341", "website_url": "http://www.postbrewing.com", "state": "Colorado", "street": "2027 13th St"}, {"id": "fccbb48b-551d-4751-8fbc-42debc14a8f6", "name": "The Post Brewing Co", "brewery_type": "brewpub", "address_1": "105 W Emma St", "address_2": null, "address_3": null, "city": "Lafayette", "state_province": "Colorado", "postal_code": "80026-1501", "country": "United States", "longitude": "-105.0913165", "latitude": "39.99461105", "phone": "3035932066", "website_url": "http://www.postbrewing.com", "state": "Colorado", "street": "105 W Emma St"}, {"id": "64187393-244a-4e18-8fae-9628e3979dac", "name": "The Pour Farm", "brewery_type": "planning", "address_1": null, "address_2": null, "address_3": null, "city": "Union", "state_province": "Maine", "postal_code": "04862", "country": "United States", "longitude": null, "latitude": null, "phone": "5083805372", "website_url": "http://www.thepourfarm.com", "state": "Maine", "street": null}, {"id": "1c5234da-6871-4fb3-8c42-3ec063d6474c", "name": "The Proper Brewing Company", "brewery_type": "brewpub", "address_1": "117 W Broad St", "address_2": null, "address_3": null, "city": "Quakertown", "state_province": "Pennsylvania", "postal_code": "18951-1200", "country": "United States", "longitude": "-75.34137437", "latitude": "40.44177523", "phone": "2674905168", "website_url": "http://www.theproperbrewing.com", "state": "Pennsylvania", "street": "117 W Broad St"}, {"id": "c19087b5-c47d-4db7-ad1d-72a6b9d518d4", "name": "The Public Option", "brewery_type": "brewpub", "address_1": "1601 Rhode Island Ave NE", "address_2": null, "address_3": null, "city": "Washington", "state_province": "District of Columbia", "postal_code": "20018-1841", "country": "United States", "longitude": "-76.9817377", "latitude": "38.926148", "phone": "2023975129", "website_url": "http://www.thepublicoptiondc.com", "state": "District of Columbia", "street": "1601 Rhode Island Ave NE"}, {"id": "864ffc76-4334-4f8e-baa2-42c2d3a6605c", "name": "The Railyard Brewing Co", "brewery_type": "brewpub", "address_1": "12 W Jefferson St Ste 100", "address_2": null, "address_3": null, "city": "Montgomery", "state_province": "Alabama", "postal_code": "36104-2573", "country": "United States", "longitude": null, "latitude": null, "phone": "3342620080", "website_url": "http://www.railyardbrewingcompany.com", "state": "Alabama", "street": "12 W Jefferson St Ste 100"}, {"id": "549487d1-b744-4505-b3bf-47be3df2b59e", "name": "The Rare Barrel", "brewery_type": "micro", "address_1": "940 Parker St", "address_2": null, "address_3": null, "city": "Berkeley", "state_province": "California", "postal_code": "94710", "country": "United States", "longitude": "-122.2914445", "latitude": "37.8576209", "phone": "5109846585", "website_url": "http://www.therarebarrel.com", "state": "California", "street": "940 Parker St"}, {"id": "fafb891c-aace-44e9-b4d1-b554f0e6d72a", "name": "The Ravenous Pig / Cask & Larder", "brewery_type": "brewpub", "address_1": "565 W Fairbanks Ave", "address_2": null, "address_3": null, "city": "Winter Park", "state_province": "Florida", "postal_code": "32789-5005", "country": "United States", "longitude": "-81.3558211", "latitude": "28.5933111", "phone": "3212804200", "website_url": "http://www.caskandlarder.com", "state": "Florida", "street": "565 W Fairbanks Ave"}, {"id": "e7757500-d0bf-4060-8da7-be9734e4397d", "name": "The Red Baron", "brewery_type": "brewpub", "address_1": "2495 S Center Rd", "address_2": null, "address_3": null, "city": "Burton", "state_province": "Michigan", "postal_code": "48519-1145", "country": "United States", "longitude": "-83.63373728", "latitude": "42.9924788", "phone": "8107441310", "website_url": "http://www.baronburger.com", "state": "Michigan", "street": "2495 S Center Rd"}, {"id": "724e6386-5227-4fce-908f-d8b863723c99", "name": "The Red Yeti", "brewery_type": "brewpub", "address_1": "256 Spring St", "address_2": null, "address_3": null, "city": "Jeffersonville", "state_province": "Indiana", "postal_code": "47130-3340", "country": "United States", "longitude": "-85.7401585", "latitude": "38.2718249", "phone": "8122885788", "website_url": "http://www.redyetijeff.com", "state": "Indiana", "street": "256 Spring St"}, {"id": "b6948362-c439-4421-b6ec-ce0d56148f7e", "name": "The Redding Beer Company", "brewery_type": "micro", "address_1": "7 Main St", "address_2": null, "address_3": null, "city": "Redding", "state_province": "Connecticut", "postal_code": "06896-3203", "country": "United States", "longitude": null, "latitude": null, "phone": "2035879000", "website_url": "http://www.reddingbeer.com", "state": "Connecticut", "street": "7 Main St"}, {"id": "9364246f-38bc-4ab9-bf81-d4b4b2ca4527", "name": "The Referend Bier Blendery", "brewery_type": "micro", "address_1": "1595 Reed Rd Unit 2", "address_2": null, "address_3": null, "city": "Pennington", "state_province": "New Jersey", "postal_code": "08534-5007", "country": "United States", "longitude": null, "latitude": null, "phone": "6094740443", "website_url": "http://www.thereferend.com", "state": "New Jersey", "street": "1595 Reed Rd Unit 2"}, {"id": "a3d83ebc-e6b7-4fa0-b867-2c044200e21c", "name": "The Root Cellar", "brewery_type": "brewpub", "address_1": "215 N Lbj Dr", "address_2": null, "address_3": null, "city": "San Marcos", "state_province": "Texas", "postal_code": "78666-5621", "country": "United States", "longitude": null, "latitude": null, "phone": "5123925158", "website_url": "http://www.rootcellarcafe.com", "state": "Texas", "street": "215 N Lbj Dr"}, {"id": "f53459e0-fe45-468b-aa09-f16deebab0ae", "name": "The Runway By Patrick", "brewery_type": "brewpub", "address_1": "2044 Airport Rd", "address_2": null, "address_3": null, "city": "Napa", "state_province": "California", "postal_code": "94558-6208", "country": "United States", "longitude": "-122.2730244", "latitude": "38.2171014", "phone": "7072586115", "website_url": "http://www.therunwaybypatrick.com", "state": "California", "street": "2044 Airport Rd"}, {"id": "dacd265f-723f-4318-bbed-e747655487bb", "name": "The Sandlot Brewery At Coors Field", "brewery_type": "large", "address_1": "2145 Blake St", "address_2": null, "address_3": null, "city": "Denver", "state_province": "Colorado", "postal_code": "80205-2010", "country": "United States", "longitude": "-104.9926484", "latitude": "39.75571836", "phone": "3032981587", "website_url": "http://www.millercoors.com", "state": "Colorado", "street": "2145 Blake St"}, {"id": "d9c28f8d-fe6b-4964-9e4e-df297410772c", "name": "The Sanford Beverage Company, Inc. D.B.A. Steele Street Brewing", "brewery_type": "brewpub", "address_1": "300 S Steele St", "address_2": null, "address_3": null, "city": "Ionia", "state_province": "Michigan", "postal_code": "48846-2008", "country": "United States", "longitude": "-85.06766243", "latitude": "42.98135831", "phone": "6165234003", "website_url": "http://www.steelestreetbrewing.com", "state": "Michigan", "street": "300 S Steele St"}, {"id": "e46f6a31-62ee-4635-ad2d-d03ed6f0d69c", "name": "The Seventh Tap Brewing Project", "brewery_type": "planning", "address_1": null, "address_2": null, "address_3": null, "city": "Bossier City", "state_province": "Louisiana", "postal_code": "71112", "country": "United States", "longitude": null, "latitude": null, "phone": "3184025188", "website_url": "http://www.theseventhtap.com", "state": "Louisiana", "street": null}, {"id": "8408c237-93da-4528-9127-4429128898fe", "name": "The Shop Beer Co.", "brewery_type": "micro", "address_1": "922 W 1st St", "address_2": null, "address_3": null, "city": "Tempe", "state_province": "Arizona", "postal_code": "85281-2674", "country": "United States", "longitude": "-111.9514292", "latitude": "33.42917384", "phone": "6027174237", "website_url": "http://www.theshop.beer", "state": "Arizona", "street": "922 W 1st St"}, {"id": "6c14ba9d-86b9-4d26-befc-f49838604d3b", "name": "The SoCo Taphouse", "brewery_type": "brewpub", "address_1": "113 E Concho Ave Ste 210", "address_2": null, "address_3": null, "city": "San Angelo", "state_province": "Texas", "postal_code": "76903-5948", "country": "United States", "longitude": null, "latitude": null, "phone": "3257036218", "website_url": "http://www.socotaphouse.com", "state": "Texas", "street": "113 E Concho Ave Ste 210"}, {"id": "29d07a78-b6dd-457d-9d29-887fc809ddeb", "name": "The Southern Growl", "brewery_type": "planning", "address_1": null, "address_2": null, "address_3": null, "city": "Greer", "state_province": "South Carolina", "postal_code": "29650-1285", "country": "United States", "longitude": null, "latitude": null, "phone": null, "website_url": "http://www.thesoutherngrowl.com", "state": "South Carolina", "street": null}, {"id": "e7113db6-8cc9-40b3-a17e-fceb42d28fa8", "name": "The Split Batch Brewery", "brewery_type": "planning", "address_1": null, "address_2": null, "address_3": null, "city": "Buford", "state_province": "Georgia", "postal_code": "30519-2236", "country": "United States", "longitude": null, "latitude": null, "phone": "4049834303", "website_url": "http://www.splitbatchbrewery.com", "state": "Georgia", "street": null}, {"id": "c79755ff-d7f9-4879-8ff9-6493a771745c", "name": "The St. George Brewing Company", "brewery_type": "micro", "address_1": "204 Challenger Way", "address_2": null, "address_3": null, "city": "Hampton", "state_province": "Virginia", "postal_code": "23666-1365", "country": "United States", "longitude": "-76.39442194", "latitude": "37.09992525", "phone": "7578657781", "website_url": "http://www.stgbeer.com", "state": "Virginia", "street": "204 Challenger Way"}, {"id": "793d1d94-9504-437a-9603-a5c0ad987c95", "name": "The Stalking Horse", "brewery_type": "brewpub", "address_1": "10543 West Pico Blvd", "address_2": null, "address_3": null, "city": "Los Angeles", "state_province": "California", "postal_code": "90064", "country": "United States", "longitude": "-118.3273271", "latitude": "34.0478786", "phone": "4248327511", "website_url": "http://www.thestalkinghorsepub.com", "state": "California", "street": "10543 West Pico Blvd"}, {"id": "fd8670d9-f555-416a-b509-710d83602e87", "name": "The Star Spangled Brewing Co.", "brewery_type": "micro", "address_1": "1030 Progress Dr Ste E", "address_2": null, "address_3": null, "city": "Clarksville", "state_province": "Tennessee", "postal_code": "37040-5329", "country": "United States", "longitude": null, "latitude": null, "phone": "6153981237", "website_url": null, "state": "Tennessee", "street": "1030 Progress Dr Ste E"}, {"id": "bfa759d5-5b8b-43c5-93ef-0a3a4f785417", "name": "The Station U Brew", "brewery_type": "micro", "address_1": "211 W Stewart", "address_2": null, "address_3": null, "city": "Puyallup", "state_province": "Washington", "postal_code": "98371-4393", "country": "United States", "longitude": "-122.2913497", "latitude": "47.19252511", "phone": "2534663721", "website_url": null, "state": "Washington", "street": "211 W Stewart"}, {"id": "2f09262d-c9a9-495a-94ca-e9bbd14d564d", "name": "The Sycamore Brewing Cannery", "brewery_type": "micro", "address_1": "401 W 24th St", "address_2": null, "address_3": null, "city": "Charlotte", "state_province": "North Carolina", "postal_code": "28206-2664", "country": "United States", "longitude": "-80.825601", "latitude": "35.246262", "phone": "7049103821", "website_url": null, "state": "North Carolina", "street": "401 W 24th St"}, {"id": "2e8426ce-ade4-43f3-8966-ee839e1152ee", "name": "The Tank Brewing Company", "brewery_type": "micro", "address_1": "5100 NW 72nd Ave. Bay A-1", "address_2": null, "address_3": null, "city": "Miami", "state_province": "Florida", "postal_code": "33166", "country": "United States", "longitude": null, "latitude": null, "phone": "7868011554", "website_url": "http://www.thetankbrewing.com", "state": "Florida", "street": "5100 NW 72nd Ave. Bay A-1"}, {"id": "31a04853-9975-43ef-94c0-311c40b29959", "name": "The Tap Brewery", "brewery_type": "brewpub", "address_1": "204 W Kirkwood Ave", "address_2": null, "address_3": null, "city": "Bloomington", "state_province": "Indiana", "postal_code": "47404-5144", "country": "United States", "longitude": "-86.5350444", "latitude": "39.16650797", "phone": "8122878579", "website_url": "http://www.thetapbeerbar.com", "state": "Indiana", "street": "204 W Kirkwood Ave"}, {"id": "f726f11e-905b-4378-aefe-ab63a493900c", "name": "The Tap Brewing Company", "brewery_type": "brewpub", "address_1": "100 Washington St", "address_2": null, "address_3": null, "city": "Haverhill", "state_province": "Massachusetts", "postal_code": "01832-5500", "country": "United States", "longitude": "-71.084935", "latitude": "42.7728879", "phone": "6178358315", "website_url": "http://www.tapbrewingcompany.com", "state": "Massachusetts", "street": "100 Washington St"}, {"id": "cf1497a1-7064-4107-a8f9-8e8b40a01029", "name": "The Three Legs Brewing Co", "brewery_type": "taproom", "address_1": "Udimore Road", "address_2": null, "address_3": null, "city": "Rye", "state_province": "East Sussex", "postal_code": "TN31 6BX", "country": "England", "longitude": "0.611331", "latitude": "50.945341", "phone": "7939997622", "website_url": "http://www.thethreelegs.co.uk/", "state": "East Sussex", "street": "Udimore Road"}, {"id": "cd77bbc5-a335-4602-814a-a7f74f4e72e3", "name": "The Top-Notch Brewing Company Ltd", "brewery_type": "micro", "address_1": "Wickham Way", "address_2": null, "address_3": null, "city": "Haywards Heath", "state_province": "West Sussex", "postal_code": "RH16 1UQ", "country": "England", "longitude": "-0.10313", "latitude": "51.011152", "phone": "7963829368", "website_url": null, "state": "West Sussex", "street": "Wickham Way"}, {"id": "ccd36d53-22ef-480e-b3b1-ccbca84f821c", "name": "The Vanguard Brewpub & Distillery", "brewery_type": "brewpub", "address_1": "504 N King St", "address_2": null, "address_3": null, "city": "Hampton", "state_province": "Virginia", "postal_code": "23669-3057", "country": "United States", "longitude": "-76.34538304", "latitude": "37.03124955", "phone": "7576408100", "website_url": "http://www.thevanguard757.com", "state": "Virginia", "street": "504 N King St"}, {"id": "81089fba-f8db-41bf-83d2-d219bcf92f33", "name": "The VB Brewery", "brewery_type": "micro", "address_1": "6606 State Route 96", "address_2": null, "address_3": null, "city": "Victor", "state_province": "New York", "postal_code": "14564-1409", "country": "United States", "longitude": null, "latitude": null, "phone": "5859028166", "website_url": "http://www.thevbbrewery.com", "state": "New York", "street": "6606 State Route 96"}, {"id": "5c9bacd3-14c6-4852-aea5-378e2f5ea523", "name": "The Vegetable Hunter", "brewery_type": "brewpub", "address_1": "614 N 2nd St", "address_2": null, "address_3": null, "city": "Harrisburg", "state_province": "Pennsylvania", "postal_code": "17101-1001", "country": "United States", "longitude": "-76.8881545", "latitude": "40.2638045", "phone": "7176956229", "website_url": "http://www.TheVegetableHunter.com", "state": "Pennsylvania", "street": "614 N 2nd St"}, {"id": "d0eea2e9-77c1-4d78-82d6-3e3a07a928a8", "name": "The Veil Brewing Company", "brewery_type": "micro", "address_1": "1301 Roseneath Rd", "address_2": null, "address_3": null, "city": "Richmond", "state_province": "Virginia", "postal_code": "23230-4623", "country": "United States", "longitude": "-77.4753435", "latitude": "37.56830695", "phone": null, "website_url": "http://www.theveilbrewing.com", "state": "Virginia", "street": "1301 Roseneath Rd"}, {"id": "2a5bde61-4567-4617-9d72-a83063efef28", "name": "The Viking Braggot Company", "brewery_type": "micro", "address_1": "520 Commercial St Unit F", "address_2": null, "address_3": null, "city": "Eugene", "state_province": "Oregon", "postal_code": "97402-5347", "country": "United States", "longitude": "-123.0910621", "latitude": "44.03170858", "phone": "5416538371", "website_url": "http://www.drinkviking.com", "state": "Oregon", "street": "520 Commercial St Unit F"}, {"id": "f2e2ffbe-e126-494d-925a-6d79f87cadfc", "name": "The Village Corner", "brewery_type": "brewpub", "address_1": "6655 James B Rivers Dr", "address_2": null, "address_3": null, "city": "Stone Mountain", "state_province": "Georgia", "postal_code": "30083-2232", "country": "United States", "longitude": null, "latitude": null, "phone": "7704980329", "website_url": "http://www.germanresturant.com", "state": "Georgia", "street": "6655 James B Rivers Dr"}, {"id": "c1c83b65-fc4f-46ee-9570-819d7313ddd8", "name": "The Vine Brewery", "brewery_type": "brewpub", "address_1": "High Street", "address_2": null, "address_3": null, "city": "Worthing", "state_province": "West Sussex", "postal_code": "BN14 7NN", "country": "England", "longitude": "-0.393395", "latitude": "50.825427", "phone": "1903201121", "website_url": "http://www.vine-tarring.co.uk/", "state": "West Sussex", "street": "High Street"}, {"id": "b94e8965-6f1f-4e08-b741-38484f8cb4a9", "name": "The Vine N Hop Shop", "brewery_type": "micro", "address_1": "1327 N. Carpenter Rd.", "address_2": null, "address_3": null, "city": "Brunswick", "state_province": "Ohio", "postal_code": "44212", "country": "United States", "longitude": null, "latitude": null, "phone": "3306236940", "website_url": "http://www.vinehop.com", "state": "Ohio", "street": "1327 N. Carpenter Rd."}, {"id": "350e1253-9909-42bb-af12-d6885f149e97", "name": "The Virginia Beer Company", "brewery_type": "micro", "address_1": "401 Second St", "address_2": null, "address_3": null, "city": "Williamsburg", "state_province": "Virginia", "postal_code": "23185-4815", "country": "United States", "longitude": null, "latitude": null, "phone": "7573782903", "website_url": "http://www.virginiabeerco.com", "state": "Virginia", "street": "401 Second St"}, {"id": "ed37f635-4971-4cd5-900a-7ac0d60e2cdf", "name": "The Watchmakers Arms Brewery", "brewery_type": "micro", "address_1": "Goldstone Villas", "address_2": null, "address_3": null, "city": "Hove", "state_province": "East Sussex", "postal_code": "BN3 3RU", "country": "England", "longitude": "-0.17152", "latitude": "50.834247", "phone": "1273776307", "website_url": "https://www.thewatchmakersarms.co.uk/", "state": "East Sussex", "street": "Goldstone Villas"}, {"id": "95cdf2c9-d9ba-4114-9adc-619590c15688", "name": "The White Hag Brewery", "brewery_type": "micro", "address_1": "Unit 1, Block 2", "address_2": "Ballymote Business Park", "address_3": null, "city": "Ballymote", "state_province": "Sligo", "postal_code": "F56 YR52", "country": "Ireland", "longitude": "-8.5249166", "latitude": "54.0893242", "phone": null, "website_url": "http://www.thewhitehag.com/", "state": "Sligo", "street": "Unit 1, Block 2"}, {"id": "5c1cd6fb-fea3-43d7-871b-54c2019d8271", "name": "The Wicklow Brewery", "brewery_type": "micro", "address_1": "Main Street", "address_2": "Ballygillaroe", "address_3": null, "city": "Redcross", "state_province": "Wicklow", "postal_code": "A67 H799", "country": "Ireland", "longitude": "-6.1471627", "latitude": "52.8893592", "phone": "35340441661", "website_url": "http://www.wicklowbrewery.ie/", "state": "Wicklow", "street": "Main Street"}, {"id": "efcc1f93-659b-4e5b-aa97-5f8518c5ef36", "name": "The Wild Rover Brewery", "brewery_type": "micro", "address_1": "13921 Lynmar Blvd", "address_2": null, "address_3": null, "city": "Tampa", "state_province": "Florida", "postal_code": "33626", "country": "United States", "longitude": null, "latitude": null, "phone": "8134755995", "website_url": "http://www.thewildroverbrewery.com", "state": "Florida", "street": "13921 Lynmar Blvd"}, {"id": "efc1fdf0-8856-4d35-b0e9-d6ac2736043a", "name": "The Woodburn Brewery", "brewery_type": "micro", "address_1": "2800 Woodburn Ave", "address_2": null, "address_3": null, "city": "Cincinnati", "state_province": "Ohio", "postal_code": "45206-1793", "country": "United States", "longitude": "-84.4768398", "latitude": "39.1289592", "phone": "5132212337", "website_url": "http://www.woodburnbrewery.com", "state": "Ohio", "street": "2800 Woodburn Ave"}, {"id": "e8d5827b-34d2-4e73-83e9-8f0f118c3587", "name": "The Woodlands At SweetWater", "brewery_type": "micro", "address_1": "215 Ottley Dr", "address_2": null, "address_3": null, "city": "Atlanta", "state_province": "Georgia", "postal_code": "30324-3924", "country": "United States", "longitude": null, "latitude": null, "phone": "4046912537", "website_url": null, "state": "Georgia", "street": "215 Ottley Dr"}, {"id": "0d2a28a2-9eab-4f92-816a-4536275b23d0", "name": "The Wrecking Bar Brewpub", "brewery_type": "brewpub", "address_1": "292 Moreland Ave NE", "address_2": null, "address_3": null, "city": "Atlanta", "state_province": "Georgia", "postal_code": "30307-1953", "country": "United States", "longitude": "-84.3496422", "latitude": "33.762309", "phone": "4042212600", "website_url": "http://www.wreckingbarbrewpub.com", "state": "Georgia", "street": "292 Moreland Ave NE"}, {"id": "82cf46b2-ab8d-4efd-9f75-a3e910c9a9bb", "name": "There Does Not Exist", "brewery_type": "planning", "address_1": null, "address_2": null, "address_3": null, "city": "San Luis Obispo", "state_province": "California", "postal_code": "93401", "country": "United States", "longitude": "-120.6596156", "latitude": "35.2827525", "phone": null, "website_url": "http://www.theredoesnotexist.com", "state": "California", "street": null}, {"id": "714524c7-19aa-4b05-9a40-72f641b91d3d", "name": "These Guys Brewing Company", "brewery_type": "brewpub", "address_1": "78 Franklin St", "address_2": null, "address_3": null, "city": "Norwich", "state_province": "Connecticut", "postal_code": "06360-5806", "country": "United States", "longitude": "-72.07474352", "latitude": "41.52487646", "phone": "8609498550", "website_url": "http://www.theseguysbrewig.com", "state": "Connecticut", "street": "78 Franklin St"}, {"id": "b9faff23-c49c-4adb-a11c-5672cd383961", "name": "Thew Brewing Company", "brewery_type": "micro", "address_1": "301 2nd Ave", "address_2": null, "address_3": null, "city": "Cedar Rapids", "state_province": "Iowa", "postal_code": "52404", "country": "United States", "longitude": "-91.67294", "latitude": "42.035746", "phone": "3193438439", "website_url": "http://www.thewbrew.com", "state": "Iowa", "street": "301 2nd Ave"}, {"id": "566c3a39-7a96-460d-b55a-89ea82f6ca34", "name": "Thimble Island Brewery", "brewery_type": "micro", "address_1": "16 Business Park Dr", "address_2": null, "address_3": null, "city": "Branford", "state_province": "Connecticut", "postal_code": "06405-2924", "country": "United States", "longitude": "-72.77202768", "latitude": "41.29695786", "phone": "2032082827", "website_url": "http://www.thimbleislandbrewery.com", "state": "Connecticut", "street": "16 Business Park Dr"}, {"id": "f26c65be-a08b-4bb5-a053-5a0c63ae4ff0", "name": "Thin Man Brewery", "brewery_type": "brewpub", "address_1": "486 Elmwood Ave", "address_2": null, "address_3": null, "city": "Buffalo", "state_province": "New York", "postal_code": "14222-2014", "country": "United States", "longitude": "-78.87720285", "latitude": "42.91037815", "phone": "7169234100", "website_url": "http://www.thinmanbrewery.com", "state": "New York", "street": "486 Elmwood Ave"}, {"id": "e56e71b6-8a59-47b5-a4ee-b91451ad4d81", "name": "Think Tank Brew Lab", "brewery_type": "planning", "address_1": null, "address_2": null, "address_3": null, "city": "Greenville", "state_province": "South Carolina", "postal_code": "29607", "country": "United States", "longitude": null, "latitude": null, "phone": null, "website_url": "http://www.thinktankbrewlab.com", "state": "South Carolina", "street": null}, {"id": "0fd31f1d-0bc5-402a-ab2c-86d414218398", "name": "Third Barrel Brewing", "brewery_type": "micro", "address_1": "Bluebell Avenue", "address_2": "Bluebell Industrial Estate", "address_3": "Dublin 12", "city": "Dublin", "state_province": "Dublin", "postal_code": "D12 NPF9", "country": "Ireland", "longitude": "-6.3506651", "latitude": "53.3308805", "phone": "353014604387", "website_url": "https://thirdbarrel.com/", "state": "Dublin", "street": "Bluebell Avenue"}, {"id": "96286af2-3741-43d0-a059-a42f8ea584d0", "name": "Third Base Brewery", "brewery_type": "brewpub", "address_1": "500 Blairs Ferry Rd NE Ste 2", "address_2": null, "address_3": null, "city": "Cedar Rapids", "state_province": "Iowa", "postal_code": "52402-1466", "country": "United States", "longitude": "-91.639755", "latitude": "42.035164", "phone": "3193789090", "website_url": "http://www.Thirdbasebrew.com", "state": "Iowa", "street": "500 Blairs Ferry Rd NE Ste 2"}, {"id": "261457bf-6164-49da-b03e-88ce62b1ce17", "name": "Third Eye Brewery", "brewery_type": "planning", "address_1": null, "address_2": null, "address_3": null, "city": "Cincinnati", "state_province": "Ohio", "postal_code": "45246", "country": "United States", "longitude": null, "latitude": null, "phone": null, "website_url": "http://www.thirdeyebrewingcompany.com", "state": "Ohio", "street": null}, {"id": "f3c4eedf-18d8-4005-9b92-5bb286560290", "name": "Third Monk Brewing Co", "brewery_type": "micro", "address_1": "228 S Lafayette St", "address_2": null, "address_3": null, "city": "South Lyon", "state_province": "Michigan", "postal_code": "48178-1406", "country": "United States", "longitude": "-83.65116644", "latitude": "42.45482138", "phone": "2482786366", "website_url": "http://www.thirdmonkbrewingco.com", "state": "Michigan", "street": "228 S Lafayette St"}, {"id": "33253e4f-6acd-4cf7-8ed6-2fbabee79b2b", "name": "Third Nature Brewing Co.", "brewery_type": "planning", "address_1": null, "address_2": null, "address_3": null, "city": "Rockford", "state_province": "Michigan", "postal_code": "49341", "country": "United States", "longitude": null, "latitude": null, "phone": null, "website_url": null, "state": "Michigan", "street": null}, {"id": "9a7195db-8207-4809-b558-6eea7cb928ea", "name": "Third Place Brewing", "brewery_type": "micro", "address_1": "630 E Douglas Ave  Suite #150", "address_2": null, "address_3": null, "city": "Wichita", "state_province": "Kansas", "postal_code": "67202-3537", "country": "United States", "longitude": null, "latitude": null, "phone": null, "website_url": "http://www.thirdplacebrew.com", "state": "Kansas", "street": "630 E Douglas Ave  Suite #150"}, {"id": "e63045b8-37a7-41c9-b5e3-6fbb87d2f388", "name": "Third Rail Beer", "brewery_type": "contract", "address_1": "928 Broadway Ste 902", "address_2": null, "address_3": null, "city": "New York", "state_province": "New York", "postal_code": "10010-8139", "country": "United States", "longitude": "-73.9893474", "latitude": "40.7400479", "phone": null, "website_url": "http://www.thirdrailbeer.com", "state": "New York", "street": "928 Broadway Ste 902"}, {"id": "1280bcdc-bead-4120-9d6b-003ee242be0f", "name": "Third Space Brewing", "brewery_type": "micro", "address_1": "1505 W Saint Paul Ave", "address_2": null, "address_3": null, "city": "Milwaukee", "state_province": "Wisconsin", "postal_code": "53233", "country": "United States", "longitude": "-87.9146199", "latitude": "43.0346679", "phone": "4149092337", "website_url": "http://www.thirdspacebrewing.com", "state": "Wisconsin", "street": "1505 W Saint Paul Ave"}, {"id": "c1196b07-ded4-4877-9b8d-999a142f1378", "name": "Third State Brewing", "brewery_type": "micro", "address_1": "352 High St", "address_2": null, "address_3": null, "city": "Burlington", "state_province": "New Jersey", "postal_code": "08016-4412", "country": "United States", "longitude": "-74.85841925", "latitude": "40.07803141", "phone": "6093871620", "website_url": "http://www.thirdstatebrewing.com", "state": "New Jersey", "street": "352 High St"}, {"id": "56670487-bac3-4ba0-aeff-5c75df7c3ad7", "name": "Third Street Aleworks", "brewery_type": "brewpub", "address_1": "610 3rd St", "address_2": null, "address_3": null, "city": "Santa Rosa", "state_province": "California", "postal_code": "95404-4418", "country": "United States", "longitude": "-122.7132175", "latitude": "38.43982595", "phone": "7075233060", "website_url": "http://www.thirdstreetaleworks.com", "state": "California", "street": "610 3rd St"}, {"id": "d6548df7-6909-4410-84b6-ca15e02821ab", "name": "Third Street Brewhouse", "brewery_type": "regional", "address_1": "219 Red River Ave N", "address_2": null, "address_3": null, "city": "Cold Spring", "state_province": "Minnesota", "postal_code": "56320-1624", "country": "United States", "longitude": "-94.42888016", "latitude": "45.45859495", "phone": "3206853690", "website_url": "http://www.thirdstreetbrewhouse.com", "state": "Minnesota", "street": "219 Red River Ave N"}, {"id": "cfd5ec0b-09e6-4d89-b56a-e0a46f1a89f2", "name": "Third Wheel Brewing", "brewery_type": "brewpub", "address_1": "4008 N Service Rd", "address_2": null, "address_3": null, "city": "Saint Peters", "state_province": "Missouri", "postal_code": "63376-6462", "country": "United States", "longitude": "-90.57023315", "latitude": "38.79578116", "phone": "6363239810", "website_url": "http://www.thirdwheelbrewing.com", "state": "Missouri", "street": "4008 N Service Rd"}, {"id": "cb3230ed-ad40-4e87-88fa-e8086b13710d", "name": "Third Window Brewing", "brewery_type": "brewpub", "address_1": "406 E Haley St Ste 3", "address_2": null, "address_3": null, "city": "Santa Barbara", "state_province": "California", "postal_code": "93101-1740", "country": "United States", "longitude": "-119.6905176", "latitude": "34.42106268", "phone": "8059795090", "website_url": "http://www.thirdwindowbrewing.com", "state": "California", "street": "406 E Haley St Ste 3"}, {"id": "cd923cb5-4ade-4303-888c-ab136b9fc616", "name": "Thirsty Bro Brewing", "brewery_type": "micro", "address_1": "141 E Main St", "address_2": null, "address_3": null, "city": "Royse City", "state_province": "Texas", "postal_code": "75189-3712", "country": "United States", "longitude": "-96.33193039", "latitude": "32.97521439", "phone": "2818417246", "website_url": "http://www.ThirstyBroBrewingCo.com", "state": "Texas", "street": "141 E Main St"}, {"id": "3a6986ab-3cfc-4301-9689-aff66afb46d7", "name": "Thirsty Dog Brewing Company", "brewery_type": "micro", "address_1": "529 Grant St Ste 103", "address_2": null, "address_3": null, "city": "Akron", "state_province": "Ohio", "postal_code": "44311-1184", "country": "United States", "longitude": "-81.51788487", "latitude": "41.0698532", "phone": "3302522739", "website_url": "http://www.thirstydog.com", "state": "Ohio", "street": "529 Grant St Ste 103"}, {"id": "1cb2123e-2834-48e5-a609-48294c80f741", "name": "Thirsty Farmer Brew Works", "brewery_type": "brewpub", "address_1": "290 Cashtown Road", "address_2": null, "address_3": null, "city": "Biglerville", "state_province": "Pennsylvania", "postal_code": "17307", "country": "United States", "longitude": null, "latitude": null, "phone": "7176778842", "website_url": null, "state": "Pennsylvania", "street": "290 Cashtown Road"}, {"id": "86bbdd3d-05eb-4bbc-a96f-acdf06161539", "name": "Thirsty Monk Brewery", "brewery_type": "brewpub", "address_1": "92 Patton Ave", "address_2": null, "address_3": null, "city": "Asheville", "state_province": "North Carolina", "postal_code": "28801-3315", "country": "United States", "longitude": "-82.55531475", "latitude": "35.59410425", "phone": "8282545470", "website_url": "http://www.monkpub.com", "state": "North Carolina", "street": "92 Patton Ave"}, {"id": "5921ed43-ac72-4a70-800a-c29938c1feb5", "name": "Thirsty Monk Pub Brewery", "brewery_type": "micro", "address_1": "1604 E 17th Ave", "address_2": null, "address_3": null, "city": "Denver", "state_province": "Colorado", "postal_code": "80218-1621", "country": "United States", "longitude": "-104.9682508", "latitude": "39.743154", "phone": null, "website_url": null, "state": "Colorado", "street": "1604 E 17th Ave"}, {"id": "9315fc33-084f-4cb6-857b-73b8afa0d7e7", "name": "Thirsty Nomad Brewing", "brewery_type": "micro", "address_1": "4402 Stuart Andrew Blvd Ste A", "address_2": null, "address_3": null, "city": "Charlotte", "state_province": "North Carolina", "postal_code": "28217-1520", "country": "United States", "longitude": null, "latitude": null, "phone": "7049400947", "website_url": "http://www.thirstynomadbrewing.com", "state": "North Carolina", "street": "4402 Stuart Andrew Blvd Ste A"}, {"id": "eec21616-2b23-4863-a3fd-9cc5fe3bf108", "name": "Thirsty Pagan Brewing Co", "brewery_type": "brewpub", "address_1": "1623 Broadway St", "address_2": null, "address_3": null, "city": "Superior", "state_province": "Wisconsin", "postal_code": "54880-1616", "country": "United States", "longitude": "-92.1021385", "latitude": "46.7267785", "phone": "7153942500", "website_url": "http://www.thirstypaganbrewing.com", "state": "Wisconsin", "street": "1623 Broadway St"}, {"id": "04f0b99c-2b76-48a7-8314-bfeb665269c5", "name": "Thirsty Planet Brewing Co", "brewery_type": "micro", "address_1": "8201 S Congress Ave", "address_2": null, "address_3": null, "city": "Austin", "state_province": "Texas", "postal_code": "78745-7305", "country": "United States", "longitude": "-97.7487141", "latitude": "30.2521655", "phone": "5128260948", "website_url": "http://www.thirstyplanet.net", "state": "Texas", "street": "8201 S Congress Ave"}, {"id": "55d1e39f-f8ec-4b22-a153-a3ddc6a86615", "name": "Thirsty Souls Community Brewing", "brewery_type": "micro", "address_1": "238 Market St", "address_2": null, "address_3": null, "city": "Mount Airy", "state_province": "North Carolina", "postal_code": "27030-3514", "country": "United States", "longitude": "-80.6087621", "latitude": "36.5008814", "phone": null, "website_url": "http://www.thirstysoulscommunitybrewing.com", "state": "North Carolina", "street": "238 Market St"}, {"id": "4abae0ae-51e8-4a47-99cd-83ec76e3a6df", "name": "Thirsty Street Brewing", "brewery_type": "brewpub", "address_1": "3008 1st Ave N", "address_2": null, "address_3": null, "city": "Billings", "state_province": "Montana", "postal_code": "59101-2134", "country": "United States", "longitude": "-108.5083676", "latitude": "45.78076846", "phone": "4069693200", "website_url": "http://www.thirstystreet.com", "state": "Montana", "street": "3008 1st Ave N"}, {"id": "3ed13b51-5dd1-40a6-a6a8-6b27c1bce3e7", "name": "ThirstyBear Organic Brewery", "brewery_type": "brewpub", "address_1": "661 Howard St", "address_2": null, "address_3": null, "city": "San Francisco", "state_province": "California", "postal_code": "94105-3915", "country": "United States", "longitude": "-122.399512", "latitude": "37.785543", "phone": "4159740905", "website_url": "http://www.thirstybear.com", "state": "California", "street": "661 Howard St"}, {"id": "6fbbea2c-a936-4db4-9583-f2bf661ed22f", "name": "Thomas Creek Brewery", "brewery_type": "micro", "address_1": "2054 Piedmont Hwy", "address_2": null, "address_3": null, "city": "Greenville", "state_province": "South Carolina", "postal_code": "29605-4840", "country": "United States", "longitude": "-82.42335755", "latitude": "34.7966767", "phone": "8646051166", "website_url": "http://www.thomascreekbeer.com", "state": "South Carolina", "street": "2054 Piedmont Hwy"}, {"id": "c4ce03ed-4156-496f-a4b3-57d27cda9de4", "name": "Thomas Hooker Brewing Co LLC", "brewery_type": "micro", "address_1": "16 Tobey Rd", "address_2": null, "address_3": null, "city": "Bloomfield", "state_province": "Connecticut", "postal_code": "06002-3522", "country": "United States", "longitude": "-72.7115431", "latitude": "41.8089235", "phone": "8602423111", "website_url": "http://www.hookerbeer.com", "state": "Connecticut", "street": "16 Tobey Rd"}, {"id": "354effc2-1628-434f-bf21-1badf4447b4b", "name": "Thompson Brewing Co", "brewery_type": "brewpub", "address_1": "9900 Indiana Ave Ste 7", "address_2": null, "address_3": null, "city": "Riverside", "state_province": "California", "postal_code": "92503-5498", "country": "United States", "longitude": "-117.4495247", "latitude": "33.90930805", "phone": "9519560480", "website_url": "http://www.thompsonbrewing.com", "state": "California", "street": "9900 Indiana Ave Ste 7"}, {"id": "11074879-0fa1-4bbb-956e-d3d00a47262b", "name": "Thorn Brewing Co", "brewery_type": "micro", "address_1": "1745 National Ave.", "address_2": null, "address_3": null, "city": "San Diego", "state_province": "California", "postal_code": "92113-1010", "country": "United States", "longitude": "-117.147735", "latitude": "32.702171", "phone": null, "website_url": null, "state": "California", "street": "1745 National Ave."}, {"id": "687e4cd5-76a2-4d9b-9ec8-78af03aa2027", "name": "Thorn Street Brewery", "brewery_type": "micro", "address_1": "3174 Thorn St", "address_2": null, "address_3": null, "city": "San Diego", "state_province": "California", "postal_code": "92104-4636", "country": "United States", "longitude": "-117.125379", "latitude": "32.739337", "phone": "6195012739", "website_url": "http://www.thornstreetbrew.com", "state": "California", "street": "3174 Thorn St"}, {"id": "0c110b22-05b3-4fc1-b5e4-7e8d370a1e15", "name": "Thornapple Brewing Company", "brewery_type": "micro", "address_1": "6262 28th st SE", "address_2": null, "address_3": null, "city": "Grand rapids", "state_province": "Michigan", "postal_code": "49546", "country": "United States", "longitude": "-85.6506666", "latitude": "42.9128114", "phone": "6164226209", "website_url": "http://Www.thornapplebrewing.com", "state": "Michigan", "street": "6262 28th st SE"}, {"id": "4fb64914-6b83-4f34-b439-863aa2859e25", "name": "Thousand Oaks Brewing Co.", "brewery_type": "micro", "address_1": "3200 Woodall Dr Unit C1", "address_2": null, "address_3": null, "city": "Cedar Park", "state_province": "Texas", "postal_code": "78613-7773", "country": "United States", "longitude": null, "latitude": null, "phone": "5126867999", "website_url": "http://www.thousandoaksbrewing.com", "state": "Texas", "street": "3200 Woodall Dr Unit C1"}, {"id": "83d92319-f24d-4946-a83b-b08362541b0a", "name": "Thr3e Punks Ale", "brewery_type": "micro", "address_1": "259 Third Ave", "address_2": null, "address_3": null, "city": "Chula Vista", "state_province": "California", "postal_code": "91910-2721", "country": "United States", "longitude": "-117.080107", "latitude": "32.642827", "phone": "6198579092", "website_url": "http://3punkales.com/red/index.html", "state": "California", "street": "259 Third Ave"}, {"id": "33f3340a-9c62-4071-be56-9c352fcb9857", "name": "Thr3e Wise Men Brewing Co", "brewery_type": "brewpub", "address_1": "1021 Broad Ripple Ave", "address_2": null, "address_3": null, "city": "Indianapolis", "state_province": "Indiana", "postal_code": "46220-2034", "country": "United States", "longitude": null, "latitude": null, "phone": "3172555151", "website_url": null, "state": "Indiana", "street": "1021 Broad Ripple Ave"}, {"id": "9dfc4ee7-0740-448e-9d66-f6b06eafb36d", "name": "Three 3's Brewery", "brewery_type": "micro", "address_1": "50 13th St", "address_2": null, "address_3": null, "city": "Hammonton", "state_province": "New Jersey", "postal_code": "08037-1559", "country": "United States", "longitude": "-74.81147261", "latitude": "39.6385625", "phone": "7328141396", "website_url": "http://www.three3sbrewing.com", "state": "New Jersey", "street": "50 13th St"}, {"id": "3a7a531f-4700-4a37-9ef7-573c1a3264ff", "name": "Three Acre Brewery Limited", "brewery_type": "micro", "address_1": "Beechy Road", "address_2": null, "address_3": null, "city": "Uckfield", "state_province": "East Sussex", "postal_code": "TN22 5JG", "country": "England", "longitude": "0.161644", "latitude": "50.944538", "phone": "1825891144", "website_url": "https://threeacrebrewery.com/", "state": "East Sussex", "street": "Beechy Road"}, {"id": "075e57e0-0eaf-482b-8ac2-41034f63c5a1", "name": "Three Barrel Brewing Co", "brewery_type": "brewpub", "address_1": "475 Grand Ave", "address_2": null, "address_3": null, "city": "del Norte", "state_province": "Colorado", "postal_code": "81132-2204", "country": "United States", "longitude": "-106.3567109", "latitude": "37.6790756", "phone": "7196570681", "website_url": "http://www.threebarrelbrew.com", "state": "Colorado", "street": "475 Grand Ave"}, {"id": "5c8d8884-ab03-4de2-9370-2cd781eb7b07", "name": "Three Blondes Brewing", "brewery_type": "brewpub", "address_1": "1875 Phoenix St", "address_2": null, "address_3": null, "city": "South Haven", "state_province": "Michigan", "postal_code": "49090-7151", "country": "United States", "longitude": "-86.2642391", "latitude": "42.4033183", "phone": null, "website_url": "http://www.threeblondesbrewing.com", "state": "Michigan", "street": "1875 Phoenix St"}, {"id": "19ad46cc-8102-47eb-bc11-0f91546e6e13", "name": "Three Bridges Brewing / Off the Wagon Brewery", "brewery_type": "brewpub", "address_1": "2107 Tamiami Trl S", "address_2": null, "address_3": null, "city": "Venice", "state_province": "Florida", "postal_code": "34293-5011", "country": "United States", "longitude": "-82.3913649", "latitude": "27.0497931", "phone": "9414972048", "website_url": "http://www.otwbar.com", "state": "Florida", "street": "2107 Tamiami Trl S"}, {"id": "0d600fbf-886a-4337-9a3a-ddf34ee381a0", "name": "Three Bull Brewing Co", "brewery_type": "micro", "address_1": "809 19th St", "address_2": null, "address_3": null, "city": "Snohomish", "state_province": "Washington", "postal_code": "98290-1444", "country": "United States", "longitude": "-122.0917086", "latitude": "47.93474746", "phone": "2065505244", "website_url": "http://www.threebullbrewing.com", "state": "Washington", "street": "809 19th St"}, {"id": "de20c7b0-de7a-486a-8602-554e483719aa", "name": "Three Creeks Brewing Co", "brewery_type": "brewpub", "address_1": "721 Desperado Ct", "address_2": null, "address_3": null, "city": "Sisters", "state_province": "Oregon", "postal_code": "97759-9514", "country": "United States", "longitude": "-121.534944", "latitude": "44.285254", "phone": "5415491963", "website_url": "http://www.threecreeksbrewing.com", "state": "Oregon", "street": "721 Desperado Ct"}, {"id": "2bdd94ec-ba41-46d3-9835-05f1eb730391", "name": "Three Creeks Production", "brewery_type": "micro", "address_1": "265 E. Barclay Dr.", "address_2": null, "address_3": null, "city": "Sisters", "state_province": "Oregon", "postal_code": "97759-9514", "country": "United States", "longitude": "-121.5480908", "latitude": "44.29710192", "phone": "5415491963", "website_url": null, "state": "Oregon", "street": "265 E. Barclay Dr."}, {"id": "27564880-047a-443c-a11b-848da3b04c62", "name": "Three Empires Brewing Company, LLC", "brewery_type": "planning", "address_1": null, "address_2": null, "address_3": null, "city": "Pearland", "state_province": "Texas", "postal_code": "77584", "country": "United States", "longitude": null, "latitude": null, "phone": null, "website_url": null, "state": "Texas", "street": null}, {"id": "a72dd018-8329-4112-b81e-05efb191ca47", "name": "Three Floyds Brewing Co", "brewery_type": "regional", "address_1": "9750 Indiana Pkwy", "address_2": null, "address_3": null, "city": "Munster", "state_province": "Indiana", "postal_code": "46321-4004", "country": "United States", "longitude": null, "latitude": null, "phone": "2199223565", "website_url": "http://www.3floyds.com", "state": "Indiana", "street": "9750 Indiana Pkwy"}, {"id": "853afac1-06cb-4b7c-874a-5b9c3edfd67d", "name": "Three Forks Bakery & Brewing Company", "brewery_type": "brewpub", "address_1": "211 Commercial St", "address_2": null, "address_3": null, "city": "Nevada City", "state_province": "California", "postal_code": "95959-2506", "country": "United States", "longitude": "-121.017467", "latitude": "39.26299798", "phone": "5304708333", "website_url": "http://threeforksnc.com", "state": "California", "street": "211 Commercial St"}, {"id": "994b7ef7-6d89-4f01-ba5f-858c3bf76bcb", "name": "Three Four Beer Company", "brewery_type": "brewpub", "address_1": "829 S Shields St", "address_2": null, "address_3": null, "city": "Fort Collins", "state_province": "Colorado", "postal_code": "80521-3599", "country": "United States", "longitude": "-105.0959634", "latitude": "40.5726176", "phone": "9706821560", "website_url": "http://www.threefourbeerco.com", "state": "Colorado", "street": "829 S Shields St"}, {"id": "1e6a03d0-7697-45f2-b78e-362c43c9132c", "name": "Three Heads Brewing", "brewery_type": "micro", "address_1": "186 Atlantic Ave", "address_2": null, "address_3": null, "city": "Rochester", "state_province": "New York", "postal_code": "14607-1213", "country": "United States", "longitude": "-77.58034655", "latitude": "43.15611755", "phone": "5852441224", "website_url": "http://www.threeheadsbrewing.com", "state": "New York", "street": "186 Atlantic Ave"}, {"id": "c56138f8-20c8-4e85-b951-8d68ceb70548", "name": "Three Huskies Brewing & Dobber's Grill", "brewery_type": "brewpub", "address_1": "401 Lakeshore Dr", "address_2": null, "address_3": null, "city": "Canandaigua", "state_province": "New York", "postal_code": "14424-2338", "country": "United States", "longitude": "-77.251124", "latitude": "42.8723885", "phone": "5852603530", "website_url": "http://www.threehuskiesbrewing.com", "state": "New York", "street": "401 Lakeshore Dr"}, {"id": "ac071177-1879-4422-aa0e-71d5df1b8ca3", "name": "Three Magnets Brewing", "brewery_type": "brewpub", "address_1": "600 Franklin St SE Unit 105", "address_2": null, "address_3": null, "city": "Olympia", "state_province": "Washington", "postal_code": "98501-1360", "country": "United States", "longitude": null, "latitude": null, "phone": "3609722481", "website_url": "http://www.threemagnetsbrewing.com", "state": "Washington", "street": "600 Franklin St SE Unit 105"}, {"id": "ca24d92d-fcd6-4f5f-b9f4-b30917acd834", "name": "Three Mile Brewing Co", "brewery_type": "micro", "address_1": "231 G St", "address_2": null, "address_3": null, "city": "Davis", "state_province": "California", "postal_code": "95616-4549", "country": "United States", "longitude": "-121.739122", "latitude": "38.54403522", "phone": "5305644351", "website_url": "http://www.threemilebrewing.com/", "state": "California", "street": "231 G St"}, {"id": "01166a5e-a46a-44f8-b491-8f539853f0f0", "name": "Three Monkeys Brewing Co", "brewery_type": "contract", "address_1": "455 S Pine St Ste 3", "address_2": null, "address_3": null, "city": "Madera", "state_province": "California", "postal_code": "93637-5242", "country": "United States", "longitude": "-120.0735866", "latitude": "36.94939346", "phone": "5593632709", "website_url": "http://www.3monkeysbrewing.com", "state": "California", "street": "455 S Pine St Ste 3"}, {"id": "bea9a114-7951-4ba3-b8bd-a60103b322f9", "name": "Three Mugs Brewing Company", "brewery_type": "micro", "address_1": "2020 NE Aloclek Dr Ste 108", "address_2": null, "address_3": null, "city": "Hillsboro", "state_province": "Oregon", "postal_code": "97124-8053", "country": "United States", "longitude": "-122.8989638", "latitude": "45.53469242", "phone": "9713220232", "website_url": "http://threemugsbrewing.com", "state": "Oregon", "street": "2020 NE Aloclek Dr Ste 108"}, {"id": "c4101816-9cb4-4327-afd1-5ec710378b76", "name": "Three Notch'd Brewing Company", "brewery_type": "micro", "address_1": "520 2nd St SE", "address_2": null, "address_3": null, "city": "Charlottesville", "state_province": "Virginia", "postal_code": "22902-5794", "country": "United States", "longitude": "-78.4820248", "latitude": "38.0261159", "phone": null, "website_url": null, "state": "Virginia", "street": "520 2nd St SE"}, {"id": "646c6561-3b4f-4d5a-9086-05713ee29465", "name": "Three Notch'd RVA Collab House", "brewery_type": "micro", "address_1": "2930 W Broad St", "address_2": null, "address_3": null, "city": "Richmond", "state_province": "Virginia", "postal_code": "23230-5114", "country": "United States", "longitude": "-77.47194883", "latitude": "37.56369964", "phone": "4342930610", "website_url": "http://www.threenotchdbrewing.com", "state": "Virginia", "street": "2930 W Broad St"}, {"id": "809b7edc-f509-4a3c-81ec-1dd40a74c0af", "name": "Three Notch'd Sour House", "brewery_type": "micro", "address_1": "520 2nd St SE", "address_2": null, "address_3": null, "city": "Charlottesville", "state_province": "Virginia", "postal_code": "22902-5794", "country": "United States", "longitude": "-78.4820248", "latitude": "38.0261159", "phone": "4349563141", "website_url": "http://threenotchdbrewing.com/", "state": "Virginia", "street": "520 2nd St SE"}, {"id": "8a375f74-67e5-40a7-b284-07b93c747475", "name": "Three Notch'd Valley Collab House", "brewery_type": "micro", "address_1": "241 E Market St", "address_2": null, "address_3": null, "city": "Harrisonburg", "state_province": "Virginia", "postal_code": "22801", "country": "United States", "longitude": "-78.8654965", "latitude": "38.4487621", "phone": "4342930610", "website_url": null, "state": "Virginia", "street": "241 E Market St"}, {"id": "bccd3b26-9e23-4311-a82f-a3c591dccc30", "name": "Three Pints Brewpub", "brewery_type": "brewpub", "address_1": "610 W Mitchell Ave", "address_2": null, "address_3": null, "city": "Martinsville", "state_province": "Indiana", "postal_code": "46151-2734", "country": "United States", "longitude": null, "latitude": null, "phone": "7653499888", "website_url": "http://www.threepints.com", "state": "Indiana", "street": "610 W Mitchell Ave"}, {"id": "4aa52f48-c03f-45a4-833c-9526e37b2a69", "name": "Three Points Urban Brewery", "brewery_type": "micro", "address_1": "331 E 13th St", "address_2": null, "address_3": null, "city": "Cincinnati", "state_province": "Ohio", "postal_code": "45202-7307", "country": "United States", "longitude": "-84.509442", "latitude": "39.11009082", "phone": "5135555555", "website_url": "http://www.3pointsbeer.com", "state": "Ohio", "street": "331 E 13th St"}, {"id": "9d39924c-570a-47cb-afea-297a2de285b4", "name": "Three Rings Brewery", "brewery_type": "micro", "address_1": "536 South Old Highway 81", "address_2": null, "address_3": null, "city": "McPherson", "state_province": "Kansas", "postal_code": "67401-6026", "country": "United States", "longitude": null, "latitude": null, "phone": "6205045022", "website_url": null, "state": "Kansas", "street": "536 South Old Highway 81"}, {"id": "63534fe3-fa73-49f0-8f5f-2fa0f2827424", "name": "Three Rivers Brewing Co", "brewery_type": "micro", "address_1": "41763 Sierra Dr Ste B", "address_2": null, "address_3": null, "city": "Three Rivers", "state_province": "California", "postal_code": "93271-9671", "country": "United States", "longitude": "-118.9046115", "latitude": "36.44021714", "phone": "5599095483", "website_url": "http://www.threeriversbrewingco.com", "state": "California", "street": "41763 Sierra Dr Ste B"}]