[{"id": "9f87a804-b9ce-4264-9cc1-c8f6edfdb83f", "name": "Big Sky Brewing Co", "brewery_type": "regional", "address_1": "5417 Trumpeter Way", "address_2": null, "address_3": null, "city": "Missoula", "state_province": "Montana", "postal_code": "59808-8680", "country": "United States", "longitude": "-114.0730248", "latitude": "46.9224156", "phone": "4065492777", "website_url": "http://www.bigskybrew.com", "state": "Montana", "street": "5417 Trumpeter Way"}, {"id": "d5e9205f-ff1f-4cd2-9eec-2844197449f1", "name": "Big Slide Brewery", "brewery_type": "brewpub", "address_1": "5686 Cascade Road", "address_2": null, "address_3": null, "city": "Lake Placid", "state_province": "New York", "postal_code": "12946", "country": "United States", "longitude": "-73.96977615", "latitude": "44.26461237", "phone": "5185237844", "website_url": "http://www.bigslidebrewery.com", "state": "New York", "street": "5686 Cascade Road"}, {"id": "20a11408-a1f1-408c-89c0-aef4faef79c4", "name": "Big Storm Brewing", "brewery_type": "micro", "address_1": "839 Miramar St", "address_2": null, "address_3": null, "city": "Cape Coral", "state_province": "Florida", "postal_code": "33904-9046", "country": "United States", "longitude": "-81.9557454", "latitude": "26.5609342", "phone": null, "website_url": null, "state": "Florida", "street": "839 Miramar St"}, {"id": "881c39be-bb1c-4517-ad04-f6bd052fd74c", "name": "Big Storm Brewing", "brewery_type": "micro", "address_1": "2330 Success Dr", "address_2": null, "address_3": null, "city": "Odessa", "state_province": "Florida", "postal_code": "33556", "country": "United States", "longitude": "-82.62618762", "latitude": "28.19192178", "phone": "7273762890", "website_url": null, "state": "Florida", "street": "2330 Success Dr"}, {"id": "491566c3-b7e2-42f6-a400-545ef0ceffdb", "name": "Big Storm Brewing Co.", "brewery_type": "micro", "address_1": "12707 49th St N", "address_2": null, "address_3": null, "city": "Clearwater", "state_province": "Florida", "postal_code": "33762-4604", "country": "United States", "longitude": null, "latitude": null, "phone": "7274970666", "website_url": "http://www.bigstormbrewery.com", "state": "Florida", "street": "12707 49th St N"}, {"id": "9002d0c7-e0c1-4db2-ba73-fb31043ea41f", "name": "Big Stump Brewing Company", "brewery_type": "micro", "address_1": "1716 L St", "address_2": null, "address_3": null, "city": "Sacramento", "state_province": "California", "postal_code": "95811-4024", "country": "United States", "longitude": "-121.4263334", "latitude": "38.68887875", "phone": "9166687433", "website_url": "http://www.bigstumpbrewco.com/", "state": "California", "street": "1716 L St"}, {"id": "dc1b146d-741e-426b-8216-a65911e0f76a", "name": "Big Texan Brewery", "brewery_type": "brewpub", "address_1": "7701 Interstate 40 Access Rd", "address_2": null, "address_3": null, "city": "Amarillo", "state_province": "Texas", "postal_code": "79118-6915", "country": "United States", "longitude": null, "latitude": null, "phone": "8063726000", "website_url": "http://www.bigtexan.com", "state": "Texas", "street": "7701 Interstate 40 Access Rd"}, {"id": "797e1d68-c1e1-478c-bc92-9561c7d951b5", "name": "Big Thompson Brewery", "brewery_type": "micro", "address_1": "114 E 15th St", "address_2": null, "address_3": null, "city": "Loveland", "state_province": "Colorado", "postal_code": "80538-3832", "country": "United States", "longitude": "-105.0746687", "latitude": "40.40811243", "phone": null, "website_url": null, "state": "Colorado", "street": "114 E 15th St"}, {"id": "dc4706e6-80e6-4c6e-adc1-504f0711adbc", "name": "Big Thorn Farm and Brewery", "brewery_type": "micro", "address_1": "14274 E 600 North Rd", "address_2": null, "address_3": null, "city": "Georgetown", "state_province": "Illinois", "postal_code": "61846-7594", "country": "United States", "longitude": null, "latitude": null, "phone": "2175970156", "website_url": "http://www.bigthornfarm.com", "state": "Illinois", "street": "14274 E 600 North Rd"}, {"id": "77e31ad7-17aa-4c92-9200-ab12888aaacd", "name": "Big Timber Brewing", "brewery_type": "micro", "address_1": "1210 S Davis Ave", "address_2": null, "address_3": null, "city": "Elkins", "state_province": "West Virginia", "postal_code": "26241-3437", "country": "United States", "longitude": "-79.85143109", "latitude": "38.91765609", "phone": "3046375008", "website_url": "http://www.bigtimberbrewing.com", "state": "West Virginia", "street": "1210 S Davis Ave"}, {"id": "a1964010-0e7c-4bd0-9da1-1aef938faf44", "name": "Big Time Brewery", "brewery_type": "brewpub", "address_1": "4133 University Way NE", "address_2": null, "address_3": null, "city": "Seattle", "state_province": "Washington", "postal_code": "98105-6213", "country": "United States", "longitude": "-122.3135759", "latitude": "47.65785225", "phone": "2065454509", "website_url": "http://www.bigtimebrewery.com", "state": "Washington", "street": "4133 University Way NE"}, {"id": "83b19e83-5855-4e53-88e4-987ab398d8ae", "name": "Big Top Brewing Company", "brewery_type": "micro", "address_1": "6111 Porter Way Unit B", "address_2": null, "address_3": null, "city": "Sarasota", "state_province": "Florida", "postal_code": "34232-6224", "country": "United States", "longitude": null, "latitude": null, "phone": null, "website_url": "http://Bigtopbrewing.com", "state": "Florida", "street": "6111 Porter Way Unit B"}, {"id": "04fdb76b-b189-4234-a26e-caa9a43d55f0", "name": "Big Truck Brewery", "brewery_type": "planning", "address_1": null, "address_2": null, "address_3": null, "city": "Parkton", "state_province": "Maryland", "postal_code": "21120-9004", "country": "United States", "longitude": null, "latitude": null, "phone": "4436775451", "website_url": "http://www.bigtruckfarms.com", "state": "Maryland", "street": null}, {"id": "00eddf9c-e274-4d9a-8957-457e3ea570ac", "name": "Big Tupper Brewing", "brewery_type": "brewpub", "address_1": "12 Cliff Ave", "address_2": null, "address_3": null, "city": "Tupper Lake", "state_province": "New York", "postal_code": "12986-1719", "country": "United States", "longitude": "-74.46576367", "latitude": "44.223293", "phone": "5183596350", "website_url": "http://www.bigtupperbrewing.com", "state": "New York", "street": "12 Cliff Ave"}, {"id": "76b27550-7e67-4aae-9e70-384e5c84bc79", "name": "Big Ugly Brewing Co", "brewery_type": "micro", "address_1": "1296 Battlefield Blvd S", "address_2": null, "address_3": null, "city": "Chesapeake", "state_province": "Virginia", "postal_code": "23322-4378", "country": "United States", "longitude": "-76.22847989", "latitude": "36.67862015", "phone": "7576092739", "website_url": "http://www.biguglybrewing.com", "state": "Virginia", "street": "1296 Battlefield Blvd S"}, {"id": "e9e4c64c-bd3f-4c43-aab3-9b685f70d9b0", "name": "Big Water Brewery", "brewery_type": "micro", "address_1": "24 Robie Rd", "address_2": null, "address_3": null, "city": "Salisbury", "state_province": "New Hampshire", "postal_code": "03268-5423", "country": "United States", "longitude": "-71.717004", "latitude": "43.409129", "phone": "6036486068", "website_url": "http://www.bigwaterbrewery.net", "state": "New Hampshire", "street": "24 Robie Rd"}, {"id": "fcae18a9-9809-487e-a8e8-21125010ce4a", "name": "Big Wood Brewery", "brewery_type": "micro", "address_1": "2222 4th St Ste REAR", "address_2": null, "address_3": null, "city": "White Bear Lake", "state_province": "Minnesota", "postal_code": "55110-3045", "country": "United States", "longitude": null, "latitude": null, "phone": "6123602986", "website_url": "http://www.bigwoodbrewery.com", "state": "Minnesota", "street": "2222 4th St Ste REAR"}, {"id": "5a56a77e-507d-4fb8-b62d-31c48240d512", "name": "Big Woods Brewery", "brewery_type": "brewpub", "address_1": "2222 4th Street", "address_2": null, "address_3": null, "city": "White Bear Lake", "state_province": "Minnesota", "postal_code": "55110", "country": "United States", "longitude": "-93.007108", "latitude": "45.08530367", "phone": "8139886000", "website_url": "http://www.bigwoodsbeer.com", "state": "Minnesota", "street": "2222 4th Street"}, {"id": "810dda02-89b0-44a0-a287-228109259314", "name": "Big's BBQ Brewpub", "brewery_type": "brewpub", "address_1": "124 2nd Ave NW", "address_2": null, "address_3": null, "city": "Mount Vernon", "state_province": "Iowa", "postal_code": "52314", "country": "United States", "longitude": "-91.41772002", "latitude": "41.92299939", "phone": "3195351060", "website_url": "http://www.bigsbbqmv.com", "state": "Iowa", "street": "124 2nd Ave NW"}, {"id": "f62eed3c-818b-49a8-9aca-20ebe1793f23", "name": "Bigelow Brewing Company", "brewery_type": "brewpub", "address_1": "473 Bigelow Hill Rd", "address_2": null, "address_3": null, "city": "Skowhegan", "state_province": "Maine", "postal_code": "04976-5126", "country": "United States", "longitude": "-69.72961613", "latitude": "44.71991967", "phone": "2073996262", "website_url": "http://www.bigelowbrewing.com", "state": "Maine", "street": "473 Bigelow Hill Rd"}, {"id": "2ebb8fea-f982-43a0-bc95-b0ac01ae3f99", "name": "Bike Dog Brewing Co", "brewery_type": "micro", "address_1": "2534 Industrial Blvd Ste 110", "address_2": null, "address_3": null, "city": "West Sacramento", "state_province": "California", "postal_code": "95691-3471", "country": "United States", "longitude": "-121.5433734", "latitude": "38.5660851", "phone": null, "website_url": null, "state": "California", "street": "2534 Industrial Blvd Ste 110"}, {"id": "7d5db948-1fc5-45b6-a277-8d69a6352055", "name": "Bike Rack Brewing Co", "brewery_type": "micro", "address_1": "410 SW A St Ste 6", "address_2": null, "address_3": null, "city": "Bentonville", "state_province": "Arkansas", "postal_code": "72712-5839", "country": "United States", "longitude": null, "latitude": null, "phone": "4792686648", "website_url": "http://www.bikerackbrewing.com", "state": "Arkansas", "street": "410 SW A St Ste 6"}, {"id": "8d77bca9-de55-47a3-93e1-a72290a39c08", "name": "Bike Rack Brewing Co - 8th Street Market", "brewery_type": "micro", "address_1": "801 SE 8th St", "address_2": null, "address_3": null, "city": "Bentonville", "state_province": "Arkansas", "postal_code": "72712-6409", "country": "United States", "longitude": "-94.200584", "latitude": "36.364069", "phone": "4793196593", "website_url": "http://www.bikerackbrewing.com", "state": "Arkansas", "street": "801 SE 8th St"}, {"id": "40dbdacc-6531-4c83-8622-49758b82a052", "name": "Bike TrAle Brewing", "brewery_type": "micro", "address_1": "101 Loudoun St SE", "address_2": null, "address_3": null, "city": "Leesburg", "state_province": "Virginia", "postal_code": "20175-3106", "country": "United States", "longitude": "-77.562422", "latitude": "39.113418", "phone": "5712930050", "website_url": "http://www.BikeTrAleBrewing.com", "state": "Virginia", "street": "101 Loudoun St SE"}, {"id": "ddad9761-9bd4-4dbd-a744-890c38eb61ac", "name": "Biker Brew House", "brewery_type": "micro", "address_1": "5700 Interstate Blvd", "address_2": null, "address_3": null, "city": "Austintown", "state_province": "Ohio", "postal_code": "44515-1170", "country": "United States", "longitude": null, "latitude": null, "phone": null, "website_url": "http://www.bikerbrewhouse.com", "state": "Ohio", "street": "5700 Interstate Blvd"}, {"id": "5e549a83-df46-462c-aa98-3bd6dd0e65fd", "name": "Bilbo's Pizza and Brewery", "brewery_type": "brewpub", "address_1": "3307 Stadium Dr", "address_2": null, "address_3": null, "city": "Kalamazoo", "state_province": "Michigan", "postal_code": "49008-1528", "country": "United States", "longitude": "-85.63122494", "latitude": "42.27160225", "phone": "2693825544", "website_url": "http://www.bilbospizza.com", "state": "Michigan", "street": "3307 Stadium Dr"}, {"id": "2e6d6446-a752-4ed5-85dc-164d7bb799ba", "name": "Bill's Brewing Co.", "brewery_type": "brewpub", "address_1": "4238 Market St.", "address_2": null, "address_3": null, "city": "Wilmington", "state_province": "North Carolina", "postal_code": "28403", "country": "United States", "longitude": "-77.892361", "latitude": "34.242224", "phone": "9107626333", "website_url": "http://www.billsfrontporch.com", "state": "North Carolina", "street": "4238 Market St."}, {"id": "76f46964-b68a-4156-8a61-dbd2e6acaacf", "name": "Bill's Front Porch Pub and Brewery", "brewery_type": "brewpub", "address_1": "4238 Market St", "address_2": null, "address_3": null, "city": "Wilmington", "state_province": "North Carolina", "postal_code": "28403-1409", "country": "United States", "longitude": "-77.892361", "latitude": "34.242224", "phone": "9107626333", "website_url": "http://www.billsfrontporch.com", "state": "North Carolina", "street": "4238 Market St"}, {"id": "47a98559-734f-4475-ad82-f8bad6a69bf1", "name": "Bill's Tavern and Brewhouse", "brewery_type": "brewpub", "address_1": "188 N Hemlock St", "address_2": null, "address_3": null, "city": "Cannon Beach", "state_province": "Oregon", "postal_code": "97110-3037", "country": "United States", "longitude": "-123.9610943", "latitude": "45.89803615", "phone": "5034362202", "website_url": "http://www.billstavernandbrewhouse.com", "state": "Oregon", "street": "188 N Hemlock St"}, {"id": "26e2db12-3e83-438b-9ed7-c43eb0fed1f9", "name": "Billsburg Brewery", "brewery_type": "micro", "address_1": "2054 Jamestown Rd", "address_2": null, "address_3": null, "city": "Williamsburg", "state_province": "Virginia", "postal_code": "23185-7911", "country": "United States", "longitude": "-76.7129558", "latitude": "37.2682365", "phone": null, "website_url": "http://www.billsburg.com", "state": "Virginia", "street": "2054 Jamestown Rd"}, {"id": "d238261c-e421-4ee9-a530-2e661d417d62", "name": "Biloba Brewing", "brewery_type": "micro", "address_1": "18720 Pleasant St Stop 4", "address_2": null, "address_3": null, "city": "Brookfield", "state_province": "Wisconsin", "postal_code": "53045-3447", "country": "United States", "longitude": null, "latitude": null, "phone": "2623095820", "website_url": "http://www.bilobabrewing.com", "state": "Wisconsin", "street": "18720 Pleasant St Stop 4"}, {"id": "c66e7af2-41c2-4e8b-b66d-32ea62e28d4f", "name": "Biloxi Brewing Co", "brewery_type": "micro", "address_1": "186 Bohn St", "address_2": null, "address_3": null, "city": "Biloxi", "state_province": "Mississippi", "postal_code": "39530-3812", "country": "United States", "longitude": "-88.89361913", "latitude": "30.3982915", "phone": "2282731638", "website_url": "http://www.biloxibrewing.com", "state": "Mississippi", "street": "186 Bohn St"}, {"id": "6ccd6e8a-5d6c-4a5e-a285-57067d8b3a41", "name": "Biltmore Brewing Company", "brewery_type": "proprietor", "address_1": "1 N Pack Sq C/O Biltmore Winery Estates", "address_2": null, "address_3": null, "city": "Asheville", "state_province": "North Carolina", "postal_code": "28801-3462", "country": "United States", "longitude": null, "latitude": null, "phone": "8004113812", "website_url": "http://www.biltmore.com", "state": "North Carolina", "street": "1 N Pack Sq C/O Biltmore Winery Estates"}, {"id": "aa7a58a8-b2af-4c19-a73b-7b803262bfad", "name": "Bine Valley Brewing", "brewery_type": "micro", "address_1": "2027 25th St SE", "address_2": null, "address_3": null, "city": "Salem", "state_province": "Oregon", "postal_code": "97302-1130", "country": "United States", "longitude": "-123.0104248", "latitude": "44.92083964", "phone": "7602249889", "website_url": "http://www.binebrews.com", "state": "Oregon", "street": "2027 25th St SE"}, {"id": "5b64e8ae-f38a-4cf0-8d60-e3f0cf3c9572", "name": "Binghamton Brewing Co", "brewery_type": "micro", "address_1": "15 Avenue B", "address_2": null, "address_3": null, "city": "Johnson City", "state_province": "New York", "postal_code": "13790-2234", "country": "United States", "longitude": "-75.95337584", "latitude": "42.11473563", "phone": "6072383448", "website_url": "http://www.bingbrew.com", "state": "New York", "street": "15 Avenue B"}, {"id": "106a32d5-54fd-4431-8406-0803aef87605", "name": "Bingo Beer Company", "brewery_type": "planning", "address_1": "2900 W Broad St", "address_2": null, "address_3": null, "city": "Richmond", "state_province": "Virginia", "postal_code": "23230", "country": "United States", "longitude": null, "latitude": null, "phone": "8043975226", "website_url": "http://www.bingorva.com/", "state": "Virginia", "street": "2900 W Broad St"}, {"id": "ffd991bf-fb26-470c-9167-77d54c1fd57b", "name": "Birch's On the Lake", "brewery_type": "brewpub", "address_1": "1310 Wayzata Blvd", "address_2": null, "address_3": null, "city": "Long Lake", "state_province": "Minnesota", "postal_code": "55356-8314", "country": "United States", "longitude": "-93.55601814", "latitude": "44.98493915", "phone": "9524737373", "website_url": "http://www.birchsrestaurantandbar.com", "state": "Minnesota", "street": "1310 Wayzata Blvd"}, {"id": "16be946c-4c1b-415b-ac5d-05a5efe1429c", "name": "Bircus Brewing", "brewery_type": "micro", "address_1": "322 Elm St", "address_2": null, "address_3": null, "city": "Ludlow", "state_province": "Kentucky", "postal_code": "41016-1451", "country": "United States", "longitude": "-84.54923129", "latitude": "39.0935089", "phone": "8593607757", "website_url": "http://www.bircus.com", "state": "Kentucky", "street": "322 Elm St"}, {"id": "0b8ab2be-1d15-4a60-8bd2-e526a6615567", "name": "Bird Brain Brewing Company", "brewery_type": "contract", "address_1": "435 Nikki Ter SE", "address_2": null, "address_3": null, "city": "Leesburg", "state_province": "Virginia", "postal_code": "20175-8962", "country": "United States", "longitude": "-77.54348368", "latitude": "39.09389489", "phone": null, "website_url": null, "state": "Virginia", "street": "435 Nikki Ter SE"}, {"id": "88559f42-b68b-4ba9-963c-c15d13986a72", "name": "Bird Nickel Brewing Company", "brewery_type": "planning", "address_1": null, "address_2": null, "address_3": null, "city": "Easton", "state_province": "Maryland", "postal_code": "21601-3904", "country": "United States", "longitude": null, "latitude": null, "phone": "4103106042", "website_url": null, "state": "Maryland", "street": null}, {"id": "817d37b5-07f0-4722-9b9d-d37e238a6fbe", "name": "Bird Street Brewing", "brewery_type": "micro", "address_1": "242 Heinlen St", "address_2": null, "address_3": null, "city": "Lemoore", "state_province": "California", "postal_code": "93245-2947", "country": "United States", "longitude": "-119.784711", "latitude": "36.30146756", "phone": "5593094649", "website_url": "http://www.birdstreetbrewing.com", "state": "California", "street": "242 Heinlen St"}, {"id": "78cc5335-72ed-4756-8c08-b18c65ea3675", "name": "Birdboy Brewing Co", "brewery_type": "micro", "address_1": "210 E Collins Rd", "address_2": null, "address_3": null, "city": "Fort Wayne", "state_province": "Indiana", "postal_code": "46825-5304", "country": "United States", "longitude": "-85.13900142", "latitude": "41.12187792", "phone": "2605795508", "website_url": "http://www.birdboybrewing.com", "state": "Indiana", "street": "210 E Collins Rd"}, {"id": "55cf083b-d2b1-4839-878f-730d1a00fc27", "name": "BirdFish Brewing Co", "brewery_type": "micro", "address_1": "16 S Main St", "address_2": null, "address_3": null, "city": "Columbiana", "state_province": "Ohio", "postal_code": "44408-1348", "country": "United States", "longitude": "-80.69353036", "latitude": "40.888487", "phone": "3303339385", "website_url": "http://www.birdfishbrew.com", "state": "Ohio", "street": "16 S Main St"}, {"id": "b47dbcd6-1beb-434c-a9fb-3f8d88772800", "name": "Birds Fly South Ale Project", "brewery_type": "micro", "address_1": "1320 Hampton Avenue Ext", "address_2": null, "address_3": null, "city": "Greenville", "state_province": "South Carolina", "postal_code": "29601-1012", "country": "United States", "longitude": null, "latitude": null, "phone": "8644128825", "website_url": null, "state": "South Carolina", "street": "1320 Hampton Avenue Ext"}, {"id": "2f8dee5a-fc6e-49f3-84de-20ca5580acd4", "name": "Birdsong Brewing Co.", "brewery_type": "micro", "address_1": "1016 N Davidson St", "address_2": null, "address_3": null, "city": "Charlotte", "state_province": "North Carolina", "postal_code": "28206-3371", "country": "United States", "longitude": "-80.82704272", "latitude": "35.23060753", "phone": "7043321810", "website_url": "http://www.birdsongbrewing.com", "state": "North Carolina", "street": "1016 N Davidson St"}, {"id": "10617c0b-c29a-4e60-bd3d-5e4d56649398", "name": "BirdsView Brewing Co", "brewery_type": "micro", "address_1": "38302 State Route 20", "address_2": null, "address_3": null, "city": "Concrete", "state_province": "Washington", "postal_code": "98237-9460", "country": "United States", "longitude": "-121.7378167", "latitude": "48.5357818", "phone": "3608263406", "website_url": "http://www.birdsviewbrewingcompany.com", "state": "Washington", "street": "38302 State Route 20"}, {"id": "c1b16bee-8dc2-4b8f-ae1a-3f9134183d29", "name": "Birmingham District Brewing", "brewery_type": "planning", "address_1": null, "address_2": null, "address_3": null, "city": "Birmingham", "state_province": "Alabama", "postal_code": "35242-5651", "country": "United States", "longitude": "-86.8024326", "latitude": "33.5206824", "phone": "6019380486", "website_url": null, "state": "Alabama", "street": null}, {"id": "ceabe2ed-e384-453c-a972-245ff8abc850", "name": "Birravino", "brewery_type": "brewpub", "address_1": "183 Riverside Ave", "address_2": null, "address_3": null, "city": "Red Bank", "state_province": "New Jersey", "postal_code": "07701-1015", "country": "United States", "longitude": "-74.07536238", "latitude": "40.35352565", "phone": "7328425990", "website_url": "http://www.birravino.com", "state": "New Jersey", "street": "183 Riverside Ave"}, {"id": "66cb7863-0a8f-49e0-96e5-d29ed5b69e86", "name": "Birreria @ Eataly", "brewery_type": "brewpub", "address_1": "43 E Ohio St", "address_2": null, "address_3": null, "city": "Chicago", "state_province": "Illinois", "postal_code": "60611-2701", "country": "United States", "longitude": "-87.6262332", "latitude": "41.89209845", "phone": null, "website_url": "http://www.eataly.com", "state": "Illinois", "street": "43 E Ohio St"}, {"id": "aec527a2-0534-4252-86e0-56c621fc835d", "name": "Birreria @ Eataly", "brewery_type": "brewpub", "address_1": "200 5th Ave Fl 14", "address_2": null, "address_3": null, "city": "New York", "state_province": "New York", "postal_code": "10010-3302", "country": "United States", "longitude": null, "latitude": null, "phone": "2125390204", "website_url": "http://www.eatalyny.com", "state": "New York", "street": "200 5th Ave Fl 14"}, {"id": "27c38f61-cc1b-4e9c-baea-a55193ba486b", "name": "Birthright Brewing Co.", "brewery_type": "brewpub", "address_1": "57 S Main St", "address_2": null, "address_3": null, "city": "Nazareth", "state_province": "Pennsylvania", "postal_code": "18064-2037", "country": "United States", "longitude": "-75.31224579", "latitude": "40.74211365", "phone": "6103652225", "website_url": "http://www.birthrightbrewingco.com", "state": "Pennsylvania", "street": "57 S Main St"}, {"id": "9baed18a-8f26-4e9a-a56f-280ced6d1d7a", "name": "Biscayne Bay Brewing Co", "brewery_type": "micro", "address_1": "8000 NW 25th St Ste 500", "address_2": null, "address_3": null, "city": "Miami", "state_province": "Florida", "postal_code": "33122-1631", "country": "United States", "longitude": null, "latitude": null, "phone": null, "website_url": null, "state": "Florida", "street": "8000 NW 25th St Ste 500"}, {"id": "105076f0-ca29-4fb5-8c91-73e1d7dbfb9d", "name": "Bismarck Brewing", "brewery_type": "brewpub", "address_1": "1100 Canada Ave Suite 1", "address_2": null, "address_3": null, "city": "Bismarck", "state_province": "North Dakota", "postal_code": "58503-1814", "country": "United States", "longitude": "-100.7737552", "latitude": "46.86270313", "phone": null, "website_url": "http://www.bismarckbrew.com", "state": "North Dakota", "street": "1100 Canada Ave Suite 1"}, {"id": "7e37544f-5e87-4652-95db-e946e58ae9ed", "name": "Bison Brewing Co", "brewery_type": "contract", "address_1": "1627 S 7th St", "address_2": null, "address_3": null, "city": "San Jose", "state_province": "California", "postal_code": "95112-5932", "country": "United States", "longitude": "-121.8665257", "latitude": "37.31531409", "phone": "5108125996", "website_url": "http://bisonbrew.com", "state": "California", "street": "1627 S 7th St"}, {"id": "9ca594a0-97b0-4bd5-a4fe-5b8ee789289f", "name": "Bissell Brothers Brewing", "brewery_type": "micro", "address_1": "4 Thompsons Pt Ste 108", "address_2": null, "address_3": null, "city": "Portland", "state_province": "Maine", "postal_code": "04102-2639", "country": "United States", "longitude": "-70.2904097", "latitude": "43.6514062", "phone": "2074233622", "website_url": "http://www.bissellbrothers.com", "state": "Maine", "street": "4 Thompsons Pt Ste 108"}, {"id": "77c019ef-bc30-40e4-aa2b-5c51ffa38453", "name": "Bistronomy B2B Craft Brewery", "brewery_type": "brewpub", "address_1": "3118 Central Ave SE", "address_2": null, "address_3": null, "city": "Albuquerque", "state_province": "New Mexico", "postal_code": "87106-2216", "country": "United States", "longitude": "-106.6102147", "latitude": "35.080354", "phone": "5052622222", "website_url": "http://www.bistronomyb2b.com", "state": "New Mexico", "street": "3118 Central Ave SE"}, {"id": "3169d94b-9531-4639-8eea-54f94d72eace", "name": "Bitter Brothers Brewing Co.", "brewery_type": "micro", "address_1": "4170 Morena Blvd Ste F", "address_2": null, "address_3": null, "city": "San Diego", "state_province": "California", "postal_code": "92117-5252", "country": "United States", "longitude": "-117.2202906", "latitude": "32.81614831", "phone": "6199616690", "website_url": "http://www.bitterbrothers.com", "state": "California", "street": "4170 Morena Blvd Ste F"}, {"id": "bfdbcc50-5bfa-443b-a2fa-586f433a28e0", "name": "Bitter Creek Brewing Co", "brewery_type": "brewpub", "address_1": "604 Broadway St", "address_2": null, "address_3": null, "city": "Rock Springs", "state_province": "Wyoming", "postal_code": "82901-6348", "country": "United States", "longitude": "-109.2181243", "latitude": "41.58683904", "phone": "3073624782", "website_url": "http://www.bittercreekbrewing.com", "state": "Wyoming", "street": "604 Broadway St"}, {"id": "80dd3663-71f9-46db-811e-7b1610731542", "name": "Bitter Old Fecker Rustic Ales", "brewery_type": "micro", "address_1": "12855 E Old US Hwy 12", "address_2": null, "address_3": null, "city": "Chelsea", "state_province": "Michigan", "postal_code": "48118-9229", "country": "United States", "longitude": "-83.98452281", "latitude": "42.2995379", "phone": "7344445201", "website_url": null, "state": "Michigan", "street": "12855 E Old US Hwy 12"}, {"id": "2f3d22a3-113e-424a-aed6-b8a2f2f785c2", "name": "Bitter Root Brewing Co", "brewery_type": "micro", "address_1": "101 Marcus St", "address_2": null, "address_3": null, "city": "Hamilton", "state_province": "Montana", "postal_code": "59840-2541", "country": "United States", "longitude": "-114.1551946", "latitude": "46.24733778", "phone": "4063637468", "website_url": "http://www.bitterrootbrewing.com", "state": "Montana", "street": "101 Marcus St"}, {"id": "27812208-7d7b-4c77-b62a-bc405d6af897", "name": "Bitter Sisters Brewing Company", "brewery_type": "micro", "address_1": "15103 Surveyor Blvd", "address_2": null, "address_3": null, "city": "Addison", "state_province": "Texas", "postal_code": "75001-4316", "country": "United States", "longitude": "-96.845846", "latitude": "32.951222", "phone": "9724790949", "website_url": "http://www.bittersistersbrewery.com", "state": "Texas", "street": "15103 Surveyor Blvd"}, {"id": "1946d91f-cffd-4794-9f88-4264b923f398", "name": "Bittersweet Brewing Company, LLC", "brewery_type": "micro", "address_1": "191 S Oak Park Blvd Ste 3", "address_2": null, "address_3": null, "city": "Grover Beach", "state_province": "California", "postal_code": "93433-2265", "country": "United States", "longitude": "-120.6088596", "latitude": "35.12009944", "phone": null, "website_url": "http://www.bittersweetbrewing.com", "state": "California", "street": "191 S Oak Park Blvd Ste 3"}, {"id": "8f291173-eb33-4277-96a6-81a3a1b32709", "name": "BJ's Brewhouse", "brewery_type": "regional", "address_1": "602 E Central Ave", "address_2": null, "address_3": null, "city": "Temple", "state_province": "Texas", "postal_code": "76501-4319", "country": "United States", "longitude": "-97.33525536", "latitude": "31.09509964", "phone": "7145002400", "website_url": null, "state": "Texas", "street": "602 E Central Ave"}, {"id": "57b4c49f-7c62-4f88-8027-deeb7aa29a99", "name": "BJs Restaurant & Brewery - Boulder", "brewery_type": "brewpub", "address_1": "1690 28th St", "address_2": null, "address_3": null, "city": "Boulder", "state_province": "Colorado", "postal_code": "80301-", "country": "United States", "longitude": "-105.258512", "latitude": "40.0291592", "phone": "3034405200", "website_url": "http://www.bjsrestaurants.com", "state": "Colorado", "street": "1690 28th St"}, {"id": "b550667b-11ec-49f0-8609-071ca0395269", "name": "BJs Restaurant & Brewery - Brea", "brewery_type": "brewpub", "address_1": "600 Brea Mall Dr", "address_2": null, "address_3": null, "city": "Brea", "state_province": "California", "postal_code": "92821-5764", "country": "United States", "longitude": "-117.8863245", "latitude": "33.9152037", "phone": "7149902095", "website_url": "http://www.bjsrestaurants.com", "state": "California", "street": "600 Brea Mall Dr"}, {"id": "a9888981-3b31-4cb8-80ec-83b4e089dc04", "name": "BJs Restaurant & Brewery - Chandler", "brewery_type": "brewpub", "address_1": "3155 W Chandler Blvd", "address_2": null, "address_3": null, "city": "Chandler", "state_province": "Arizona", "postal_code": "85226-5175", "country": "United States", "longitude": "-111.911126", "latitude": "33.3053455", "phone": "4809170631", "website_url": "http://www.bjsrestaurants.com", "state": "Arizona", "street": "3155 W Chandler Blvd"}, {"id": "8fe53360-1c28-4c1a-8e98-49ff1966fc25", "name": "BJs Restaurant & Brewery - Reno", "brewery_type": "brewpub", "address_1": "13999 S Virginia St", "address_2": null, "address_3": null, "city": "Reno", "state_province": "Nevada", "postal_code": "89511-8917", "country": "United States", "longitude": "-119.8122668", "latitude": "39.5244083", "phone": "7758537575", "website_url": "http://www.bjsbrewhouse.com", "state": "Nevada", "street": "13999 S Virginia St"}, {"id": "d4b77aea-a845-46b2-8f6e-b81378525c89", "name": "BJs Restaurant & Brewery - West Covina", "brewery_type": "brewpub", "address_1": "2917 E Eastland Ctr Dr", "address_2": null, "address_3": null, "city": "West Covina", "state_province": "California", "postal_code": "91791-1603", "country": "United States", "longitude": "-117.8867988", "latitude": "34.07298952", "phone": "6268580054", "website_url": "http://www.bjsrestaurants.com", "state": "California", "street": "2917 E Eastland Ctr Dr"}, {"id": "283ac187-d4fb-4859-b536-3a4566d9631a", "name": "BJs Restauraunt & Brewhouse", "brewery_type": "brewpub", "address_1": "4502 S. Steele St. Suite 1500", "address_2": null, "address_3": null, "city": "Tacoma", "state_province": "Washington", "postal_code": "98409", "country": "United States", "longitude": "-122.467515", "latitude": "47.214875", "phone": "2534721220", "website_url": "https://www.bjsrestaurants.com/locations/wa/tacoma", "state": "Washington", "street": "4502 S. Steele St. Suite 1500"}, {"id": "9e7959cb-8292-4892-aa10-6467c2b764b0", "name": "BKS Artisan Ales", "brewery_type": "micro", "address_1": "633 E 63rd St #120", "address_2": null, "address_3": null, "city": "Kansas City", "state_province": "Missouri", "postal_code": "64110", "country": "United States", "longitude": "-94.493961", "latitude": "39.010093", "phone": "8166733027", "website_url": "http://www.bksartisanales.com", "state": "Missouri", "street": "633 E 63rd St #120"}, {"id": "e018afc5-b867-44d2-b3e6-9f54e66bc5c8", "name": "Bl\u00c3\u00bc Dragonfly Brewing", "brewery_type": "brewpub", "address_1": "301 E 9th St # C", "address_2": null, "address_3": null, "city": "Cimarron", "state_province": "New Mexico", "postal_code": "87714-4027", "country": "United States", "longitude": "-104.914428", "latitude": "36.511427", "phone": "9186361095", "website_url": null, "state": "New Mexico", "street": "301 E 9th St # C"}, {"id": "64fd68cb-1304-41c8-b42d-0b5e801e7156", "name": "Black Acre Brewing Co", "brewery_type": "brewpub", "address_1": "5632 E Washington St", "address_2": null, "address_3": null, "city": "Indianapolis", "state_province": "Indiana", "postal_code": "46219-6428", "country": "United States", "longitude": "-86.1452662", "latitude": "39.7668669", "phone": "3177973316", "website_url": "http://www.blackacrebrewing.com", "state": "Indiana", "street": "5632 E Washington St"}, {"id": "6cab717d-2883-4869-ab9a-879f09319efb", "name": "Black Beak Brewing", "brewery_type": "planning", "address_1": null, "address_2": null, "address_3": null, "city": "Denver", "state_province": "Colorado", "postal_code": "80237-1907", "country": "United States", "longitude": "-104.984696", "latitude": "39.7391428", "phone": "3032107836", "website_url": null, "state": "Colorado", "street": null}, {"id": "77c455db-9445-408f-8447-c4d28830edf9", "name": "Black Bear Brewery", "brewery_type": "micro", "address_1": "19 Mill St Ste 4", "address_2": null, "address_3": null, "city": "Orono", "state_province": "Maine", "postal_code": "04473-4095", "country": "United States", "longitude": null, "latitude": null, "phone": "2078899123", "website_url": "http://www.blackbearmicrobrew.com", "state": "Maine", "street": "19 Mill St Ste 4"}, {"id": "2d1c4b89-4d44-4f47-8ea1-b11fdfc247bd", "name": "Black Bottle Brewery", "brewery_type": "brewpub", "address_1": "1611 S College Ave Ste STE1609", "address_2": null, "address_3": null, "city": "Fort Collins", "state_province": "Colorado", "postal_code": "80525-1074", "country": "United States", "longitude": null, "latitude": null, "phone": "9704932337", "website_url": "http://www.blackbottlebrewery.com", "state": "Colorado", "street": "1611 S College Ave Ste STE1609"}, {"id": "c616ab6b-bba4-4d23-b341-b325251f3420", "name": "Black Bridge Brewery", "brewery_type": "micro", "address_1": "421 E Beale St", "address_2": null, "address_3": null, "city": "Kingman", "state_province": "Arizona", "postal_code": "86401-5833", "country": "United States", "longitude": "-114.051737", "latitude": "35.1895877", "phone": "9283773618", "website_url": "http://www.blackbridgebrewery.com", "state": "Arizona", "street": "421 E Beale St"}, {"id": "01a7842a-3139-475e-95e9-e5a671c236ef", "name": "Black Cat Brewing", "brewery_type": "planning", "address_1": null, "address_2": null, "address_3": null, "city": "Boulder", "state_province": "Colorado", "postal_code": "80302", "country": "United States", "longitude": "-105.2705456", "latitude": "40.0149856", "phone": null, "website_url": "http://www.blackcatbrewing.com", "state": "Colorado", "street": null}, {"id": "fd28030a-631f-410a-b426-9c67c29b3175", "name": "Black Circle Brewing Co", "brewery_type": "micro", "address_1": "2201 E 46th St", "address_2": null, "address_3": null, "city": "Indianapolis", "state_province": "Indiana", "postal_code": "46205", "country": "United States", "longitude": "-86.123944", "latitude": "39.8398813", "phone": "3174260143", "website_url": "http://www.blackcirclebrewing.com", "state": "Indiana", "street": "2201 E 46th St"}, {"id": "7f459973-0ae7-40d5-825c-a6eaa6f3843a", "name": "Black Cloister Brewing Co", "brewery_type": "brewpub", "address_1": "619 Monroe St", "address_2": null, "address_3": null, "city": "Toledo", "state_province": "Ohio", "postal_code": "43604-1015", "country": "United States", "longitude": "-83.5399665", "latitude": "41.6499863", "phone": "4192141500", "website_url": "http://www.blackcloister.com", "state": "Ohio", "street": "619 Monroe St"}, {"id": "962e31a8-5230-4bf5-a006-cceed47b46bf", "name": "Black Cock Brewing Company", "brewery_type": "micro", "address_1": "1444 N Batavia St", "address_2": null, "address_3": null, "city": "Orange", "state_province": "California", "postal_code": "92867-3505", "country": "United States", "longitude": "-117.8620026", "latitude": "33.8274902", "phone": "7147448410", "website_url": null, "state": "California", "street": "1444 N Batavia St"}, {"id": "68534594-0610-4e38-93fa-b8a9e76941c6", "name": "Black Creek Brewery", "brewery_type": "micro", "address_1": "111 Depot St", "address_2": null, "address_3": null, "city": "Roxboro", "state_province": "North Carolina", "postal_code": "27573-5503", "country": "United States", "longitude": "-78.98146367", "latitude": "36.39362085", "phone": "9195244319", "website_url": null, "state": "North Carolina", "street": "111 Depot St"}, {"id": "73174f3a-40c5-49c4-8394-1a913831f14d", "name": "Black Donkey Brewing", "brewery_type": "micro", "address_1": "Srah Road", "address_2": null, "address_3": null, "city": "Ballinlough", "state_province": "Roscommon", "postal_code": "F45 KN60", "country": "Ireland", "longitude": "-8.640373685", "latitude": "53.74460665", "phone": null, "website_url": "http://blackdonkeybeer.com/", "state": "Roscommon", "street": "Srah Road"}, {"id": "149e2ad1-8a38-4659-a11a-0b2647d5a788", "name": "Black Doubt Brewing Company", "brewery_type": "micro", "address_1": "452 Old Mammoth Rd, #104", "address_2": null, "address_3": null, "city": "Mammoth Lakes", "state_province": "California", "postal_code": "93546", "country": "United States", "longitude": "-118.9668019", "latitude": "37.6395882", "phone": "7605250462", "website_url": "http://www.blackdoubtbrewing.com", "state": "California", "street": "452 Old Mammoth Rd, #104"}, {"id": "a539c80f-cfa0-400c-9eb5-a2fe8a882343", "name": "Black Eagle Brewery", "brewery_type": "micro", "address_1": "1600 25th Ave NE", "address_2": null, "address_3": null, "city": "Black Eagle", "state_province": "Montana", "postal_code": "59414-1070", "country": "United States", "longitude": "-111.279526", "latitude": "47.528243", "phone": "4068681866", "website_url": "http://www.pitstopblackeagle.com", "state": "Montana", "street": "1600 25th Ave NE"}, {"id": "d7ae324d-dcc4-4b52-b857-35dca78f8c37", "name": "Black Fire Winery", "brewery_type": "micro", "address_1": "1261 E Munger Rd", "address_2": null, "address_3": null, "city": "Tecumseh", "state_province": "Michigan", "postal_code": "49286-8714", "country": "United States", "longitude": null, "latitude": null, "phone": "5174249232", "website_url": null, "state": "Michigan", "street": "1261 E Munger Rd"}, {"id": "f6cc21c0-039d-4257-9869-b168502185d6", "name": "Black Flag Brewing Company", "brewery_type": "micro", "address_1": "9315 Snowden River Pkwy", "address_2": null, "address_3": null, "city": "Columbia", "state_province": "Maryland", "postal_code": "21046-2091", "country": "United States", "longitude": "-76.810364", "latitude": "39.192524", "phone": "4438645139", "website_url": "http://www.blackflagbrewingco.com", "state": "Maryland", "street": "9315 Snowden River Pkwy"}, {"id": "866e9938-a7ea-41c1-a2b9-81ecb26aa3b0", "name": "Black Fleet Brewing", "brewery_type": "micro", "address_1": "2302 Fawcett Ave", "address_2": null, "address_3": null, "city": "Tacoma", "state_province": "Washington", "postal_code": "98402", "country": "United States", "longitude": "-122.44036", "latitude": "47.24082", "phone": "2533271641", "website_url": "http://www.blackfleetbrewing.com", "state": "Washington", "street": "2302 Fawcett Ave"}, {"id": "a0fadb5a-1b4c-4e40-9782-27f06c10a52d", "name": "Black Forest Brew Haus", "brewery_type": "brewpub", "address_1": "2015 New Hwy", "address_2": null, "address_3": null, "city": "Farmingdale", "state_province": "New York", "postal_code": "11735-1103", "country": "United States", "longitude": "-73.41443291", "latitude": "40.7550515", "phone": "6313919500", "website_url": "http://www.blackforestbrewhaus.com", "state": "New York", "street": "2015 New Hwy"}, {"id": "d3eba4df-b289-4ee6-ada9-da33ef0567aa", "name": "Black Forest Brewery", "brewery_type": "brewpub", "address_1": "301 W Main St", "address_2": null, "address_3": null, "city": "Ephrata", "state_province": "Pennsylvania", "postal_code": "17522-1713", "country": "United States", "longitude": "-76.183579", "latitude": "40.181767", "phone": "7174507217", "website_url": "http://www.blackforestbrewery.net", "state": "Pennsylvania", "street": "301 W Main St"}, {"id": "c8160b2b-3e43-4db3-bbd8-32f07a0a0060", "name": "Black Forest Brewing Company", "brewery_type": "brewpub", "address_1": "11590 Black Forest Rd Ste 50", "address_2": null, "address_3": null, "city": "Colorado Springs", "state_province": "Colorado", "postal_code": "80908-6000", "country": "United States", "longitude": null, "latitude": null, "phone": "7193962011", "website_url": "http://www.blackforestbrewco.com", "state": "Colorado", "street": "11590 Black Forest Rd Ste 50"}, {"id": "aa85b666-63af-42fd-9f3a-0484bfc6666b", "name": "Black Frog Brewing Co", "brewery_type": "micro", "address_1": "831 S McCord Rd", "address_2": null, "address_3": null, "city": "Holland", "state_province": "Ohio", "postal_code": "43528-8746", "country": "United States", "longitude": "-83.7032185", "latitude": "41.6171284", "phone": "4193897136", "website_url": "http://www.blackfrogbrewery.com", "state": "Ohio", "street": "831 S McCord Rd"}, {"id": "e81bfb16-7efb-4b1f-bad8-9d0eeabc3157", "name": "Black Gold Brewing Co", "brewery_type": "brewpub", "address_1": "508 Center St", "address_2": null, "address_3": null, "city": "Taft", "state_province": "California", "postal_code": "93268-3109", "country": "United States", "longitude": "-119.4591658", "latitude": "35.14109718", "phone": "6617656550", "website_url": null, "state": "California", "street": "508 Center St"}, {"id": "26d678eb-fcce-4072-95aa-97afa8505925", "name": "Black Hammer Brewing", "brewery_type": "micro", "address_1": "544 Bryant St", "address_2": null, "address_3": null, "city": "San Francisco", "state_province": "California", "postal_code": "94107-1217", "country": "United States", "longitude": "-122.3969947", "latitude": "37.780655", "phone": "4155002273", "website_url": "http://www.blackhammerbrewing.com", "state": "California", "street": "544 Bryant St"}, {"id": "61d6bc91-4366-49a9-ac55-5eed49482fc7", "name": "Black Hat Brew Works", "brewery_type": "micro", "address_1": "25 Scotland Blvd # 1", "address_2": null, "address_3": null, "city": "Bridgewater", "state_province": "Massachusetts", "postal_code": "02324-2302", "country": "United States", "longitude": null, "latitude": null, "phone": "5088075172", "website_url": "http://www.blackhatbrewworks.com", "state": "Massachusetts", "street": "25 Scotland Blvd # 1"}, {"id": "aac970a9-7070-42e1-b11b-c0aa516834e1", "name": "Black Hog Brewing Co", "brewery_type": "micro", "address_1": "115 Hurley Road, Building 9A", "address_2": null, "address_3": null, "city": "Oxford", "state_province": "Connecticut", "postal_code": "06478-1047", "country": "United States", "longitude": null, "latitude": null, "phone": "2032626075", "website_url": "http://www.blackhogbrewing.com", "state": "Connecticut", "street": "115 Hurley Road, Building 9A"}, {"id": "d42db334-e706-4f48-b253-cbd3a5d25900", "name": "Black Hoof Brewing", "brewery_type": "micro", "address_1": "11 S King St", "address_2": null, "address_3": null, "city": "Leesburg", "state_province": "Virginia", "postal_code": "20175-2903", "country": "United States", "longitude": "-77.5648925", "latitude": "39.1150351", "phone": "5717078014", "website_url": null, "state": "Virginia", "street": "11 S King St"}, {"id": "4eac342b-e067-425f-995e-aeb089a10f85", "name": "Black Horizon Brewing Company", "brewery_type": "micro", "address_1": "7560 S Quincy St", "address_2": null, "address_3": null, "city": "Willowbrook", "state_province": "Illinois", "postal_code": "60527-5545", "country": "United States", "longitude": null, "latitude": null, "phone": "6304134964", "website_url": "http://www.blackhorizonbrewing.com", "state": "Illinois", "street": "7560 S Quincy St"}, {"id": "7d158044-9d6a-40d2-8bb6-746035b3bc96", "name": "Black Horse Brewery", "brewery_type": "micro", "address_1": "1058 Burton Rd", "address_2": null, "address_3": null, "city": "Show Low", "state_province": "Arizona", "postal_code": "85901-3924", "country": "United States", "longitude": null, "latitude": null, "phone": "9285379349", "website_url": "http://www.blackhorsebrewery.us", "state": "Arizona", "street": "1058 Burton Rd"}, {"id": "da6ab5c6-b221-47cd-97dc-eedd9bf5e589", "name": "Black Husky Brewing LLC", "brewery_type": "micro", "address_1": "909 E Locust St", "address_2": null, "address_3": null, "city": "Milwaukee", "state_province": "Wisconsin", "postal_code": "53212", "country": "United States", "longitude": "-87.90008457", "latitude": "43.071024", "phone": "4045098855", "website_url": "http://www.blackhuskybrewing.com", "state": "Wisconsin", "street": "909 E Locust St"}, {"id": "7812960a-df16-4738-beca-842fbc54d68e", "name": "Black Label Brewing Company", "brewery_type": "micro", "address_1": "19 W Main Ave", "address_2": null, "address_3": null, "city": "Spokane", "state_province": "Washington", "postal_code": "99201-5124", "country": "United States", "longitude": "-117.4114587", "latitude": "47.65900318", "phone": "5098227436", "website_url": "http://www.blacklabelbrewing.com", "state": "Washington", "street": "19 W Main Ave"}, {"id": "6aa5ecd3-aaec-472c-ba67-c7f8d6b75b40", "name": "Black Laboratory Breing", "brewery_type": "micro", "address_1": "1602 E Houston St Suite 109", "address_2": null, "address_3": null, "city": "San Antonio", "state_province": "Texas", "postal_code": "78202", "country": "United States", "longitude": "-98.4753507", "latitude": "29.4246556", "phone": "210-370-3442", "website_url": "http://www.blacklaboratorybrewing.com/", "state": "Texas", "street": "1602 E Houston St Suite 109"}, {"id": "4ec0bd38-0ab1-4c4e-84bb-63510b63f4a0", "name": "Black Leg Brewery", "brewery_type": "micro", "address_1": "24750 62nd Ave SE", "address_2": null, "address_3": null, "city": "McKenzie", "state_province": "North Dakota", "postal_code": "58572-9649", "country": "United States", "longitude": "-100.3978304", "latitude": "46.74842764", "phone": null, "website_url": "http://blacklegranch.com", "state": "North Dakota", "street": "24750 62nd Ave SE"}, {"id": "a0603777-7481-46fd-805e-a00d194829d5", "name": "Black Lotus Brewing Co", "brewery_type": "brewpub", "address_1": "1 E 14 Mile Rd", "address_2": null, "address_3": null, "city": "Clawson", "state_province": "Michigan", "postal_code": "48017-2132", "country": "United States", "longitude": "-83.141428", "latitude": "42.533563", "phone": "2485771878", "website_url": "http://WWW.BLACKLOTUSBEER.COM", "state": "Michigan", "street": "1 E 14 Mile Rd"}, {"id": "1fab0024-c031-450c-a1b6-48f2a0dd8e9a", "name": "Black Magic Brewing", "brewery_type": "planning", "address_1": null, "address_2": null, "address_3": null, "city": "Fountain Valley", "state_province": "California", "postal_code": "92708-6431", "country": "United States", "longitude": "-117.9627349", "latitude": "33.7038145", "phone": null, "website_url": null, "state": "California", "street": null}, {"id": "600748ca-dca4-43c4-8187-a0b1d952a597", "name": "Black Market Brewing Co", "brewery_type": "brewpub", "address_1": "41740 Enterprise Cir N Ste 109", "address_2": null, "address_3": null, "city": "Temecula", "state_province": "California", "postal_code": "92590-5652", "country": "United States", "longitude": "-117.1697859", "latitude": "33.5185138", "phone": null, "website_url": null, "state": "California", "street": "41740 Enterprise Cir N Ste 109"}, {"id": "8f5375c1-cfa2-4f84-8967-6ca771be1ba9", "name": "Black Mesa Brewing Company", "brewery_type": "micro", "address_1": "3901 N Flood Ave", "address_2": null, "address_3": null, "city": "Norman", "state_province": "Oklahoma", "postal_code": "73069", "country": "United States", "longitude": "-97.4819196", "latitude": "35.2761135", "phone": "4054081848", "website_url": "http://www.blackmesabrewing.com", "state": "Oklahoma", "street": "3901 N Flood Ave"}, {"id": "7868b4db-6b60-49e3-96d5-56912133a9cc", "name": "Black Narrows Brewing Company", "brewery_type": "micro", "address_1": "4522 Chicken City Rd", "address_2": null, "address_3": null, "city": "Chincoteague", "state_province": "Virginia", "postal_code": "23336-2303", "country": "United States", "longitude": "-75.36219281", "latitude": "37.93125647", "phone": "7869994877", "website_url": "http://www.blacknarrowsbrewing.com", "state": "Virginia", "street": "4522 Chicken City Rd"}, {"id": "d67cae67-6bcf-4a02-92e0-76d81ebfb5b8", "name": "Black Page Brewing Co.", "brewery_type": "micro", "address_1": "210 Glen Park St.", "address_2": null, "address_3": null, "city": "Houston", "state_province": "Texas", "postal_code": "77009", "country": "United States", "longitude": null, "latitude": null, "phone": "7137846001", "website_url": "https://blackpagebrewing.com", "state": "Texas", "street": "210 Glen Park St."}, {"id": "d8ddf2ca-5a9c-4d0b-a324-6ce0c0bae06d", "name": "Black Plague Brewing", "brewery_type": "micro", "address_1": "2550 Jason Ct", "address_2": null, "address_3": null, "city": "Oceanside", "state_province": "California", "postal_code": "92056-3592", "country": "United States", "longitude": "-117.266825", "latitude": "33.215571", "phone": "7602072949", "website_url": "http://www.blackplaguebrewing.com", "state": "California", "street": "2550 Jason Ct"}, {"id": "53e18401-9be7-44b9-9175-01c08f941741", "name": "Black Pond Brews", "brewery_type": "micro", "address_1": "21A Furnace St", "address_2": null, "address_3": null, "city": "Danielson", "state_province": "Connecticut", "postal_code": "06239-3040", "country": "United States", "longitude": "-71.88394473", "latitude": "41.80470085", "phone": "8602075295", "website_url": "http://www.blackpondbrews.com", "state": "Connecticut", "street": "21A Furnace St"}, {"id": "e12bc89b-26c8-4835-a92d-9caa5ad81750", "name": "Black Project Spontaneous & Wild Ales", "brewery_type": "micro", "address_1": "1290 S Broadway", "address_2": null, "address_3": null, "city": "Denver", "state_province": "Colorado", "postal_code": "80210-1504", "country": "United States", "longitude": "-104.9872018", "latitude": "39.6933607", "phone": "7203342873", "website_url": "http://www.blackprojectbeer.com", "state": "Colorado", "street": "1290 S Broadway"}, {"id": "ab360d6f-246e-455f-b706-de39ec5ac9ec", "name": "Black Raven Brewing Co", "brewery_type": "micro", "address_1": "14679 NE 95th St", "address_2": null, "address_3": null, "city": "Redmond", "state_province": "Washington", "postal_code": "98052-2556", "country": "United States", "longitude": "-122.1455096", "latitude": "47.6854906", "phone": "4258813020", "website_url": "http://www.blackravenbrewing.com", "state": "Washington", "street": "14679 NE 95th St"}, {"id": "c8149934-3bc5-4c76-9f21-8b3cbbf31c40", "name": "Black Raven Brewing Co Woodinville", "brewery_type": "micro", "address_1": "15902 Woodinville-Redmond Rd NE", "address_2": null, "address_3": null, "city": "Woodinville", "state_province": "Washington", "postal_code": "98072", "country": "United States", "longitude": "-122.1554963", "latitude": "47.74343078", "phone": "4258813020", "website_url": "http://www.blackravenbrewing.com", "state": "Washington", "street": "15902 Woodinville-Redmond Rd NE"}, {"id": "4e09e7f2-b9c7-4580-8c6a-1241f8835bf9", "name": "Black Sands Brewery", "brewery_type": "micro", "address_1": "701 Haight St", "address_2": null, "address_3": null, "city": "San Francisco", "state_province": "California", "postal_code": "94117-3316", "country": "United States", "longitude": "-122.433863", "latitude": "37.7715719", "phone": "4155345194", "website_url": null, "state": "California", "street": "701 Haight St"}, {"id": "5b5235aa-79f1-41e4-97a1-8f9fdfee1657", "name": "Black Shirt Brewing Co", "brewery_type": "brewpub", "address_1": "3719 Walnut St", "address_2": null, "address_3": null, "city": "Denver", "state_province": "Colorado", "postal_code": "80205-2436", "country": "United States", "longitude": "-104.9729604", "latitude": "39.7698142", "phone": "3039932799", "website_url": "http://www.blackshirtbrewingco.com", "state": "Colorado", "street": "3719 Walnut St"}, {"id": "15855eaa-dfcc-43e4-a0ff-220836e5be63", "name": "Black Sky Brewery", "brewery_type": "brewpub", "address_1": "490 Santa Fe Dr", "address_2": null, "address_3": null, "city": "Denver", "state_province": "Colorado", "postal_code": "80204-5024", "country": "United States", "longitude": "-104.9983183", "latitude": "39.7239431", "phone": "9702154536", "website_url": "http://www.blackskybrewing.com", "state": "Colorado", "street": "490 Santa Fe Dr"}, {"id": "3a255fa1-c05a-42ce-ad91-181fbe91473d", "name": "Black Star Co-op", "brewery_type": "brewpub", "address_1": "7020 Easy Wind Dr Ste 100", "address_2": null, "address_3": null, "city": "Austin", "state_province": "Texas", "postal_code": "78752-2373", "country": "United States", "longitude": "-97.718977", "latitude": "30.3383262", "phone": "5124522337", "website_url": "http://www.blackstar.coop", "state": "Texas", "street": "7020 Easy Wind Dr Ste 100"}, {"id": "7cb5d5cc-c608-46a0-8bde-20c063f1bd1d", "name": "Black Swan Brewpub", "brewery_type": "brewpub", "address_1": "2067 E Hadley Rd", "address_2": null, "address_3": null, "city": "Plainfield", "state_province": "Indiana", "postal_code": "46168-7484", "country": "United States", "longitude": "-86.374141", "latitude": "39.674729", "phone": "3178387444", "website_url": "http://www.blackswanbrewpub.com", "state": "Indiana", "street": "2067 E Hadley Rd"}, {"id": "1a5f4915-b1cf-4b45-a91c-cc1235f50e9f", "name": "Black Tooth Brewing Co", "brewery_type": "micro", "address_1": "312 Broadway St", "address_2": null, "address_3": null, "city": "Sheridan", "state_province": "Wyoming", "postal_code": "82801-3917", "country": "United States", "longitude": "-106.953506", "latitude": "44.80089512", "phone": "3076752337", "website_url": "http://www.blacktoothbrewingcompany.com", "state": "Wyoming", "street": "312 Broadway St"}, {"id": "3de678fa-0f47-4f10-8fb5-a74146614407", "name": "Black Walnut Brewery", "brewery_type": "micro", "address_1": "210 S King St", "address_2": null, "address_3": null, "city": "Leesburg", "state_province": "Virginia", "postal_code": "20175-3010", "country": "United States", "longitude": "-77.5649731", "latitude": "39.1127558", "phone": "7037719474", "website_url": null, "state": "Virginia", "street": "210 S King St"}, {"id": "f0798955-8b91-4b1f-bed3-995467ca5700", "name": "Black Warrior Brewing Co.", "brewery_type": "micro", "address_1": "2216 University Blvd", "address_2": null, "address_3": null, "city": "Tuscaloosa", "state_province": "Alabama", "postal_code": "35401-1542", "country": "United States", "longitude": "-87.565915", "latitude": "33.21061755", "phone": null, "website_url": "http://www.blackwarriorbrewing.com", "state": "Alabama", "street": "2216 University Blvd"}, {"id": "08bc0229-4621-4ddd-a27e-8da88d0a5800", "name": "Black Wolf Brewing LLC", "brewery_type": "planning", "address_1": null, "address_2": null, "address_3": null, "city": "Pocono Pines", "state_province": "Pennsylvania", "postal_code": "18350", "country": "United States", "longitude": null, "latitude": null, "phone": null, "website_url": null, "state": "Pennsylvania", "street": null}, {"id": "bf4605ce-568b-4442-a8e0-41d0d261b451", "name": "Blackadder Brewing Company", "brewery_type": "micro", "address_1": "618 NW 60th St Ste A", "address_2": null, "address_3": null, "city": "Gainesville", "state_province": "Florida", "postal_code": "32607-6014", "country": "United States", "longitude": null, "latitude": null, "phone": "3523390324", "website_url": "http://www.blackadderbrewing.com", "state": "Florida", "street": "618 NW 60th St Ste A"}, {"id": "df62d3a5-46ff-40e3-9f81-e35c286a4a94", "name": "Blackbeard's Brewing Company", "brewery_type": "brewpub", "address_1": "700 W Ocean Ave", "address_2": null, "address_3": null, "city": "Westport", "state_province": "Washington", "postal_code": "98595-9603", "country": "United States", "longitude": "-124.1175413", "latitude": "46.8867861", "phone": "3602687662", "website_url": "http://www.blackbeardsbrewing.com", "state": "Washington", "street": "700 W Ocean Ave"}, {"id": "99642888-e928-4aa2-a7a0-655aa43c6293", "name": "Blackberry Farm Brewery", "brewery_type": "micro", "address_1": "910 E Harper Ave", "address_2": null, "address_3": null, "city": "Maryville", "state_province": "Tennessee", "postal_code": "37804-4023", "country": "United States", "longitude": "-83.965755", "latitude": "35.762562", "phone": "8659848166", "website_url": "http://www.blackberryfarm.com", "state": "Tennessee", "street": "910 E Harper Ave"}, {"id": "a7b62684-c1ff-470b-8f59-d6198987a2d0", "name": "Blackfoot River Brewing Co", "brewery_type": "micro", "address_1": "66 S Park Ave", "address_2": null, "address_3": null, "city": "Helena", "state_province": "Montana", "postal_code": "59601-6271", "country": "United States", "longitude": "-112.0417121", "latitude": "46.5862933", "phone": "4064493005", "website_url": "http://www.blackfootriverbrewing.com", "state": "Montana", "street": "66 S Park Ave"}, {"id": "197c0988-b236-4432-90ad-da75db44166d", "name": "Blackhorse Brewery", "brewery_type": "planning", "address_1": null, "address_2": null, "address_3": null, "city": "Alcoa", "state_province": "Tennessee", "postal_code": "37701", "country": "United States", "longitude": null, "latitude": null, "phone": null, "website_url": null, "state": "Tennessee", "street": null}, {"id": "847d8d94-eb0a-4bd3-8941-bbc92f0311ad", "name": "Blackhorse Pub and Brewery", "brewery_type": "brewpub", "address_1": "132 Franklin St", "address_2": null, "address_3": null, "city": "Clarksville", "state_province": "Tennessee", "postal_code": "37040-3438", "country": "United States", "longitude": "-87.3588994", "latitude": "36.52735085", "phone": "9315523726", "website_url": "http://www.blackhorsebrews.com", "state": "Tennessee", "street": "132 Franklin St"}, {"id": "908f6fa3-531d-4413-9134-09d24b652a5c", "name": "Blackhorse Pub and Brewery -  Knoxville", "brewery_type": "brewpub", "address_1": "4429 Kingston Pike", "address_2": null, "address_3": null, "city": "Knoxville", "state_province": "Tennessee", "postal_code": "37919-5252", "country": "United States", "longitude": "-84.0443634", "latitude": "35.9259722", "phone": "8652498511", "website_url": "http://www.theblackhorsepub.net", "state": "Tennessee", "street": "4429 Kingston Pike"}, {"id": "48e1320e-3669-41d7-8bd3-c39df498a970", "name": "Blacklist Artisan Ales", "brewery_type": "micro", "address_1": "120 E Superior St", "address_2": null, "address_3": null, "city": "Duluth", "state_province": "Minnesota", "postal_code": "55802-2116", "country": "United States", "longitude": "-92.09596598", "latitude": "46.7882669", "phone": "2183109368", "website_url": "http://www.blacklistbeer.com", "state": "Minnesota", "street": "120 E Superior St"}, {"id": "a3da9d07-5d9c-4bb5-998d-71d01fe752e4", "name": "BlackRock Brewers", "brewery_type": "micro", "address_1": "1664 S Research Loop Ste 200", "address_2": null, "address_3": null, "city": "Tucson", "state_province": "Arizona", "postal_code": "85710-6767", "country": "United States", "longitude": "-110.8217786", "latitude": "32.20160831", "phone": "5202073203", "website_url": "http://www.brb.beer", "state": "Arizona", "street": "1664 S Research Loop Ste 200"}, {"id": "4da03934-2c69-466f-9f84-937efbc8b74a", "name": "Blackrocks Brewery", "brewery_type": "micro", "address_1": "424 N 3rd St", "address_2": null, "address_3": null, "city": "Marquette", "state_province": "Michigan", "postal_code": "49855-3555", "country": "United States", "longitude": "-87.39462133", "latitude": "46.5464589", "phone": "9062731333", "website_url": "http://www.blackrocksbrewery.com", "state": "Michigan", "street": "424 N 3rd St"}, {"id": "e6d1cb57-2a2e-4ec1-a91d-dab1b0b2a3cc", "name": "Blackrocks Brewery - Production Facility", "brewery_type": "micro", "address_1": "950 W Washington St", "address_2": null, "address_3": null, "city": "Marquette", "state_province": "Michigan", "postal_code": "49855-4019", "country": "United States", "longitude": "-87.41368794", "latitude": "46.54594024", "phone": "9062731333", "website_url": "http://www.blackrocksbrewery.com", "state": "Michigan", "street": "950 W Washington St"}, {"id": "4954a924-9efc-45c1-87c7-d931b7992bcb", "name": "Blacks Brewery", "brewery_type": "micro", "address_1": "Farm Lane", "address_2": "Knocknabohilly", "address_3": null, "city": "Kinsale", "state_province": "Cork", "postal_code": "P17 XW70", "country": "Ireland", "longitude": "-8.515723944", "latitude": "51.71109933", "phone": "353873881074", "website_url": "https://www.blacksbrewery.com/", "state": "Cork", "street": "Farm Lane"}, {"id": "e14896e7-fade-424f-97d7-4f620406b5f7", "name": "Blacksmith Brewing Co", "brewery_type": "micro", "address_1": "114 Main St", "address_2": null, "address_3": null, "city": "Stevensville", "state_province": "Montana", "postal_code": "59870-2109", "country": "United States", "longitude": "-114.0929303", "latitude": "46.51154971", "phone": "4067770680", "website_url": "http://www.blacksmithbrewing.com", "state": "Montana", "street": "114 Main St"}, {"id": "d306cd9b-40d8-4be9-9581-5ad25289c9d4", "name": "BlackStack Brewing", "brewery_type": "micro", "address_1": "755 Prior Ave N Ste 110", "address_2": null, "address_3": null, "city": "Saint Paul", "state_province": "Minnesota", "postal_code": "55104-1064", "country": "United States", "longitude": null, "latitude": null, "phone": "6123692932", "website_url": "http://www.blackstackbrewing.com", "state": "Minnesota", "street": "755 Prior Ave N Ste 110"}, {"id": "6f2cc06f-175c-4b85-89fd-7da62e1959a7", "name": "Blackstone Brewing Co", "brewery_type": "micro", "address_1": "2312 Clifton Ave", "address_2": null, "address_3": null, "city": "Nashville", "state_province": "Tennessee", "postal_code": "37209-4115", "country": "United States", "longitude": "-86.80974363", "latitude": "36.15796783", "phone": "6153209002", "website_url": "http://blackstonebrewery.com", "state": "Tennessee", "street": "2312 Clifton Ave"}, {"id": "b248192a-f86e-4dbd-a324-0a71424f2656", "name": "Blackwater Brewing Co", "brewery_type": "micro", "address_1": "912 William Ave", "address_2": null, "address_3": null, "city": "Davis", "state_province": "West Virginia", "postal_code": "26260-0356", "country": "United States", "longitude": "-79.4695264", "latitude": "39.1274943", "phone": "3042098118", "website_url": "http://www.BlackwaterBrewingWV.com", "state": "West Virginia", "street": "912 William Ave"}, {"id": "cb8add44-ed44-445c-911b-14d6c5363fd0", "name": "Blackwater Draw Brewing Company", "brewery_type": "brewpub", "address_1": "701 N Main", "address_2": null, "address_3": null, "city": "Bryan", "state_province": "Texas", "postal_code": "77803", "country": "United States", "longitude": "-96.35277742", "latitude": "30.6580876", "phone": "9797046191", "website_url": "http://www.blackwaterbrew.com", "state": "Texas", "street": "701 N Main"}, {"id": "6dd11447-9e89-49f2-8c7e-5332653968db", "name": "Blaker Brewing", "brewery_type": "micro", "address_1": "1063 Montcalire Dr", "address_2": null, "address_3": null, "city": "Ceres", "state_province": "California", "postal_code": "95307", "country": "United States", "longitude": "-120.9797388", "latitude": "37.57642992", "phone": "2095854040", "website_url": "http://www.blakerbrewing.com", "state": "California", "street": "1063 Montcalire Dr"}, {"id": "3b7eac5f-539f-4a65-9066-1558446f68b7", "name": "Blank Canvas Brewery", "brewery_type": "micro", "address_1": "46 Betton St Ste 3", "address_2": null, "address_3": null, "city": "Brewer", "state_province": "Maine", "postal_code": "04412-2636", "country": "United States", "longitude": null, "latitude": null, "phone": null, "website_url": "http://www.blankcanvasbrewery.wordpress.com", "state": "Maine", "street": "46 Betton St Ste 3"}, {"id": "4ab37f9a-f9dc-4fba-8b59-581c8968c668", "name": "Blasted Barley Beer Company", "brewery_type": "brewpub", "address_1": "404 S Mill Ave Ste 101", "address_2": null, "address_3": null, "city": "Tempe", "state_province": "Arizona", "postal_code": "85281-2879", "country": "United States", "longitude": null, "latitude": null, "phone": "4809675887", "website_url": "http://www.blastedbarley.com", "state": "Arizona", "street": "404 S Mill Ave Ste 101"}, {"id": "a7343f5b-f031-4150-9ec0-cfb868ca7565", "name": "Blasty Bough Brewing Company", "brewery_type": "micro", "address_1": "3 Griffin Rd", "address_2": null, "address_3": null, "city": "Epsom", "state_province": "New Hampshire", "postal_code": "03234-4816", "country": "United States", "longitude": "-71.2932629", "latitude": "43.20382502", "phone": "6037384717", "website_url": "http://www.blastybough.com", "state": "New Hampshire", "street": "3 Griffin Rd"}, {"id": "9be2e661-7d9a-4445-b1b9-6a420a047407", "name": "Blazing Tree Brewery", "brewery_type": "micro", "address_1": "11426 Rojas Dr Ste A13", "address_2": null, "address_3": null, "city": "El Paso", "state_province": "Texas", "postal_code": "79936-6486", "country": "United States", "longitude": null, "latitude": null, "phone": "9153073627", "website_url": null, "state": "Texas", "street": "11426 Rojas Dr Ste A13"}, {"id": "967e2ae2-4955-4372-94ca-88fb0db58df7", "name": "Bleeding Heart Brewery", "brewery_type": "closed", "address_1": "1150 S Colony Way Ste 3 Pmb 618", "address_2": null, "address_3": null, "city": "Palmer", "state_province": "Alaska", "postal_code": "99645-6972", "country": "United States", "longitude": "-149.109799", "latitude": "61.601303", "phone": "7609172417", "website_url": "http://facebook.com/bleedingheartbrewery", "state": "Alaska", "street": "1150 S Colony Way Ste 3 Pmb 618"}, {"id": "224f2344-53ec-4ef1-87f3-a9fa24f00931", "name": "Blewett Brewing Company", "brewery_type": "brewpub", "address_1": "911 Commercial St", "address_2": null, "address_3": null, "city": "Leavenworth", "state_province": "Washington", "postal_code": "98826-1494", "country": "United States", "longitude": "-120.6599479", "latitude": "47.59518806", "phone": "5098888809", "website_url": "http://www.blewettbrew.com", "state": "Washington", "street": "911 Commercial St"}, {"id": "2a08f3ad-f6fc-442f-979a-2dbadd0c3c28", "name": "Blind Bat Brewery LLC, The", "brewery_type": "micro", "address_1": "420 Harrison Dr", "address_2": null, "address_3": null, "city": "Centerport", "state_province": "New York", "postal_code": "11721-1216", "country": "United States", "longitude": "-73.38113106", "latitude": "40.8959081", "phone": "6318917909", "website_url": "http://www.BlindBatBrewery.com", "state": "New York", "street": "420 Harrison Dr"}, {"id": "c8613358-8e0b-4ac7-8859-46f1efc36fd1", "name": "Blind Owl Brewery", "brewery_type": "brewpub", "address_1": "5014 E 62nd St", "address_2": null, "address_3": null, "city": "Indianapolis", "state_province": "Indiana", "postal_code": "46220-5228", "country": "United States", "longitude": null, "latitude": null, "phone": "3179241000", "website_url": "http://www.blindowlbrewery.com", "state": "Indiana", "street": "5014 E 62nd St"}, {"id": "67836207-49ed-4d67-8dca-8f66acdcbb00", "name": "Blind Pig Brewery", "brewery_type": "brewpub", "address_1": "120 N Neil St", "address_2": null, "address_3": null, "city": "Champaign", "state_province": "Illinois", "postal_code": "61820-4023", "country": "United States", "longitude": "-88.24341082", "latitude": "40.11714609", "phone": "2173985133", "website_url": "http://www.blindpigbrewery.com", "state": "Illinois", "street": "120 N Neil St"}, {"id": "f2972e73-5167-41ea-ab23-08c16ec14221", "name": "Blind Squirrel Brewery", "brewery_type": "micro", "address_1": "4716 South US Highway 19 E Suite B", "address_2": null, "address_3": null, "city": "Plumtree", "state_province": "North Carolina", "postal_code": "28664-0173", "country": "United States", "longitude": null, "latitude": null, "phone": "8287652739", "website_url": "http://www.blindsquirrelbrewery.com", "state": "North Carolina", "street": "4716 South US Highway 19 E Suite B"}]