[{"id": "c9edf2c6-268f-459c-9223-f41fcf2a710c", "name": "Octopi Brewing / Untitled Art", "brewery_type": "micro", "address_1": "1131 Uniek Dr", "address_2": null, "address_3": null, "city": "Waunakee", "state_province": "Wisconsin", "postal_code": "53597-8947", "country": "United States", "longitude": "-89.4223579", "latitude": "43.1858364", "phone": "6086204705", "website_url": "http://www.octopibrewing.com", "state": "Wisconsin", "street": "1131 Uniek Dr"}, {"id": "0f063272-e447-4b7a-84d2-125dac5482cd", "name": "Oda Restaurant", "brewery_type": "brewpub", "address_1": "1500 Owens St", "address_2": null, "address_3": null, "city": "San Francisco", "state_province": "California", "postal_code": "94158-2334", "country": "United States", "longitude": "-122.3954096", "latitude": "37.7687392", "phone": "4155589450", "website_url": "http://www.barodasf.com", "state": "California", "street": "1500 Owens St"}, {"id": "78b74aa2-7f5e-4ce4-96ad-f36ffd789fe5", "name": "Odd Alewives Farm Brewery", "brewery_type": "micro", "address_1": "99 Old Rte One", "address_2": null, "address_3": null, "city": "Waldoboro", "state_province": "Maine", "postal_code": "04572", "country": "United States", "longitude": null, "latitude": null, "phone": "2077908406", "website_url": "http://www.oddalewives.com", "state": "Maine", "street": "99 Old Rte One"}, {"id": "bd90a960-3620-4563-98d1-4b77f5c69a62", "name": "Odd Breed Wild Ales", "brewery_type": "micro", "address_1": "50 NE 1st St", "address_2": null, "address_3": null, "city": "Pompano Beach", "state_province": "Florida", "postal_code": "33060-6602", "country": "United States", "longitude": "-80.124792", "latitude": "26.23234049", "phone": "8646506210", "website_url": "http://www.oddbreed.com", "state": "Florida", "street": "50 NE 1st St"}, {"id": "52a1d246-495c-4d4a-9166-5fed18ae10f0", "name": "Odd Man Rush", "brewery_type": "micro", "address_1": "10930 Mausel St Ste A1", "address_2": null, "address_3": null, "city": "Eagle River", "state_province": "Alaska", "postal_code": "99577-8095", "country": "United States", "longitude": "-149.580902", "latitude": "61.320013", "phone": "9076962337", "website_url": "http://www.oddmanrushbrewing.com", "state": "Alaska", "street": "10930 Mausel St Ste A1"}, {"id": "e96f54c0-fca8-4a58-8cc6-8b538b18b55a", "name": "Odd Otter Brewing Company", "brewery_type": "micro", "address_1": "716 Pacific Ave", "address_2": null, "address_3": null, "city": "Tacoma", "state_province": "Washington", "postal_code": "98402-5208", "country": "United States", "longitude": "-122.437927", "latitude": "47.250289", "phone": "2532794871", "website_url": "http://www.oddotterbrewing.com", "state": "Washington", "street": "716 Pacific Ave"}, {"id": "3718d688-1dab-4e58-835d-b76ed69ba1cb", "name": "Odd Side Ales", "brewery_type": "micro", "address_1": "41 Washington Ave Ste 160", "address_2": null, "address_3": null, "city": "Grand Haven", "state_province": "Michigan", "postal_code": "49417-1392", "country": "United States", "longitude": null, "latitude": null, "phone": "6169357326", "website_url": "http://www.oddsideales.com", "state": "Michigan", "street": "41 Washington Ave Ste 160"}, {"id": "dc89cfaa-5024-46ca-b73f-ef654ed15a16", "name": "Odd Side Ales Production Facility", "brewery_type": "micro", "address_1": "1810 Industrial Dr", "address_2": null, "address_3": null, "city": "Grand Haven", "state_province": "Michigan", "postal_code": "49417-8930", "country": "United States", "longitude": "-86.1983973", "latitude": "43.03124408", "phone": null, "website_url": null, "state": "Michigan", "street": "1810 Industrial Dr"}, {"id": "b257714f-ad0b-4898-a9bc-3c6e29dc70a1", "name": "Odd13 Brewing Inc", "brewery_type": "micro", "address_1": "301 E Simpson St", "address_2": null, "address_3": null, "city": "Lafayette", "state_province": "Colorado", "postal_code": "80026-2325", "country": "United States", "longitude": "-105.0878839", "latitude": "39.9983626", "phone": "3039974164", "website_url": "http://www.odd13brewing.com", "state": "Colorado", "street": "301 E Simpson St"}, {"id": "ec524746-888e-4384-9f87-f8dc1af6428e", "name": "Odd13 Production Facility", "brewery_type": "micro", "address_1": "505 Stacy Ct Ste D", "address_2": null, "address_3": null, "city": "Lafayette", "state_province": "Colorado", "postal_code": "80026", "country": "United States", "longitude": null, "latitude": null, "phone": null, "website_url": null, "state": "Colorado", "street": "505 Stacy Ct Ste D"}, {"id": "3d6ce7c7-5481-48c6-afd7-4b68dccec4dc", "name": "Oddball Brewing", "brewery_type": "micro", "address_1": "6 Glass St", "address_2": null, "address_3": null, "city": "Suncook", "state_province": "New Hampshire", "postal_code": "03275-1512", "country": "United States", "longitude": "-71.45239635", "latitude": "43.1308185", "phone": "6032105654", "website_url": "http://www.oddballbrewingnh.com", "state": "New Hampshire", "street": "6 Glass St"}, {"id": "d496c903-0a57-4e47-a859-3dd0aed44a71", "name": "OddPitch Brewing Co.", "brewery_type": "planning", "address_1": null, "address_2": null, "address_3": null, "city": "Missoula", "state_province": "Montana", "postal_code": "59801-4473", "country": "United States", "longitude": null, "latitude": null, "phone": "4063605363", "website_url": "http://www.oddpitch.com", "state": "Montana", "street": null}, {"id": "2f6b7d0c-9a11-46bf-ab17-7bc72f9868a0", "name": "Oddstory Brewing Co", "brewery_type": "micro", "address_1": "336 E Mlk", "address_2": null, "address_3": null, "city": "Chattanooga", "state_province": "Tennessee", "postal_code": "37403-4121", "country": "United States", "longitude": null, "latitude": null, "phone": "2563097208", "website_url": "http://www.oddstorybrewing.co", "state": "Tennessee", "street": "336 E Mlk"}, {"id": "c922d09e-1c59-44c2-906e-1cd7493b5867", "name": "Oddwood Ales", "brewery_type": "brewpub", "address_1": "3108 Manor Rd", "address_2": null, "address_3": null, "city": "Austin", "state_province": "Texas", "postal_code": "78723-5719", "country": "United States", "longitude": null, "latitude": null, "phone": null, "website_url": "http://www.oddwoodales.com", "state": "Texas", "street": "3108 Manor Rd"}, {"id": "63fd2c11-5530-4de9-8fe2-8fbf65e3a49f", "name": "Odell Brewing Co", "brewery_type": "regional", "address_1": "800 E Lincoln Ave", "address_2": null, "address_3": null, "city": "Fort Collins", "state_province": "Colorado", "postal_code": "80524-2507", "country": "United States", "longitude": "-105.0633327", "latitude": "40.5895239", "phone": "9704989070", "website_url": "http://www.odellbrewing.com", "state": "Colorado", "street": "800 E Lincoln Ave"}, {"id": "504a4dee-ca0d-49cf-87dc-259504ae153c", "name": "Odell Brewing Co - Denver", "brewery_type": "micro", "address_1": "2945 Larimer St", "address_2": null, "address_3": null, "city": "Denver", "state_province": "Colorado", "postal_code": "80205-2308", "country": "United States", "longitude": "-104.9810078", "latitude": "39.7621447", "phone": null, "website_url": null, "state": "Colorado", "street": "2945 Larimer St"}, {"id": "ed47cd56-6311-47e5-9905-eb5ecca339ff", "name": "Odin Brewing Co", "brewery_type": "brewpub", "address_1": "402 Baker Blvd", "address_2": null, "address_3": null, "city": "Tukwila", "state_province": "Washington", "postal_code": "98188-2905", "country": "United States", "longitude": "-122.2520643", "latitude": "47.4586237", "phone": "2062432363", "website_url": "http://www.odinbrewing.com", "state": "Washington", "street": "402 Baker Blvd"}, {"id": "4520147b-3286-4029-bbc7-c6faf486a166", "name": "Odra Barrels", "brewery_type": "micro", "address_1": "Mi\u0119dzyleska 2/4", "address_2": null, "address_3": null, "city": "Wroc\u0142aw", "state_province": "dolno\u015bl\u0105skie", "postal_code": "50-514", "country": "Poland", "longitude": "17.0706993", "latitude": "51.0817502", "phone": null, "website_url": null, "state": "dolno\u015bl\u0105skie", "street": "Mi\u0119dzyleska 2/4"}, {"id": "319af5ac-111d-487e-81d2-0b25f910602d", "name": "Odyssey Beerwerks", "brewery_type": "micro", "address_1": "5535 W 56th Ave Ste 107", "address_2": null, "address_3": null, "city": "Arvada", "state_province": "Colorado", "postal_code": "80002-2806", "country": "United States", "longitude": null, "latitude": null, "phone": "3034210772", "website_url": "http://www.odysseybeerwerks.com", "state": "Colorado", "street": "5535 W 56th Ave Ste 107"}, {"id": "36e353c7-895b-4ebd-ba43-01ce7b083c94", "name": "OEC Brewing", "brewery_type": "micro", "address_1": "7 Fox Hollow Rd", "address_2": null, "address_3": null, "city": "Oxford", "state_province": "Connecticut", "postal_code": "06478-3162", "country": "United States", "longitude": null, "latitude": null, "phone": "2032952831", "website_url": "http://www.oecbrewing.com", "state": "Connecticut", "street": "7 Fox Hollow Rd"}, {"id": "e81874e0-d418-4c9e-aaf6-6420272a1796", "name": "Off Camber Brewing", "brewery_type": "micro", "address_1": "6506 114th Avenue Ct E", "address_2": null, "address_3": null, "city": "Puyallup", "state_province": "Washington", "postal_code": "98372-2811", "country": "United States", "longitude": "-122.2772454", "latitude": "47.1989594", "phone": "2533128796", "website_url": "http://www.facebook.com/OffCamberBrew/", "state": "Washington", "street": "6506 114th Avenue Ct E"}, {"id": "c8e69ab9-60b6-44b9-8188-cf3d719b8d82", "name": "Off Color Brewing", "brewery_type": "micro", "address_1": "3925 W Dickens Ave", "address_2": null, "address_3": null, "city": "Chicago", "state_province": "Illinois", "postal_code": "60647-3453", "country": "United States", "longitude": "-87.72538437", "latitude": "41.91892697", "phone": null, "website_url": "http://www.offcolorbrewing.com", "state": "Illinois", "street": "3925 W Dickens Ave"}, {"id": "970d787c-1b48-4cf7-a213-0c1845db1391", "name": "Off Main Brewing", "brewery_type": "planning", "address_1": null, "address_2": null, "address_3": null, "city": "Davidson", "state_province": "North Carolina", "postal_code": "28036-6945", "country": "United States", "longitude": null, "latitude": null, "phone": "5124153075", "website_url": "http://OffMainBrewing.com", "state": "North Carolina", "street": null}, {"id": "89cd06c5-f8ec-4d6a-9156-420f49bd1d2a", "name": "Off Square Brewing", "brewery_type": "brewpub", "address_1": "11000 Delaware Pkwy", "address_2": null, "address_3": null, "city": "Crown Point", "state_province": "Indiana", "postal_code": "46307-7895", "country": "United States", "longitude": "-87.329728", "latitude": "41.417636", "phone": "2193108898", "website_url": "http://www.offsquarebrewing.com", "state": "Indiana", "street": "11000 Delaware Pkwy"}, {"id": "3208af9a-4b72-4023-827c-8f41336a6227", "name": "Off The Cuff Brewing Company", "brewery_type": "planning", "address_1": null, "address_2": null, "address_3": null, "city": "West Brookfield", "state_province": "Massachusetts", "postal_code": "01585-6023", "country": "United States", "longitude": null, "latitude": null, "phone": "4132810525", "website_url": null, "state": "Massachusetts", "street": null}, {"id": "ff0367d9-f73e-4002-b6ff-1fafb6649c86", "name": "Off the Grid Brewing Co", "brewery_type": "micro", "address_1": "13615 John Glenn Rd Ste A", "address_2": null, "address_3": null, "city": "Apple Valley", "state_province": "California", "postal_code": "92308-5730", "country": "United States", "longitude": "-117.1827885", "latitude": "34.49900885", "phone": "7602475600", "website_url": "http://www.otgbrew.com", "state": "California", "street": "13615 John Glenn Rd Ste A"}, {"id": "cf1aec2c-18d4-42cc-a4e2-f8407b060607", "name": "Off Track Brewing Company", "brewery_type": "micro", "address_1": "227 Stark Street", "address_2": null, "address_3": null, "city": "Cincinnati", "state_province": "Ohio", "postal_code": "45214", "country": "United States", "longitude": "-84.522243", "latitude": "39.118674", "phone": "5136044527", "website_url": "http://www.OffTrackBrewingCompany.com", "state": "Ohio", "street": "227 Stark Street"}, {"id": "0a92f902-3d1d-4ef8-9351-5352615cc749", "name": "Off-Kilter Brewing", "brewery_type": "micro", "address_1": "15810 Carbrey Ave", "address_2": null, "address_3": null, "city": "South Beloit", "state_province": "Illinois", "postal_code": "61080", "country": "United States", "longitude": "-89.06082453", "latitude": "42.48966938", "phone": null, "website_url": "http://www.OffKilterBrewing.com", "state": "Illinois", "street": "15810 Carbrey Ave"}, {"id": "7f85506d-f2bc-4377-9c88-43d519059151", "name": "Offshoot Beer Co.", "brewery_type": "micro", "address_1": "737 Dunn Way", "address_2": null, "address_3": null, "city": "Placentia", "state_province": "California", "postal_code": "92870", "country": "United States", "longitude": "-117.880182", "latitude": "33.86112597", "phone": "7149966258", "website_url": "http://www.offshootbeer.com", "state": "California", "street": "737 Dunn Way"}, {"id": "9e3524ee-a548-4089-8de2-7a82c9cd767f", "name": "Offshore Ale Co", "brewery_type": "brewpub", "address_1": "30 Kennebec Ave", "address_2": null, "address_3": null, "city": "Oak Bluffs", "state_province": "Massachusetts", "postal_code": "02557", "country": "United States", "longitude": "-70.55790959", "latitude": "41.45488324", "phone": "5086932626", "website_url": "http://www.offshoreale.com", "state": "Massachusetts", "street": "30 Kennebec Ave"}, {"id": "9716ba4a-bd0b-47b0-93c9-4c18bd2afaec", "name": "Oggi's Sports Brewhouse Pizza - Apple Valley", "brewery_type": "brewpub", "address_1": "19201 Bear Valley Rd Ste D", "address_2": null, "address_3": null, "city": "Apple Valley", "state_province": "California", "postal_code": "92308-2704", "country": "United States", "longitude": "-117.2449244", "latitude": "34.47042728", "phone": "7607922622", "website_url": "http://www.oggis.com", "state": "California", "street": "19201 Bear Valley Rd Ste D"}, {"id": "8c9cf724-6f82-4486-bbd4-d2f1ae91c4d1", "name": "Oggi's Sports Brewhouse Pizza - Upland", "brewery_type": "brewpub", "address_1": "1173 E 19th St", "address_2": null, "address_3": null, "city": "Upland", "state_province": "California", "postal_code": "91784", "country": "United States", "longitude": "-117.6351899", "latitude": "34.1334924", "phone": "9099498868", "website_url": "http://www.oggis.com", "state": "California", "street": "1173 E 19th St"}, {"id": "5f5febce-99e7-4d0f-9408-a0d1c1d86270", "name": "Oggis Pizza & Brewing Co - Carmel Mountain Ranch", "brewery_type": "brewpub", "address_1": "10155 Rancho Carmel Dr", "address_2": null, "address_3": null, "city": "San Diego", "state_province": "California", "postal_code": "92128-3609", "country": "United States", "longitude": "-117.089795", "latitude": "32.965495", "phone": "8585927883", "website_url": "http://www.oggis.com", "state": "California", "street": "10155 Rancho Carmel Dr"}, {"id": "6bd6516a-7ce7-411f-8cbe-bf77f1d43ab9", "name": "Oggis Pizza & Brewing Co - Mission Valley", "brewery_type": "brewpub", "address_1": "2245 Fenton Pkwy Ste 108 Fenton Marketplace", "address_2": null, "address_3": null, "city": "San Diego", "state_province": "California", "postal_code": "92108-4737", "country": "United States", "longitude": "-117.1291243", "latitude": "32.78010941", "phone": "6196401072", "website_url": "http://www.oggis.com", "state": "California", "street": "2245 Fenton Pkwy Ste 108 Fenton Marketplace"}, {"id": "0b2c7cb1-a556-49d7-b748-3b98c61769b8", "name": "Ogopogo Brewing", "brewery_type": "micro", "address_1": "864 Commercial Ave", "address_2": null, "address_3": null, "city": "San Gabriel", "state_province": "California", "postal_code": "91776", "country": "United States", "longitude": "-118.0891476", "latitude": "34.096219", "phone": null, "website_url": "http://www.ogopogobrewco.com", "state": "California", "street": "864 Commercial Ave"}, {"id": "195c9a3a-3c64-4ba9-befb-a94b9b9a9573", "name": "Ogres Brewing", "brewery_type": "micro", "address_1": "7693 Cultus Bay Rd Ste 1", "address_2": null, "address_3": null, "city": "Clinton", "state_province": "Washington", "postal_code": "98236-9432", "country": "United States", "longitude": null, "latitude": null, "phone": "4254189005", "website_url": "http://www.ogresbrewing.com", "state": "Washington", "street": "7693 Cultus Bay Rd Ste 1"}, {"id": "c0757e3d-a7d9-485c-8bf2-919886691990", "name": "Ohana Brewing Co", "brewery_type": "micro", "address_1": "1756 E 23rd St", "address_2": null, "address_3": null, "city": "Los Angeles", "state_province": "California", "postal_code": "90058-1012", "country": "United States", "longitude": "-118.2415609", "latitude": "34.01575629", "phone": "6262822337", "website_url": "http://www.ohanabrew.com", "state": "California", "street": "1756 E 23rd St"}, {"id": "88ae39de-93d2-4832-97a1-3c28a0457ce8", "name": "Ohio Brewing Company", "brewery_type": "micro", "address_1": "2250 Front St", "address_2": null, "address_3": null, "city": "Cuyahoga Falls", "state_province": "Ohio", "postal_code": "44221-2510", "country": "United States", "longitude": "-81.4748217", "latitude": "41.1444116", "phone": "2342086243", "website_url": "http://www.ohiobrewing.com", "state": "Ohio", "street": "2250 Front St"}, {"id": "4c18e0e2-d6c6-430f-a3aa-3ffecd52e29d", "name": "Oil Horse Brewing Company", "brewery_type": "micro", "address_1": "101 W Tyler St", "address_2": null, "address_3": null, "city": "Longview", "state_province": "Texas", "postal_code": "75601-6318", "country": "United States", "longitude": "-94.740354", "latitude": "32.495365", "phone": "9032203414", "website_url": "http://Www.oilhorsebrewing.com", "state": "Texas", "street": "101 W Tyler St"}, {"id": "8afbe041-76da-4532-8b5b-484bb190e998", "name": "OK3 Brewing Company", "brewery_type": "micro", "address_1": "12913 17th Ave", "address_2": null, "address_3": null, "city": "Lemoore", "state_province": "California", "postal_code": "93245-9485", "country": "United States", "longitude": "-119.7617855", "latitude": "36.28513704", "phone": "15598164083", "website_url": "http://www.ok3brewing.com", "state": "California", "street": "12913 17th Ave"}, {"id": "81916cf6-f84e-4480-a48c-93ff1e1322ad", "name": "Okell & Sons Ltd", "brewery_type": "micro", "address_1": "Old Castletown Road", "address_2": null, "address_3": null, "city": "Kewaigue", "state_province": "Middle", "postal_code": "IM2 1QG", "country": "Isle of Man", "longitude": "-4.506495", "latitude": "54.143623", "phone": "+441624699400", "website_url": "https://www.okells.co.uk/", "state": "Middle", "street": "Old Castletown Road"}, {"id": "eabc841f-1006-44c9-a1bf-1b067946ea0a", "name": "Okoboji Brewing Co", "brewery_type": "micro", "address_1": "3705 Highway 71", "address_2": null, "address_3": null, "city": "Spirit Lake", "state_province": "Iowa", "postal_code": "51360-7196", "country": "United States", "longitude": "-95.125984", "latitude": "43.405983", "phone": "7123303363", "website_url": "http://www.brewokoboji.com", "state": "Iowa", "street": "3705 Highway 71"}, {"id": "7b8b7788-ba85-4324-8ed5-44ed0770911b", "name": "Ol' Republic Brewery", "brewery_type": "micro", "address_1": "124 Argall Way", "address_2": null, "address_3": null, "city": "Nevada City", "state_province": "California", "postal_code": "95959-3002", "country": "United States", "longitude": "-121.0244602", "latitude": "39.25272303", "phone": "5302647263", "website_url": "http://www.olrepublicbrewery.com", "state": "California", "street": "124 Argall Way"}, {"id": "02ff9941-1dab-4ef3-b713-21f3e095d62b", "name": "Ol' Republic Brewery Rancho Cordova", "brewery_type": "micro", "address_1": "11151 Trade Center Dr Ste 104", "address_2": null, "address_3": null, "city": "Rancho Cordova", "state_province": "California", "postal_code": "95670", "country": "United States", "longitude": "-121.2706039", "latitude": "38.60219217", "phone": "9162158702", "website_url": null, "state": "California", "street": "11151 Trade Center Dr Ste 104"}, {"id": "9dc287b2-c3b4-41d9-943f-eb24f2e4ce10", "name": "Ol' Shed Brewing Company", "brewery_type": "planning", "address_1": null, "address_2": null, "address_3": null, "city": "Mathis", "state_province": "Texas", "postal_code": "78368-1738", "country": "United States", "longitude": null, "latitude": null, "phone": null, "website_url": null, "state": "Texas", "street": null}, {"id": "74ecf1e8-780b-4fdf-a910-722bb60f8abb", "name": "Ola Brew Co.", "brewery_type": "micro", "address_1": "74-5598 Luhia St Ste A", "address_2": null, "address_3": null, "city": "Kailua Kona", "state_province": "Hawaii", "postal_code": "96740-3151", "country": "United States", "longitude": "-155.99806", "latitude": "19.646861", "phone": "8083393565", "website_url": "http://www.olabrewco.com", "state": "Hawaii", "street": "74-5598 Luhia St Ste A"}, {"id": "df551d63-a1b6-4973-b329-999f41e4c337", "name": "Old 290 Brewery", "brewery_type": "planning", "address_1": null, "address_2": null, "address_3": null, "city": "Santa Ana", "state_province": "California", "postal_code": "92704-7463", "country": "United States", "longitude": "-117.8732213", "latitude": "33.7494951", "phone": "7145464255", "website_url": null, "state": "California", "street": null}, {"id": "ac5ea286-db7c-47ea-ac22-e13289b39bbf", "name": "Old 690 Brewing Co", "brewery_type": "brewpub", "address_1": "15670 Ashbury Church Rd", "address_2": null, "address_3": null, "city": "Purcellville", "state_province": "Virginia", "postal_code": "20132-2817", "country": "United States", "longitude": null, "latitude": null, "phone": "5406687023", "website_url": "http://www.old690.com", "state": "Virginia", "street": "15670 Ashbury Church Rd"}, {"id": "fd94d41b-6d0a-4a93-a700-f042096025da", "name": "Old 99 Brewing Co", "brewery_type": "micro", "address_1": "3750 Hooker Rd Ste A", "address_2": null, "address_3": null, "city": "Roseburg", "state_province": "Oregon", "postal_code": "97470-4501", "country": "United States", "longitude": "-123.3532677", "latitude": "43.25418612", "phone": "5417848012", "website_url": "http://www.old99brewing.com", "state": "Oregon", "street": "3750 Hooker Rd Ste A"}, {"id": "78f58f23-0430-49bf-b50b-9371cb7ab9cb", "name": "Old Bavarian Brewing Co", "brewery_type": "contract", "address_1": "1515 Greendale St", "address_2": null, "address_3": null, "city": "Menasha", "state_province": "Wisconsin", "postal_code": "54952-2620", "country": "United States", "longitude": "-88.416059", "latitude": "44.217357", "phone": "9207300202", "website_url": "http://www.oldbavarian.com", "state": "Wisconsin", "street": "1515 Greendale St"}, {"id": "af3289a4-80a1-4aaa-872d-3699402bfbe2", "name": "Old Bisbee Brewing", "brewery_type": "micro", "address_1": "23 Brewery Ave", "address_2": null, "address_3": null, "city": "Bisbee", "state_province": "Arizona", "postal_code": "85603", "country": "United States", "longitude": "-109.9138438", "latitude": "31.44272169", "phone": "5204322739", "website_url": "http://www.oldbisbeebrewingcompany.com", "state": "Arizona", "street": "23 Brewery Ave"}, {"id": "f684669c-35f3-4626-9f4e-04906fbbfb58", "name": "Old Black Bear Brewing", "brewery_type": "micro", "address_1": "208 Main St", "address_2": null, "address_3": null, "city": "Madison", "state_province": "Alabama", "postal_code": "35758-1813", "country": "United States", "longitude": "-86.74922409", "latitude": "34.69329345", "phone": "2568504639", "website_url": null, "state": "Alabama", "street": "208 Main St"}, {"id": "9698719a-2987-488e-aa75-6b1c5ae568fc", "name": "Old Boys Brewhouse", "brewery_type": "brewpub", "address_1": "971 W Savidge St", "address_2": null, "address_3": null, "city": "Spring Lake", "state_province": "Michigan", "postal_code": "49456-1684", "country": "United States", "longitude": "-86.21215194", "latitude": "43.07642829", "phone": "6168509950", "website_url": "http://www.oldboysbrewhouse.com", "state": "Michigan", "street": "971 W Savidge St"}, {"id": "60cbbd4a-6323-4ac6-8614-ca4aae338a65", "name": "Old Bus Tavern", "brewery_type": "brewpub", "address_1": "3193 Mission St", "address_2": null, "address_3": null, "city": "San Francisco", "state_province": "California", "postal_code": "94110-4515", "country": "United States", "longitude": "-122.4195103", "latitude": "37.745701", "phone": "4158431938", "website_url": "http://www.oldbustavern.com", "state": "California", "street": "3193 Mission St"}, {"id": "14141cf3-5f2e-4179-92b9-a74e83c7aeaa", "name": "Old Bust Head Brewing Co.", "brewery_type": "micro", "address_1": "7134 Lineweaver Rd", "address_2": null, "address_3": null, "city": "Warrenton", "state_province": "Virginia", "postal_code": "20187-3949", "country": "United States", "longitude": null, "latitude": null, "phone": "5403474777", "website_url": "http://www.oldbusthead.com", "state": "Virginia", "street": "7134 Lineweaver Rd"}, {"id": "485b439f-0d2d-4106-8859-dbaafd85729b", "name": "Old Coast Ales", "brewery_type": "micro", "address_1": "300 Anastasia Blvd Ste C", "address_2": null, "address_3": null, "city": "Saint Augustine", "state_province": "Florida", "postal_code": "32080-4759", "country": "United States", "longitude": null, "latitude": null, "phone": "9045018575", "website_url": "http://www.oldcoastales.com", "state": "Florida", "street": "300 Anastasia Blvd Ste C"}, {"id": "ba6f163e-34ae-4314-9003-59f0720e2197", "name": "Old Colony Brewing", "brewery_type": "micro", "address_1": "605 Bedford St Unit 1", "address_2": null, "address_3": null, "city": "Whitman", "state_province": "Massachusetts", "postal_code": "02382-2088", "country": "United States", "longitude": null, "latitude": null, "phone": "7815237105", "website_url": "http://www.oldcolonybrew.com", "state": "Massachusetts", "street": "605 Bedford St Unit 1"}, {"id": "b945d00a-5596-4992-8010-f2313d71dc6b", "name": "Old Colorado Brewing Co", "brewery_type": "micro", "address_1": "8121 First St.", "address_2": null, "address_3": null, "city": "Wellington", "state_province": "Colorado", "postal_code": "80549", "country": "United States", "longitude": null, "latitude": null, "phone": "9702172129", "website_url": "http://www.oldcoloradobrewing.com", "state": "Colorado", "street": "8121 First St."}, {"id": "7e345dad-f25e-4817-ac2c-5f941fbe6b3f", "name": "Old Country Brewing", "brewery_type": "planning", "address_1": null, "address_2": null, "address_3": null, "city": "Fairfield", "state_province": "California", "postal_code": "94533-7790", "country": "United States", "longitude": "-122.0399663", "latitude": "38.2493581", "phone": null, "website_url": null, "state": "California", "street": null}, {"id": "65c4f76c-6d0e-4e7f-a668-1e0eb8971506", "name": "Old Detroit Brewing Co", "brewery_type": "planning", "address_1": null, "address_2": null, "address_3": null, "city": "Bloomfield Hills", "state_province": "Michigan", "postal_code": "48304-3817", "country": "United States", "longitude": null, "latitude": null, "phone": null, "website_url": null, "state": "Michigan", "street": null}, {"id": "1799d0b2-7266-4ad9-a3ca-15cc2e3bf833", "name": "Old Dog Alehouse & Brewery", "brewery_type": "micro", "address_1": "13 W William St", "address_2": null, "address_3": null, "city": "Delaware", "state_province": "Ohio", "postal_code": "43015", "country": "United States", "longitude": "-83.0998526", "latitude": "40.2984874", "phone": "740-990-4506", "website_url": "https://www.olddogalehouse.com/menu", "state": "Ohio", "street": "13 W William St"}, {"id": "60ad3e0d-4848-4049-8fc1-1960fe170fbd", "name": "Old Ellsworth Brewing Company", "brewery_type": "brewpub", "address_1": "22005 S Ellsworth Rd", "address_2": null, "address_3": null, "city": "Queen Creek", "state_province": "Arizona", "postal_code": "85142-8707", "country": "United States", "longitude": "-111.6343894", "latitude": "33.24511285", "phone": "4804330651", "website_url": "http://www.oldebc.com", "state": "Arizona", "street": "22005 S Ellsworth Rd"}, {"id": "18749797-7047-40a7-915d-feb5edfd5caa", "name": "Old Firehouse Brewery", "brewery_type": "micro", "address_1": "237 W Main St", "address_2": null, "address_3": null, "city": "Williamsburg", "state_province": "Ohio", "postal_code": "45176-1342", "country": "United States", "longitude": "-84.05307618", "latitude": "39.05398396", "phone": "5135369071", "website_url": "http://www.oldfirehousebrewery.com", "state": "Ohio", "street": "237 W Main St"}, {"id": "724c81c8-1ab1-47ce-bd14-1bce1e9c02bc", "name": "Old Forge Brewing Co", "brewery_type": "micro", "address_1": "401 Railroad St Ste 104", "address_2": null, "address_3": null, "city": "Danville", "state_province": "Pennsylvania", "postal_code": "17821-1593", "country": "United States", "longitude": null, "latitude": null, "phone": "5702758151", "website_url": "http://www.oldforgebrewingcompany.com", "state": "Pennsylvania", "street": "401 Railroad St Ste 104"}, {"id": "49051f65-584d-4045-8a6f-3f55499f9f2a", "name": "Old Forge Brewing Co", "brewery_type": "brewpub", "address_1": "532 Mill St", "address_2": null, "address_3": null, "city": "Danville", "state_province": "Pennsylvania", "postal_code": "17821-1015", "country": "United States", "longitude": "-76.61600763", "latitude": "40.96547999", "phone": "5702758151", "website_url": "http://www.oldforgebrewingcompany.com", "state": "Pennsylvania", "street": "532 Mill St"}, {"id": "92732f6c-a628-4eaa-a240-d5534a8ee449", "name": "Old Hangtown Beer Works", "brewery_type": "micro", "address_1": null, "address_2": null, "address_3": null, "city": "Placerville", "state_province": "California", "postal_code": "95667", "country": "United States", "longitude": "-120.798546", "latitude": "38.7296252", "phone": "5309195166", "website_url": null, "state": "California", "street": null}, {"id": "baee055a-ed44-4149-bb78-804a064dc3d9", "name": "Old Hangtown Beer Works", "brewery_type": "micro", "address_1": "11327 Trade Center Dr Ste 350", "address_2": null, "address_3": null, "city": "Rancho Cordova", "state_province": "California", "postal_code": "95742-6285", "country": "United States", "longitude": "-121.264149", "latitude": "38.6075491", "phone": "5309195166", "website_url": "http://www.oldhangtownbeerworks.com", "state": "California", "street": "11327 Trade Center Dr Ste 350"}, {"id": "c4a47c6d-ab6b-4ac7-9f15-17e830111015", "name": "Old House Vineyards", "brewery_type": "micro", "address_1": "18351 Corkys Ln", "address_2": null, "address_3": null, "city": "Culpeper", "state_province": "Virginia", "postal_code": "22701", "country": "United States", "longitude": null, "latitude": null, "phone": "5404231032", "website_url": "http://www.oldhousevineyards.com", "state": "Virginia", "street": "18351 Corkys Ln"}, {"id": "bacebf35-8146-4ec3-abe8-545c53d935a7", "name": "Old Irving Brewing Co.", "brewery_type": "brewpub", "address_1": "4419 W Montrose Ave", "address_2": null, "address_3": null, "city": "Chicago", "state_province": "Illinois", "postal_code": "60641-2021", "country": "United States", "longitude": "-87.7394333", "latitude": "41.9605751", "phone": "7739166421", "website_url": "http://www.oldirvingbrewing.com", "state": "Illinois", "street": "4419 W Montrose Ave"}, {"id": "1dc3e29e-702f-42df-9561-aead46dce8f3", "name": "Old Ivy Brewery and Taproom", "brewery_type": "brewpub", "address_1": "108 W Evergreen Blvd Ste A", "address_2": null, "address_3": null, "city": "Vancouver", "state_province": "Washington", "postal_code": "98660-3124", "country": "United States", "longitude": null, "latitude": null, "phone": "3609931827", "website_url": "http://www.oldivybrewery.com", "state": "Washington", "street": "108 W Evergreen Blvd Ste A"}, {"id": "c5aea541-9ffc-402b-bfb5-ab680e8edb1a", "name": "Old Kan Beer & Co", "brewery_type": "brewpub", "address_1": "95 Linden St", "address_2": null, "address_3": null, "city": "Oakland", "state_province": "California", "postal_code": "94607-2510", "country": "United States", "longitude": "-122.2879928", "latitude": "37.7995945", "phone": "5103383965", "website_url": "http://www.old-kan.com", "state": "California", "street": "95 Linden St"}, {"id": "08eed67d-4ce8-4871-8b2d-5fb77a2543f7", "name": "Old Klaverack Brewery", "brewery_type": "micro", "address_1": "150 Thielman Rd", "address_2": null, "address_3": null, "city": "Hudson", "state_province": "New York", "postal_code": "12534-3716", "country": "United States", "longitude": null, "latitude": null, "phone": "5189651437", "website_url": "http://www.oldklaverackbrewery.com", "state": "New York", "street": "150 Thielman Rd"}, {"id": "1e875480-8642-4d5f-a9b7-d1b582657830", "name": "Old Louisville Brewery", "brewery_type": "micro", "address_1": "625 W Magnolia Ave", "address_2": null, "address_3": null, "city": "Louisville", "state_province": "Kentucky", "postal_code": "40208-2239", "country": "United States", "longitude": "-85.76579382", "latitude": "38.22970855", "phone": "5024985434", "website_url": "http://www.oldlouisvillebrewery.com", "state": "Kentucky", "street": "625 W Magnolia Ave"}, {"id": "ee77f852-eeaf-4166-ac21-72afe9810545", "name": "Old Majestic Brewing Company", "brewery_type": "planning", "address_1": null, "address_2": null, "address_3": null, "city": "Mobile", "state_province": "Alabama", "postal_code": "36602-2404", "country": "United States", "longitude": "-88.0430541", "latitude": "30.6943566", "phone": "2514347387", "website_url": null, "state": "Alabama", "street": null}, {"id": "9ff19944-bee2-4bc3-8f15-288588c9d1c5", "name": "Old Market Pub and Brewery", "brewery_type": "brewpub", "address_1": "6959 SW Multnomah Blvd", "address_2": null, "address_3": null, "city": "Portland", "state_province": "Oregon", "postal_code": "97223-3439", "country": "United States", "longitude": "-122.7486715", "latitude": "45.46603555", "phone": "5032440450", "website_url": "http://www.drinkbeerhere.com", "state": "Oregon", "street": "6959 SW Multnomah Blvd"}, {"id": "632333a1-7c1e-4fde-9e34-145a803be4dc", "name": "Old Mill Brewing Company", "brewery_type": "micro", "address_1": "Convoy Enterprise Centre", "address_2": null, "address_3": null, "city": "Convoy", "state_province": "Donegal", "postal_code": "F93 X314", "country": "Ireland", "longitude": "-7.6664472", "latitude": "54.8605864", "phone": "353833447788", "website_url": null, "state": "Donegal", "street": "Convoy Enterprise Centre"}, {"id": "df0d2a61-3905-4340-a0b9-be4bf6bd30ef", "name": "Old Mill Brewpub", "brewery_type": "brewpub", "address_1": "711 E Main St", "address_2": null, "address_3": null, "city": "Lexington", "state_province": "South Carolina", "postal_code": "29072-3670", "country": "United States", "longitude": "-81.2298014", "latitude": "33.9772343", "phone": "8037852337", "website_url": "http://www.oldmillbrewpub.net", "state": "South Carolina", "street": "711 E Main St"}, {"id": "fd4d4773-1ead-4f71-9f61-55cdfe620267", "name": "Old Mill Brewpub and Grill", "brewery_type": "brewpub", "address_1": "717 E Bridge St", "address_2": null, "address_3": null, "city": "Plainwell", "state_province": "Michigan", "postal_code": "49080-1801", "country": "United States", "longitude": "-85.63224537", "latitude": "42.442939", "phone": "2692046601", "website_url": "http://www.oldmillbrew.com", "state": "Michigan", "street": "717 E Bridge St"}, {"id": "5a9cc7b6-2864-48be-81a8-0a27a48440ac", "name": "Old Mill Craft Beer", "brewery_type": "micro", "address_1": "2376 State Route 850", "address_2": null, "address_3": null, "city": "Bidwell", "state_province": "Ohio", "postal_code": "45614-9590", "country": "United States", "longitude": null, "latitude": null, "phone": "7402459463", "website_url": null, "state": "Ohio", "street": "2376 State Route 850"}, {"id": "caf2d686-872a-423f-9593-6ec537c7f13e", "name": "Old Nation Brewing Company", "brewery_type": "micro", "address_1": "1500 W. Grand River Ave", "address_2": null, "address_3": null, "city": "Williamston", "state_province": "Michigan", "postal_code": "48895-97ND", "country": "United States", "longitude": "-84.2899561", "latitude": "42.6878555", "phone": "5176551301", "website_url": "http://www.oldnationbrewing.com", "state": "Michigan", "street": "1500 W. Grand River Ave"}, {"id": "b02c0a0c-840d-459e-b9e9-347cd9ebfc44", "name": "Old Ox Brewery LLC", "brewery_type": "micro", "address_1": "44652 Guilford Dr Ste 114", "address_2": null, "address_3": null, "city": "Ashburn", "state_province": "Virginia", "postal_code": "20147-6006", "country": "United States", "longitude": "-77.45608031", "latitude": "39.02226368", "phone": "7037298375", "website_url": "http://www.oldoxbrewery.com", "state": "Virginia", "street": "44652 Guilford Dr Ste 114"}, {"id": "2582e5ad-5382-4e33-a5a3-7c0e321b7208", "name": "Old Planters Brewing Co.", "brewery_type": "micro", "address_1": "100 Corning St", "address_2": null, "address_3": null, "city": "Beverly", "state_province": "Massachusetts", "postal_code": "01915-3837", "country": "United States", "longitude": "-70.86287139", "latitude": "42.55499645", "phone": "9785226446", "website_url": "http://www.oldplanters.com", "state": "Massachusetts", "street": "100 Corning St"}, {"id": "6ce2c54b-2304-46e8-a50d-ffc84489ed06", "name": "Old Possum Brewing Company", "brewery_type": "brewpub", "address_1": "357 Sutton Pl", "address_2": null, "address_3": null, "city": "Santa Rosa", "state_province": "California", "postal_code": "95407", "country": "United States", "longitude": "-122.7252078", "latitude": "38.39097419", "phone": "7073037177", "website_url": "http://www.oldpossumbrewing.com", "state": "California", "street": "357 Sutton Pl"}, {"id": "ebc2f1b3-852f-4e01-b412-09a669cd0c7f", "name": "Old Rail Brewing Co", "brewery_type": "brewpub", "address_1": "639 Girod St", "address_2": null, "address_3": null, "city": "Mandeville", "state_province": "Louisiana", "postal_code": "70448-5205", "country": "United States", "longitude": "-90.06386106", "latitude": "30.35985466", "phone": "9856121828", "website_url": "http://www.oldrailbrewing.com", "state": "Louisiana", "street": "639 Girod St"}, {"id": "43e3961c-245d-448b-9745-6be68d5bd105", "name": "Old Redwood Brewing Co", "brewery_type": "closed", "address_1": "9000 Windsor Rd # A", "address_2": null, "address_3": null, "city": "Windsor", "state_province": "California", "postal_code": "95492-9701", "country": "United States", "longitude": "-122.8166482", "latitude": "38.5475452", "phone": "7076577624", "website_url": "http://www.oldredwoodbrewing.com", "state": "California", "street": "9000 Windsor Rd # A"}, {"id": "0b2aaada-2557-45f9-a039-b4a41832183f", "name": "Old Schoolhouse Brewery", "brewery_type": "brewpub", "address_1": "155 Riverside Ave", "address_2": null, "address_3": null, "city": "Winthrop", "state_province": "Washington", "postal_code": "98862-0577", "country": "United States", "longitude": "-120.1866354", "latitude": "48.47814625", "phone": "5099963183", "website_url": "http://www.oldschoolhousebrewery.com", "state": "Washington", "street": "155 Riverside Ave"}, {"id": "788d873c-70cc-4d9e-94f5-a2675f2c23fa", "name": "Old Soul Brewing", "brewery_type": "micro", "address_1": "10970 S Cleveland Ave Ste 402", "address_2": null, "address_3": null, "city": "Fort Myers", "state_province": "Florida", "postal_code": "33907-2315", "country": "United States", "longitude": null, "latitude": null, "phone": "2393344334", "website_url": "http://www.oldsoulbrewcompany.com", "state": "Florida", "street": "10970 S Cleveland Ave Ste 402"}, {"id": "d6dab3d7-38df-41b7-a2f0-21699fcf1a7b", "name": "Old Spruce Brewing", "brewery_type": "brewpub", "address_1": "10 Snowshoe Dr", "address_2": null, "address_3": null, "city": "Snowshoe", "state_province": "West Virginia", "postal_code": "26209", "country": "United States", "longitude": "-80.036148", "latitude": "38.416222", "phone": "3045721020", "website_url": "http://www.oldsprucetavern.com", "state": "West Virginia", "street": "10 Snowshoe Dr"}, {"id": "b97ab81e-5190-41da-8107-8014bfa7a4d4", "name": "Old Station Brewing Co", "brewery_type": "micro", "address_1": "140 1st St", "address_2": null, "address_3": null, "city": "Havre", "state_province": "Montana", "postal_code": "59501-3502", "country": "United States", "longitude": "-109.6803593", "latitude": "48.55367512", "phone": "4062650980", "website_url": null, "state": "Montana", "street": "140 1st St"}, {"id": "59614bdc-7e99-4f33-be89-3d38e50dbde7", "name": "Old Stove Brewing Company", "brewery_type": "brewpub", "address_1": "1916 Pike Pl Ste 12 # 420", "address_2": null, "address_3": null, "city": "Seattle", "state_province": "Washington", "postal_code": "98101-1056", "country": "United States", "longitude": null, "latitude": null, "phone": "2066602682", "website_url": "http://www.oldstove.com", "state": "Washington", "street": "1916 Pike Pl Ste 12 # 420"}, {"id": "0eb7bedd-5067-44f4-b5c5-28997e84b34a", "name": "Old Stump Brewery", "brewery_type": "micro", "address_1": "2896 Metropolitan Pl", "address_2": null, "address_3": null, "city": "Pomona", "state_province": "California", "postal_code": "91767-1854", "country": "United States", "longitude": "-117.7541465", "latitude": "34.09763808", "phone": "9098609052", "website_url": "http://www.oldstumpbrewery.com", "state": "California", "street": "2896 Metropolitan Pl"}, {"id": "b16226d8-7fb9-4f93-99b8-055edbb68325", "name": "Old Town Abbey Ales", "brewery_type": "proprietor", "address_1": "125 S Jefferson St Unit 2709", "address_2": null, "address_3": null, "city": "Chicago", "state_province": "Illinois", "postal_code": "60661-3731", "country": "United States", "longitude": null, "latitude": null, "phone": "3126226544", "website_url": "http://www.oldtownabbey.com", "state": "Illinois", "street": "125 S Jefferson St Unit 2709"}, {"id": "71e0c30f-3833-4d6c-83b6-ecce06256c93", "name": "Old Town Brewhouse", "brewery_type": "micro", "address_1": "146 Whatley Ave", "address_2": null, "address_3": null, "city": "Lewisville", "state_province": "Texas", "postal_code": "75057-3961", "country": "United States", "longitude": "-96.99353141", "latitude": "33.044038", "phone": "9722212337", "website_url": "http://www.cobrabrewingco.com", "state": "Texas", "street": "146 Whatley Ave"}, {"id": "e7f93b89-81e3-411d-8260-e2c6ec60c587", "name": "Old Town Brewing", "brewery_type": "brewpub", "address_1": "5201 NE M L King Blvd", "address_2": null, "address_3": null, "city": "Portland", "state_province": "Oregon", "postal_code": "97211-3235", "country": "United States", "longitude": "-122.6639427", "latitude": "45.5606811", "phone": "5032005988", "website_url": "http://www.otbrewing.com", "state": "Oregon", "street": "5201 NE M L King Blvd"}, {"id": "1a23b4af-f4c1-455c-a8d2-37eadf0ba098", "name": "Old Trade Brewery", "brewery_type": "micro", "address_1": "13270 Alanthus Rd", "address_2": null, "address_3": null, "city": "Brandy Station", "state_province": "Virginia", "postal_code": "22714-1905", "country": "United States", "longitude": "-77.910796", "latitude": "38.523145", "phone": "7742188645", "website_url": "http://www.oldtradebrewery.com", "state": "Virginia", "street": "13270 Alanthus Rd"}, {"id": "12e7aba5-3cf1-417f-9d75-e35a48398119", "name": "Old Tree Brewery", "brewery_type": "micro", "address_1": "Richmond Place", "address_2": null, "address_3": null, "city": "Brighton", "state_province": "East Sussex", "postal_code": "BN2 9NA", "country": "England", "longitude": "-0.134261", "latitude": "50.828046", "phone": "7413064346", "website_url": "https://oldtree.house/", "state": "East Sussex", "street": "Richmond Place"}, {"id": "c5c707c0-4459-4e37-9673-00a58959a74d", "name": "Olde Bedford Brewing Company", "brewery_type": "micro", "address_1": "109 Railroad St", "address_2": null, "address_3": null, "city": "Bedford", "state_province": "Pennsylvania", "postal_code": "15522-1014", "country": "United States", "longitude": "-78.5033435", "latitude": "40.021898", "phone": "9072297942", "website_url": "http://www.oldebbc.com", "state": "Pennsylvania", "street": "109 Railroad St"}, {"id": "379400de-0839-4f1e-94f4-b34d888e0f50", "name": "Olde Burnside Brewing Co.", "brewery_type": "micro", "address_1": "776 Tolland St", "address_2": null, "address_3": null, "city": "East Hartford", "state_province": "Connecticut", "postal_code": "06108-2727", "country": "United States", "longitude": "-72.60022238", "latitude": "41.7850567", "phone": "8605282200", "website_url": "http://www.oldeburnsidebrewing.com", "state": "Connecticut", "street": "776 Tolland St"}, {"id": "6b3bd021-21d2-4a08-8883-3f22c7df0896", "name": "Olde Hickory Brewery - Production", "brewery_type": "micro", "address_1": "2 3rd St SW", "address_2": null, "address_3": null, "city": "Hickory", "state_province": "North Carolina", "postal_code": "28602-2941", "country": "United States", "longitude": "-81.34229502", "latitude": "35.7313114", "phone": null, "website_url": null, "state": "North Carolina", "street": "2 3rd St SW"}, {"id": "538cd69c-0efe-43e1-bef4-a93fac2ae151", "name": "Olde Hickory Brewery & Amos Howards", "brewery_type": "brewpub", "address_1": "2828 US Highway 70 SW", "address_2": null, "address_3": null, "city": "Hickory", "state_province": "North Carolina", "postal_code": "28602-4645", "country": "United States", "longitude": null, "latitude": null, "phone": "8283238753", "website_url": "http://www.amoshowards.com", "state": "North Carolina", "street": "2828 US Highway 70 SW"}, {"id": "1abb8651-92a8-4388-89ad-0c62011de017", "name": "Olde Main Brewing Co & Restaurant", "brewery_type": "closed", "address_1": "316 Main St", "address_2": null, "address_3": null, "city": "Ames", "state_province": "Iowa", "postal_code": "50010", "country": "United States", "longitude": "-93.61410043", "latitude": "42.02503227", "phone": "5152320553", "website_url": "http://www.oldemainbrewing.com/", "state": "Iowa", "street": "316 Main St"}, {"id": "dd9deed9-dddf-45b9-b439-8a6a4d9be915", "name": "Olde Mother Brewing, LLC", "brewery_type": "micro", "address_1": "911 E Patrick St", "address_2": null, "address_3": null, "city": "Frederick", "state_province": "Maryland", "postal_code": "21701-3132", "country": "United States", "longitude": "-77.3912138", "latitude": "39.40928", "phone": "3016241700", "website_url": "http://OldeMother.com", "state": "Maryland", "street": "911 E Patrick St"}, {"id": "f32515b5-61f3-4a83-9c8e-34a05734158a", "name": "Olde Peninsula Brewpub and Restaurant", "brewery_type": "brewpub", "address_1": "200 E Michigan Ave", "address_2": null, "address_3": null, "city": "Kalamazoo", "state_province": "Michigan", "postal_code": "49007-3961", "country": "United States", "longitude": "-85.581578", "latitude": "42.2916484", "phone": "2693432739", "website_url": "http://www.oldepeninsula.com", "state": "Michigan", "street": "200 E Michigan Ave"}, {"id": "1d13ecd0-7e01-4919-bae6-eb64f29e53e1", "name": "Olde Salem Brewing Company", "brewery_type": "micro", "address_1": "21 E Main St", "address_2": null, "address_3": null, "city": "Salem", "state_province": "Virginia", "postal_code": "24153-3806", "country": "United States", "longitude": "-80.04053168", "latitude": "37.29440174", "phone": null, "website_url": "http://oldesalembrewing.com", "state": "Virginia", "street": "21 E Main St"}, {"id": "24245887-9267-4799-b5a4-82e95deea0c0", "name": "Ole Dallas Brewery", "brewery_type": "micro", "address_1": null, "address_2": null, "address_3": null, "city": "Dallas", "state_province": "North Carolina", "postal_code": "28034-9793", "country": "United States", "longitude": null, "latitude": null, "phone": "7042661472", "website_url": "http://www.oledallasbrewery.com", "state": "North Carolina", "street": null}, {"id": "9494d683-de13-4a05-a457-b250a497c54f", "name": "Ole Shed Brewing Company", "brewery_type": "micro", "address_1": "516 E Carroll St", "address_2": null, "address_3": null, "city": "Tullahoma", "state_province": "Tennessee", "postal_code": "37388-3983", "country": "United States", "longitude": "-86.19823741", "latitude": "35.36075686", "phone": "9312124277", "website_url": "http://www.oleshedbrewing.com", "state": "Tennessee", "street": "516 E Carroll St"}, {"id": "bf79ba63-583a-4545-bc3c-feddd9123c36", "name": "Olentangy River Brewing Company", "brewery_type": "micro", "address_1": "303 Green Meadows Dr S", "address_2": null, "address_3": null, "city": "Lewis Center", "state_province": "Ohio", "postal_code": "43035", "country": "United States", "longitude": "-83.0798709", "latitude": "40.1618242", "phone": "740-803-1561", "website_url": "http://www.olentangybrew.com/", "state": "Ohio", "street": "303 Green Meadows Dr S"}, {"id": "9ee73057-9c01-46b3-b5fd-7900bfbc2eb0", "name": "Oliphant Brewing", "brewery_type": "micro", "address_1": "350 Main St Ste 2", "address_2": null, "address_3": null, "city": "Somerset", "state_province": "Wisconsin", "postal_code": "54025-9108", "country": "United States", "longitude": null, "latitude": null, "phone": "6513077881", "website_url": "http://www.oliphantbrewing.com", "state": "Wisconsin", "street": "350 Main St Ste 2"}, {"id": "d5d6202f-bbba-45a5-b363-cf14a1b87ad5", "name": "Oliver Brewing Company", "brewery_type": "micro", "address_1": "4216 Shannon Dr", "address_2": null, "address_3": null, "city": "Baltimore", "state_province": "Maryland", "postal_code": "21213-2144", "country": "United States", "longitude": "-76.5531768", "latitude": "39.3149018", "phone": "4104833302", "website_url": "http://www.oliverbrewingco.com", "state": "Maryland", "street": "4216 Shannon Dr"}, {"id": "74ece31f-809b-4139-882a-1e1c9328b7f6", "name": "Ology Brewing Co", "brewery_type": "micro", "address_1": "118 E 6th Ave", "address_2": null, "address_3": null, "city": "Tallahassee", "state_province": "Florida", "postal_code": "32303", "country": "United States", "longitude": "-84.2815824", "latitude": "30.45646517", "phone": "8505662463", "website_url": "http://www.ologybrewing.com", "state": "Florida", "street": "118 E 6th Ave"}, {"id": "077b9bc3-e570-4f08-a6c6-87325271424a", "name": "Olvalde Farm & Brewing", "brewery_type": "micro", "address_1": "16557 County Road 25", "address_2": null, "address_3": null, "city": "Rollingstone", "state_province": "Minnesota", "postal_code": "55969-4046", "country": "United States", "longitude": null, "latitude": null, "phone": "5072054969", "website_url": "http://www.olvalde.com", "state": "Minnesota", "street": "16557 County Road 25"}, {"id": "a88637ad-825b-415c-b29f-601794f2ecb5", "name": "Omaha Brewing Company", "brewery_type": "micro", "address_1": "265 Brew St", "address_2": null, "address_3": null, "city": "Omaha", "state_province": "Georgia", "postal_code": "31821-2258", "country": "United States", "longitude": null, "latitude": null, "phone": "2298384779", "website_url": "http://www.omahabrewingcompany.com", "state": "Georgia", "street": "265 Brew St"}, {"id": "853b4f3f-35bd-48e7-a735-0e3364043a8a", "name": "Ombibulous Brewing Company", "brewery_type": "planning", "address_1": null, "address_2": null, "address_3": null, "city": "Fall Creek", "state_province": "Wisconsin", "postal_code": "54742-4965", "country": "United States", "longitude": null, "latitude": null, "phone": "7155779151", "website_url": null, "state": "Wisconsin", "street": null}, {"id": "e5f2f0af-a281-4c82-a065-98689363dd4c", "name": "Omega Brewing Experience", "brewery_type": "micro", "address_1": "115 E. Main St", "address_2": null, "address_3": null, "city": "Omro", "state_province": "Wisconsin", "postal_code": "54963", "country": "United States", "longitude": "-88.7441189", "latitude": "44.0396052", "phone": null, "website_url": "https://www.facebook.com/Omega-Brewing-Experience-163883807641712/", "state": "Wisconsin", "street": "115 E. Main St"}, {"id": "670097b2-bf75-4157-b909-e829676a0592", "name": "OMNI Brewing Company", "brewery_type": "micro", "address_1": "9462 Deerwood Ln N", "address_2": null, "address_3": null, "city": "Maple Grove", "state_province": "Minnesota", "postal_code": "55369-3629", "country": "United States", "longitude": "-93.42589843", "latitude": "45.12605143", "phone": "7152229832", "website_url": null, "state": "Minnesota", "street": "9462 Deerwood Ln N"}, {"id": "76934d0b-fc8e-4050-8138-2da6a3059081", "name": "On Rotation Brewery", "brewery_type": "micro", "address_1": "7328 Gaston Ave # 110", "address_2": null, "address_3": null, "city": "Dallas", "state_province": "Texas", "postal_code": "75214-4130", "country": "United States", "longitude": "-96.731396", "latitude": "32.8109335", "phone": "9728072588", "website_url": "http://www.on-rotation.com", "state": "Texas", "street": "7328 Gaston Ave # 110"}, {"id": "666792cc-8e1e-4db4-8d1d-c59c01356838", "name": "On The Fly Brewing Company", "brewery_type": "planning", "address_1": null, "address_2": null, "address_3": null, "city": "Sunbury", "state_province": "Ohio", "postal_code": "43074-9022", "country": "United States", "longitude": null, "latitude": null, "phone": "6145618735", "website_url": "http://www.ontheflybrewing.com", "state": "Ohio", "street": null}, {"id": "a3261795-e389-45f6-9d4f-5ef77392416f", "name": "On Tour Brewing Co.", "brewery_type": "micro", "address_1": "1725 W Hubbard St", "address_2": null, "address_3": null, "city": "Chicago", "state_province": "Illinois", "postal_code": "60622-6213", "country": "United States", "longitude": "-87.670578", "latitude": "41.8896255", "phone": "3127963119", "website_url": "http://www.ontourbrewing.com", "state": "Illinois", "street": "1725 W Hubbard St"}, {"id": "460f7adb-fa4e-4c32-aa32-367065e140fc", "name": "One Allegiance Brewing", "brewery_type": "planning", "address_1": null, "address_2": null, "address_3": null, "city": "Chicago Ridge", "state_province": "Illinois", "postal_code": "60415-1347", "country": "United States", "longitude": null, "latitude": null, "phone": null, "website_url": "http://www.OneAllegiance.com", "state": "Illinois", "street": null}, {"id": "8aeb41b6-5d7e-4b56-8170-af58e83e6c3d", "name": "One Barrel Brewing Company", "brewery_type": "micro", "address_1": "2001 Atwood Ave", "address_2": null, "address_3": null, "city": "Madison", "state_province": "Wisconsin", "postal_code": "53704-5324", "country": "United States", "longitude": "-89.35499479", "latitude": "43.09180985", "phone": "6086309286", "website_url": "http://www.onebarrelbrewing.com", "state": "Wisconsin", "street": "2001 Atwood Ave"}, {"id": "d3794681-04d5-428e-91b4-c700d35e1eef", "name": "One Brewing / Harmony Meadows Center", "brewery_type": "closed", "address_1": "4848 Green Ave Ste B", "address_2": null, "address_3": null, "city": "Manson", "state_province": "Washington", "postal_code": "98831-9404", "country": "United States", "longitude": null, "latitude": null, "phone": "5098882344", "website_url": "http://www.harmonymeadowscenter.com", "state": "Washington", "street": "4848 Green Ave Ste B"}, {"id": "bfe4620f-2af2-457c-8465-2d85e6b926bb", "name": "One Eye Open Brewing Company", "brewery_type": "micro", "address_1": "41 Fox Street Shed A", "address_2": null, "address_3": null, "city": "Portland", "state_province": "Maine", "postal_code": "04101-2538", "country": "United States", "longitude": null, "latitude": null, "phone": "2075364176", "website_url": "http://www.oeobrewing.com", "state": "Maine", "street": "41 Fox Street Shed A"}, {"id": "6fd50d10-b732-4eb1-9f20-3cd45ff45d21", "name": "One Eyed Buffalo Brewing Company LLC", "brewery_type": "brewpub", "address_1": "528 Broadway St", "address_2": null, "address_3": null, "city": "Thermopolis", "state_province": "Wyoming", "postal_code": "82443-2718", "country": "United States", "longitude": "-108.2107883", "latitude": "43.64609158", "phone": "3078643555", "website_url": null, "state": "Wyoming", "street": "528 Broadway St"}, {"id": "1a669bd2-fdb1-437f-98f8-06d3a1bc0274", "name": "One Legged Pheasant Brewery", "brewery_type": "micro", "address_1": "721 S Main St", "address_2": null, "address_3": null, "city": "Aberdeen", "state_province": "South Dakota", "postal_code": "57401-6047", "country": "United States", "longitude": "-98.48790197", "latitude": "45.45741525", "phone": "6057251534", "website_url": "http://oneleggedpheasant.com", "state": "South Dakota", "street": "721 S Main St"}, {"id": "1d7e5d18-1159-4ff0-ae9a-eb00af7d14cb", "name": "One Love Brewery", "brewery_type": "brewpub", "address_1": "25 S Mountain Rd", "address_2": null, "address_3": null, "city": "Lincoln", "state_province": "New Hampshire", "postal_code": "03251-4268", "country": "United States", "longitude": null, "latitude": null, "phone": "6037457290", "website_url": "http://www.onelovebrewery.com", "state": "New Hampshire", "street": "25 S Mountain Rd"}, {"id": "e3942af4-576c-42af-9395-735a5d44e762", "name": "One Trick Pony Brewery", "brewery_type": "micro", "address_1": "17845 Chappel Ave # 17851", "address_2": null, "address_3": null, "city": "Lansing", "state_province": "Illinois", "postal_code": "60438-4525", "country": "United States", "longitude": null, "latitude": null, "phone": "7088896683", "website_url": "http://www.onetrickponybrewery.com", "state": "Illinois", "street": "17845 Chappel Ave # 17851"}, {"id": "59764d11-cd2b-4d85-8e4c-a7d64cdc5754", "name": "One Well Brewing", "brewery_type": "planning", "address_1": null, "address_2": null, "address_3": null, "city": "Kalamazoo", "state_province": "Michigan", "postal_code": "49001-5264", "country": "United States", "longitude": null, "latitude": null, "phone": "2694599240", "website_url": null, "state": "Michigan", "street": null}, {"id": "ea5c0b16-2adc-444c-a5c4-77c28c07a5cd", "name": "One Well Brewing", "brewery_type": "brewpub", "address_1": "4213 Portage St", "address_2": null, "address_3": null, "city": "Kalamazoo", "state_province": "Michigan", "postal_code": "49001-5264", "country": "United States", "longitude": "-85.5591755", "latitude": "42.2485915", "phone": "2694599240", "website_url": "http://www.onewellbrewing.com", "state": "Michigan", "street": "4213 Portage St"}, {"id": "4d0805e5-a99c-4deb-b8f7-1eb3a2449fd6", "name": "One World Brewing", "brewery_type": "micro", "address_1": "10 Patton Ave Ste 002", "address_2": null, "address_3": null, "city": "Asheville", "state_province": "North Carolina", "postal_code": "28801-3302", "country": "United States", "longitude": null, "latitude": null, "phone": "8287855580", "website_url": "http://www.oneworldbrewing.com", "state": "North Carolina", "street": "10 Patton Ave Ste 002"}, {"id": "7cbe110f-d5b6-42bc-b3c6-43dd3b5b6c0e", "name": "Only Child Brewing Company", "brewery_type": "micro", "address_1": "1350 Tri State Pkwy Ste 124", "address_2": null, "address_3": null, "city": "Gurnee", "state_province": "Illinois", "postal_code": "60031-9135", "country": "United States", "longitude": "-87.9558129", "latitude": "42.3826426", "phone": "2246565241", "website_url": "http://www.onlychildbrewing.com", "state": "Illinois", "street": "1350 Tri State Pkwy Ste 124"}, {"id": "9506a7a6-918f-403f-8c97-0258a6c9258c", "name": "Ono Brewing Company", "brewery_type": "micro", "address_1": "4520 Daly Dr Ste 102", "address_2": null, "address_3": null, "city": "Chantilly", "state_province": "Virginia", "postal_code": "20151-3735", "country": "United States", "longitude": "-77.44370063", "latitude": "38.88327875", "phone": "5714096662", "website_url": "http://www.onobrewco.com", "state": "Virginia", "street": "4520 Daly Dr Ste 102"}, {"id": "82356efc-f035-4524-9d3a-b92cc7f49ba6", "name": "Onsite Brewing Company", "brewery_type": "micro", "address_1": "3211 Denali St", "address_2": null, "address_3": null, "city": "Anchorage", "state_province": "Alaska", "postal_code": "99503-4030", "country": "United States", "longitude": "-149.876395", "latitude": "61.191918", "phone": "9073102337", "website_url": "https://onsitebrewing.com", "state": "Alaska", "street": "3211 Denali St"}, {"id": "48c665c3-108e-4c2d-8a61-7dece8271027", "name": "Ooga Brewing Company", "brewery_type": "brewpub", "address_1": "301 S Spring St", "address_2": null, "address_3": null, "city": "Beaver Dam", "state_province": "Wisconsin", "postal_code": "53916", "country": "United States", "longitude": "-88.8393255", "latitude": "43.4530921", "phone": "9203065100", "website_url": "https://oogabrewing.com/", "state": "Wisconsin", "street": "301 S Spring St"}, {"id": "2a2cfa3a-a9b7-43bb-bac4-3961a0eb84af", "name": "Ookapow Brewing Company", "brewery_type": "micro", "address_1": "1142 Old Okeechobee Road, Bay 13", "address_2": null, "address_3": null, "city": "West Palm Beach", "state_province": "Florida", "postal_code": "33401", "country": "United States", "longitude": null, "latitude": null, "phone": "7183009006", "website_url": "http://www.ookapow.com", "state": "Florida", "street": "1142 Old Okeechobee Road, Bay 13"}, {"id": "e7098631-04bb-4065-bf60-1416a452a022", "name": "Opa Opa Brewery", "brewery_type": "contract", "address_1": "19 Wemelco Way", "address_2": null, "address_3": null, "city": "Easthampton", "state_province": "Massachusetts", "postal_code": "01027", "country": "United States", "longitude": "-72.69191299", "latitude": "42.25467048", "phone": "4135270808", "website_url": "http://www.opaopasteakhousebrewery.com", "state": "Massachusetts", "street": "19 Wemelco Way"}, {"id": "29c89d1e-5b60-40d7-998c-a38fa101b0f8", "name": "Open Door Brewing Company", "brewery_type": "contract", "address_1": "2030 Ionosphere St Unit G", "address_2": null, "address_3": null, "city": "Longmont", "state_province": "Colorado", "postal_code": "80504-8459", "country": "United States", "longitude": null, "latitude": null, "phone": "7205931401", "website_url": "http://www.opendoorbrewco.com", "state": "Colorado", "street": "2030 Ionosphere St Unit G"}, {"id": "a8004c53-8b0b-4fb1-9516-1230cde7bc8e", "name": "Open Outcry", "brewery_type": "brewpub", "address_1": "10934 S Western Ave", "address_2": null, "address_3": null, "city": "Chicago", "state_province": "Illinois", "postal_code": "60643-3228", "country": "United States", "longitude": "-87.6814747", "latitude": "41.6943819", "phone": "7736296055", "website_url": "http://www.openoutcrybrewing.com", "state": "Illinois", "street": "10934 S Western Ave"}, {"id": "53744872-6d32-41fb-87a0-863dfe3d9afa", "name": "OpenRoad Brewery", "brewery_type": "brewpub", "address_1": "128 S Main St", "address_2": null, "address_3": null, "city": "Wayland", "state_province": "Michigan", "postal_code": "49348-1209", "country": "United States", "longitude": "-85.64331774", "latitude": "42.67311202", "phone": "6162937855", "website_url": "http://www.openroadbrewing.com", "state": "Michigan", "street": "128 S Main St"}, {"id": "3c51af37-1774-4cdc-8c6f-0a978af2fa7b", "name": "Opocofi Brewing Company", "brewery_type": "planning", "address_1": null, "address_2": null, "address_3": null, "city": "Franklin", "state_province": "Indiana", "postal_code": "46131-8901", "country": "United States", "longitude": null, "latitude": null, "phone": null, "website_url": null, "state": "Indiana", "street": null}, {"id": "86fc5253-5f2b-42bd-985d-0b8f4ba72c60", "name": "Opposition Brewing Company", "brewery_type": "micro", "address_1": "545 Rossanley Dr Ste 106", "address_2": null, "address_3": null, "city": "Medford", "state_province": "Oregon", "postal_code": "97501-1771", "country": "United States", "longitude": "-122.895928", "latitude": "42.34064429", "phone": "5412108550", "website_url": "http://www.oppositionbrewing.com", "state": "Oregon", "street": "545 Rossanley Dr Ste 106"}, {"id": "654be923-513c-48dc-ac4b-d2a422c24a35", "name": "Optimism Brewing Company", "brewery_type": "micro", "address_1": "1158 Broadway", "address_2": null, "address_3": null, "city": "Seattle", "state_province": "Washington", "postal_code": "98122-3822", "country": "United States", "longitude": null, "latitude": null, "phone": "2062289227", "website_url": "http://www.optimismbrewing.com", "state": "Washington", "street": "1158 Broadway"}, {"id": "26e42c3c-141b-4da5-848c-14c7111498bc", "name": "Oracle Brewing Company", "brewery_type": "micro", "address_1": "122 N Michigan Ave", "address_2": null, "address_3": null, "city": "Saginaw", "state_province": "Michigan", "postal_code": "48602-4234", "country": "United States", "longitude": "-83.96401351", "latitude": "43.417723", "phone": "9894017446", "website_url": "http://www.oraclebeer.com", "state": "Michigan", "street": "122 N Michigan Ave"}, {"id": "47085a48-f74d-4905-926c-013f1bfaddf6", "name": "Orange Blossom Brewing Company", "brewery_type": "proprietor", "address_1": "44 W Illiana St Ste 102", "address_2": null, "address_3": null, "city": "Orlando", "state_province": "Florida", "postal_code": "32806-4439", "country": "United States", "longitude": null, "latitude": null, "phone": "4077540045", "website_url": "http://www.orangeblossombrewing.com", "state": "Florida", "street": "44 W Illiana St Ste 102"}, {"id": "f23613d0-d127-4f8e-ba66-7f4be11f6707", "name": "Orange Cat Brewery", "brewery_type": "proprietor", "address_1": "5110 S Graystone Ave", "address_2": null, "address_3": null, "city": "Sioux Falls", "state_province": "South Dakota", "postal_code": "57108-7561", "country": "United States", "longitude": "-96.67330313", "latitude": "43.49940496", "phone": "7125404325", "website_url": "http://www.orangecatbrewery.com", "state": "South Dakota", "street": "5110 S Graystone Ave"}, {"id": "678aa828-c482-4334-b05a-fe618c364226", "name": "Orange County Brewers", "brewery_type": "brewpub", "address_1": "131 N Orange Ave Ste 106", "address_2": null, "address_3": null, "city": "Orlando", "state_province": "Florida", "postal_code": "32801-2385", "country": "United States", "longitude": null, "latitude": null, "phone": "3864538936", "website_url": "http://www.theocbrewers.com", "state": "Florida", "street": "131 N Orange Ave Ste 106"}, {"id": "109f1a56-7519-4e67-991a-0dc6ef43ca4e", "name": "Orchid Island Brewery", "brewery_type": "micro", "address_1": "2855 Ocean Dr Ste C1", "address_2": null, "address_3": null, "city": "Vero Beach", "state_province": "Florida", "postal_code": "32963-2038", "country": "United States", "longitude": null, "latitude": null, "phone": "7722052436", "website_url": "http://www.orchidislandbrewery.com", "state": "Florida", "street": "2855 Ocean Dr Ste C1"}, {"id": "432cfd6e-51ef-4683-91bb-f622961addc7", "name": "Ordnance Brewing", "brewery_type": "micro", "address_1": "405 NE Olson Rd", "address_2": null, "address_3": null, "city": "Boardman", "state_province": "Oregon", "postal_code": "-97818", "country": "United States", "longitude": "-119.6847411", "latitude": "45.84826134", "phone": "5413148568", "website_url": "http://www.ordnancebrewing.com", "state": "Oregon", "street": "405 NE Olson Rd"}, {"id": "b778b875-6f29-41fc-94f9-23c09e872530", "name": "Ore Dock Brewing Co", "brewery_type": "micro", "address_1": "114 W Spring St", "address_2": null, "address_3": null, "city": "Marquette", "state_province": "Michigan", "postal_code": "49855-4608", "country": "United States", "longitude": "-87.39388593", "latitude": "46.54189135", "phone": "9068675309", "website_url": "http://www.oredockbrewingcompany.com", "state": "Michigan", "street": "114 W Spring St"}, {"id": "1dac88c5-82ad-4a5b-958e-b56cc14ba96f", "name": "Oregon City Brewing Company", "brewery_type": "brewpub", "address_1": "1401 Washington St", "address_2": null, "address_3": null, "city": "Oregon City", "state_province": "Oregon", "postal_code": "97045-1650", "country": "United States", "longitude": "-122.6001483", "latitude": "45.3617756", "phone": "5039081948", "website_url": "http://www.ocbeerco.com", "state": "Oregon", "street": "1401 Washington St"}, {"id": "049c95c7-2a86-4764-b7e8-7ddf047305b6", "name": "Oregon Trail Brewery", "brewery_type": "micro", "address_1": "341 SW 2nd St", "address_2": null, "address_3": null, "city": "Corvallis", "state_province": "Oregon", "postal_code": "97333-4640", "country": "United States", "longitude": "-123.2608445", "latitude": "44.5612822", "phone": "5417583527", "website_url": "http://www.oregontrailbrewery.com", "state": "Oregon", "street": "341 SW 2nd St"}]