[{"id": "330e829d-53ca-4d79-b13a-ba4f36356458", "name": "Roets Jordan Brewery Co.", "brewery_type": "brewpub", "address_1": "230 Broadway St S", "address_2": null, "address_3": null, "city": "Jordan", "state_province": "Minnesota", "postal_code": "55352-1508", "country": "United States", "longitude": "-93.62618368", "latitude": "44.665938", "phone": "9524068865", "website_url": "http://www.roetsjordanbrewery.com", "state": "Minnesota", "street": "230 Broadway St S"}, {"id": "7e433321-e973-4c14-bd87-62c1c92cca3c", "name": "Rogan Brewing Company", "brewery_type": "planning", "address_1": null, "address_2": null, "address_3": null, "city": "Duquesne", "state_province": "Pennsylvania", "postal_code": "15110-1525", "country": "United States", "longitude": null, "latitude": null, "phone": "4125455400", "website_url": "http://www.roganbrewing.com", "state": "Pennsylvania", "street": null}, {"id": "776ca50f-749a-46e2-b914-59c709aec1a6", "name": "Rogers Beer", "brewery_type": "contract", "address_1": "23 Woodline Dr", "address_2": null, "address_3": null, "city": "Penfield", "state_province": "New York", "postal_code": "14526-2413", "country": "United States", "longitude": "-77.46723818", "latitude": "43.12868768", "phone": "5852980483", "website_url": "http://www.rogersbeer.com", "state": "New York", "street": "23 Woodline Dr"}, {"id": "12d83cb7-1e03-493e-805e-dad7ee012c3f", "name": "Rogue Ales Brewery", "brewery_type": "regional", "address_1": "2320 SE Osu Dr", "address_2": null, "address_3": null, "city": "Newport", "state_province": "Oregon", "postal_code": "97365-5261", "country": "United States", "longitude": "-124.0564639", "latitude": "44.62865838", "phone": "5032413800", "website_url": "http://rogue.com", "state": "Oregon", "street": "2320 SE Osu Dr"}, {"id": "94a076ed-9499-402b-bc89-14635349322e", "name": "Rogue Ales Issaquah Brewhouse", "brewery_type": "closed", "address_1": "35 W Sunset Way Ste C", "address_2": null, "address_3": null, "city": "Issaquah", "state_province": "Washington", "postal_code": "98027-3843", "country": "United States", "longitude": null, "latitude": null, "phone": "4255571911", "website_url": "http://www.rogue.com", "state": "Washington", "street": "35 W Sunset Way Ste C"}, {"id": "37ae8b8a-e16c-44c0-a558-8178c0b61c26", "name": "Rogue East Side Pub & Pilot Brewery", "brewery_type": "micro", "address_1": "909 SE Yamhill St", "address_2": null, "address_3": null, "city": "Portland", "state_province": "Oregon", "postal_code": "97214-2533", "country": "United States", "longitude": "-122.656467", "latitude": "45.51586884", "phone": "5032413800", "website_url": "http://www.buckmanbrewing.com", "state": "Oregon", "street": "909 SE Yamhill St"}, {"id": "3a491d3a-269c-4b39-8bb7-0a75dc8f41b9", "name": "RoHa Brewing Project", "brewery_type": "micro", "address_1": "30 E Kensington Ave Ste 150", "address_2": null, "address_3": null, "city": "Salt Lake City", "state_province": "Utah", "postal_code": "84115-1679", "country": "United States", "longitude": "-111.890097", "latitude": "40.736469", "phone": "3852278982", "website_url": "http://www.rohabrewing.com", "state": "Utah", "street": "30 E Kensington Ave Ste 150"}, {"id": "6b09ca79-b303-440a-a5d6-23e51bd5ebce", "name": "Rohrbach Brewing Company", "brewery_type": "brewpub", "address_1": "97 Railroad St", "address_2": null, "address_3": null, "city": "Rochester", "state_province": "New York", "postal_code": "14609-6039", "country": "United States", "longitude": "-77.586694", "latitude": "43.163275", "phone": "5855468020", "website_url": "http://www.rohrbachs.com", "state": "New York", "street": "97 Railroad St"}, {"id": "4c259862-b595-4d64-8d95-aa54eb3a7387", "name": "Rohrbach's Railroad St Brewery", "brewery_type": "micro", "address_1": "97 Railroad St", "address_2": null, "address_3": null, "city": "Rochester", "state_province": "New York", "postal_code": "14609-6039", "country": "United States", "longitude": "-77.586694", "latitude": "43.163275", "phone": "5855468020", "website_url": "http://www.rohrbachs.com", "state": "New York", "street": "97 Railroad St"}, {"id": "8257f37a-f991-4474-b93b-989af92e55d1", "name": "Rohrer Brewing Company, LLC", "brewery_type": "planning", "address_1": null, "address_2": null, "address_3": null, "city": "Cookeville", "state_province": "Tennessee", "postal_code": "38506-5601", "country": "United States", "longitude": null, "latitude": null, "phone": "6155859700", "website_url": "http://rohrerbrewing.com", "state": "Tennessee", "street": null}, {"id": "d57d3036-d848-4346-9aad-acad5a5b7a10", "name": "Rok House Brewing Co., LLC", "brewery_type": "micro", "address_1": "1939 W 11th St Ste A", "address_2": null, "address_3": null, "city": "Upland", "state_province": "California", "postal_code": "91786-3559", "country": "United States", "longitude": "-117.6883192", "latitude": "34.10445102", "phone": "9099810020", "website_url": "http://www.rokhousebrewing.com", "state": "California", "street": "1939 W 11th St Ste A"}, {"id": "478a266e-5d00-486e-90ca-7ded72d202b6", "name": "Rolling Meadows Farm Brewery", "brewery_type": "micro", "address_1": "3954 Central Point Rd", "address_2": null, "address_3": null, "city": "Cantrall", "state_province": "Illinois", "postal_code": "62625-8803", "country": "United States", "longitude": null, "latitude": null, "phone": "2177252492", "website_url": "http://www.rollingmeadowsbrewery.com", "state": "Illinois", "street": "3954 Central Point Rd"}, {"id": "d27dd56e-9f41-4789-a2a0-ece0209dcac0", "name": "Rolling Mill Brewing Company", "brewery_type": "micro", "address_1": "916 1st Ave", "address_2": null, "address_3": null, "city": "Middletown", "state_province": "Ohio", "postal_code": "45044-8217", "country": "United States", "longitude": "-84.40683123", "latitude": "39.51616686", "phone": "5132174444", "website_url": "http://www.rollingmillbc.com", "state": "Ohio", "street": "916 1st Ave"}, {"id": "bbc83a19-c5a5-44f1-bf6f-969f209cdfc0", "name": "Rolling Oak Brewing Co", "brewery_type": "micro", "address_1": "509 Norway St", "address_2": null, "address_3": null, "city": "Grayling", "state_province": "Michigan", "postal_code": "49738-1719", "country": "United States", "longitude": "-84.716671", "latitude": "44.661765", "phone": "9897456280", "website_url": "http://rollingoakbrewing.com", "state": "Michigan", "street": "509 Norway St"}, {"id": "f331a8eb-748a-4a84-ac4e-bc0e0307dfa1", "name": "Roma Brewery", "brewery_type": "brewpub", "address_1": "310 Stillwater Rd", "address_2": null, "address_3": null, "city": "Willernie", "state_province": "Minnesota", "postal_code": "55090-4400", "country": "United States", "longitude": "-92.957644", "latitude": "45.057136", "phone": "6516534733", "website_url": "http://www.roman-market.com", "state": "Minnesota", "street": "310 Stillwater Rd"}, {"id": "3ecb3ca8-fa11-484b-8471-8aa857cb9b3d", "name": "Rome City Brewing Co", "brewery_type": "brewpub", "address_1": "325 Broad St", "address_2": null, "address_3": null, "city": "Rome", "state_province": "Georgia", "postal_code": "30161-3005", "country": "United States", "longitude": "-85.17262231", "latitude": "34.25410398", "phone": "7062048474", "website_url": "http://www.romebrewhouse.com", "state": "Georgia", "street": "325 Broad St"}, {"id": "cc6614a4-dcc4-4b2d-8d32-b737ba0503a3", "name": "Roobrew", "brewery_type": "contract", "address_1": null, "address_2": null, "address_3": null, "city": "Akron", "state_province": "Ohio", "postal_code": "44311-1051", "country": "United States", "longitude": null, "latitude": null, "phone": "3307033947", "website_url": "http://www.roobrew.com", "state": "Ohio", "street": null}, {"id": "8f43b379-f20d-43f5-bdfa-9db963fb7bb1", "name": "Rooftop Brewing Co", "brewery_type": "micro", "address_1": "1220 W Nickerson St", "address_2": null, "address_3": null, "city": "Seattle", "state_province": "Washington", "postal_code": "98119-1325", "country": "United States", "longitude": "-122.3732188", "latitude": "47.6557532", "phone": "2064578598", "website_url": "http://www.rooftopbrewco.com", "state": "Washington", "street": "1220 W Nickerson St"}, {"id": "26fd9259-8023-42d7-88c8-2566791b5ae9", "name": "Rooney's Beer Company", "brewery_type": "micro", "address_1": "800 Vinial St Ste B204", "address_2": null, "address_3": null, "city": "Pittsburgh", "state_province": "Pennsylvania", "postal_code": "15212-5151", "country": "United States", "longitude": null, "latitude": null, "phone": "4122515995", "website_url": "http://rooneysbeer.com", "state": "Pennsylvania", "street": "800 Vinial St Ste B204"}, {"id": "54204c13-3e22-44fe-8ac0-b0d72022b584", "name": "Roosevelt Brewing Company", "brewery_type": "brewpub", "address_1": "201 S Main Ave", "address_2": null, "address_3": null, "city": "Portales", "state_province": "New Mexico", "postal_code": "88130-6216", "country": "United States", "longitude": "-103.335715", "latitude": "34.185293", "phone": "5752262739", "website_url": "http://www.rooseveltbrewing.com", "state": "New Mexico", "street": "201 S Main Ave"}, {"id": "75cf13cc-96d4-4432-b86f-ceb64bd11765", "name": "Rooster Brewing", "brewery_type": "micro", "address_1": "609 Main St", "address_2": null, "address_3": null, "city": "Paris", "state_province": "Kentucky", "postal_code": "40361-1816", "country": "United States", "longitude": "-84.25166366", "latitude": "38.21039483", "phone": "8597073436", "website_url": "http://www.roosterbrew.com", "state": "Kentucky", "street": "609 Main St"}, {"id": "6d95be92-78fd-4ea6-9584-5ff77345f84b", "name": "RoosterBragh Brewing Company, LLC", "brewery_type": "planning", "address_1": null, "address_2": null, "address_3": null, "city": "Tallahassee", "state_province": "Florida", "postal_code": "32312-8000", "country": "United States", "longitude": null, "latitude": null, "phone": "8507924458", "website_url": "http://www.roosterbragh.com", "state": "Florida", "street": null}, {"id": "c6a1d03d-59bd-4f88-be57-d2704d4de2c7", "name": "Roosterfish Brewing Co.", "brewery_type": "brewpub", "address_1": "301 N Franklin St", "address_2": null, "address_3": null, "city": "Watkins Glen", "state_province": "New York", "postal_code": "14891-1202", "country": "United States", "longitude": "-76.87362", "latitude": "42.38063", "phone": "6075359797", "website_url": "http://www.roosterfishbrewing.com", "state": "New York", "street": "301 N Franklin St"}, {"id": "e27d1ab2-65b8-498e-913a-5ab0dcdfaeb8", "name": "Roosters Brewing Co  (#1)", "brewery_type": "micro", "address_1": "253 Historic 25th St", "address_2": null, "address_3": null, "city": "Ogden", "state_province": "Utah", "postal_code": "84401-2301", "country": "United States", "longitude": "-111.974503", "latitude": "41.220497", "phone": "8016276171", "website_url": "https://www.roostersbrewingco.com", "state": "Utah", "street": "253 Historic 25th St"}, {"id": "2055cc0d-8751-4be1-ac8f-eb5965857a51", "name": "Roosters Brewing Co (#2)", "brewery_type": "micro", "address_1": "748 Heritage Park Blvd Ste 101", "address_2": null, "address_3": null, "city": "Layton", "state_province": "Utah", "postal_code": "84041-5724", "country": "United States", "longitude": "-111.9793389", "latitude": "41.08320878", "phone": "8017749330", "website_url": "http://www.roostersbrewingco.com", "state": "Utah", "street": "748 Heritage Park Blvd Ste 101"}, {"id": "d5aae77c-019d-41b0-ac59-5c3ca2b0ff18", "name": "Root Down Brewing Company", "brewery_type": "brewpub", "address_1": "1 N Main St", "address_2": null, "address_3": null, "city": "Phoenixville", "state_province": "Pennsylvania", "postal_code": "19460-3419", "country": "United States", "longitude": "-75.515616", "latitude": "40.137147", "phone": "4843932337", "website_url": "http://www.rootdownbrewing.com", "state": "Pennsylvania", "street": "1 N Main St"}, {"id": "b7989d83-fd97-425e-9191-1695321239c8", "name": "Roots Brewing Company", "brewery_type": "brewpub", "address_1": "175 Main St", "address_2": null, "address_3": null, "city": "Oneonta", "state_province": "New York", "postal_code": "13820-2501", "country": "United States", "longitude": "-75.0630461", "latitude": "42.45318", "phone": "6074332925", "website_url": "http://www.rootsbrewingcompany.com", "state": "New York", "street": "175 Main St"}, {"id": "1bb69d7e-fb45-44bd-8ac7-709c4117b765", "name": "Roscoe Brewing Company", "brewery_type": "micro", "address_1": "145 Rockland Rd", "address_2": null, "address_3": null, "city": "Roscoe", "state_province": "New York", "postal_code": "12776-6418", "country": "United States", "longitude": null, "latitude": null, "phone": "6072905002", "website_url": "http://www.roscoebeercompany.com", "state": "New York", "street": "145 Rockland Rd"}, {"id": "8a384697-2d0f-4677-94d5-a2eea2b7a0ca", "name": "Rosehill Brewing Co.", "brewery_type": "planning", "address_1": null, "address_2": null, "address_3": null, "city": "Tomball", "state_province": "Texas", "postal_code": "77377-3534", "country": "United States", "longitude": null, "latitude": null, "phone": null, "website_url": null, "state": "Texas", "street": null}, {"id": "3624a637-94b2-4d6d-95f2-b04c5f7c815a", "name": "Rosenstadt Brewery LLC", "brewery_type": "micro", "address_1": "4110 SE Hawthorne Blvd # 735", "address_2": null, "address_3": null, "city": "Portland", "state_province": "Oregon", "postal_code": "97214-5246", "country": "United States", "longitude": "-122.6199321", "latitude": "45.5118679", "phone": null, "website_url": "http://www.rosenstadtbrewery.com", "state": "Oregon", "street": "4110 SE Hawthorne Blvd # 735"}, {"id": "9b1a8816-da90-40c5-8203-9c23b14945ea", "name": "Roses' Taproom", "brewery_type": "micro", "address_1": "4930 Telegraph Ave", "address_2": null, "address_3": null, "city": "Oakland", "state_province": "California", "postal_code": "94609-2012", "country": "United States", "longitude": "-122.2683709", "latitude": "37.8143551", "phone": "5108583969", "website_url": "http://www.rosestaproom.com", "state": "California", "street": "4930 Telegraph Ave"}, {"id": "a53b6d53-11ba-4af9-bb8a-863548d73b51", "name": "Roslyn Brewing Co", "brewery_type": "micro", "address_1": "208 W Pennsylvania Ave", "address_2": null, "address_3": null, "city": "Roslyn", "state_province": "Washington", "postal_code": "98941-0024", "country": "United States", "longitude": "-120.9947248", "latitude": "47.2222871", "phone": "5096492232", "website_url": "http://www.roslynbrewng.com", "state": "Washington", "street": "208 W Pennsylvania Ave"}, {"id": "9050ae3d-ebea-4be6-9e0d-8c1805dff9de", "name": "Rother Valley Brewing Company", "brewery_type": "micro", "address_1": "Station Road", "address_2": null, "address_3": null, "city": "Rye", "state_province": "East Sussex", "postal_code": "TN31 6QT", "country": "England", "longitude": "0.613983", "latitude": "51.008565", "phone": "1797252922", "website_url": "http://www.rothervalleybrewery.co.uk", "state": "East Sussex", "street": "Station Road"}, {"id": "9f5002ff-ed74-4f51-8336-adea12e4ce81", "name": "Rotunda Brewing", "brewery_type": "brewpub", "address_1": "245 W Main St", "address_2": null, "address_3": null, "city": "Annville", "state_province": "Pennsylvania", "postal_code": "17003-1326", "country": "United States", "longitude": "-76.520098", "latitude": "40.32856075", "phone": "7178672337", "website_url": "http://www.batdorfrestaurant.com/rbc", "state": "Pennsylvania", "street": "245 W Main St"}, {"id": "9c52348e-1343-4233-843f-fc29ac896ca5", "name": "Rough Diamond Brewery", "brewery_type": "micro", "address_1": "101 Kendalia Cir", "address_2": null, "address_3": null, "city": "Spring Branch", "state_province": "Texas", "postal_code": "78070-6621", "country": "United States", "longitude": null, "latitude": null, "phone": "8308856616", "website_url": "http://rdbrewery.com", "state": "Texas", "street": "101 Kendalia Cir"}, {"id": "47dc6ef6-fb3a-445a-9051-36aab7679744", "name": "Rough Draft Brewing", "brewery_type": "micro", "address_1": "8830 Rehco Rd Ste D", "address_2": null, "address_3": null, "city": "San Diego", "state_province": "California", "postal_code": "92121-3263", "country": "United States", "longitude": "-117.1716977", "latitude": "32.88370283", "phone": "8584537238", "website_url": "http://www.roughdraftbrew.com", "state": "California", "street": "8830 Rehco Rd Ste D"}, {"id": "c2c034ea-4967-4b4c-bf1c-e3bd75cd16f0", "name": "Roughtail Brewing", "brewery_type": "micro", "address_1": "320 W Memorial Rd", "address_2": null, "address_3": null, "city": "Oklahoma City", "state_province": "Oklahoma", "postal_code": "73114", "country": "United States", "longitude": "-97.5192442", "latitude": "35.6087575", "phone": "4057716517", "website_url": "http://www.roughtailbeer.com", "state": "Oklahoma", "street": "320 W Memorial Rd"}, {"id": "7500e370-f58a-40a6-87b6-005b0f1469e3", "name": "RoughWoods Inn", "brewery_type": "brewpub", "address_1": "623 North A St", "address_2": null, "address_3": null, "city": "Nenana", "state_province": "Alaska", "postal_code": "99760-9999", "country": "United States", "longitude": "-149.096237", "latitude": "64.56274", "phone": "9078325299", "website_url": "http://www.roughwoodsinn.biz", "state": "Alaska", "street": "623 North A St"}, {"id": "d44fbd3a-f3e0-4d93-a8b6-a274d208811d", "name": "Rouleur Brewing Company", "brewery_type": "micro", "address_1": "5840 El Camino Real Ste 101", "address_2": null, "address_3": null, "city": "Carlsbad", "state_province": "California", "postal_code": "92008-8804", "country": "United States", "longitude": "-117.269558", "latitude": "33.133904", "phone": "4422445111", "website_url": "http://www.rouleurbrewing.com", "state": "California", "street": "5840 El Camino Real Ste 101"}, {"id": "eb65fa0c-3e45-41cb-bcc3-de1a1060b67e", "name": "Round Barn Brewery / Round Barn Winery", "brewery_type": "micro", "address_1": "10983 Hills Rd", "address_2": null, "address_3": null, "city": "Baroda", "state_province": "Michigan", "postal_code": "49101-8742", "country": "United States", "longitude": "-86.479395", "latitude": "41.950161", "phone": "8007169463", "website_url": "http://www.roundbarnwinery.com", "state": "Michigan", "street": "10983 Hills Rd"}, {"id": "0654ac67-ff7f-4b63-a876-bbd24a31fb57", "name": "Round Barn Brewery & Public House", "brewery_type": "micro", "address_1": "9151 First St", "address_2": null, "address_3": null, "city": "Baroda", "state_province": "Michigan", "postal_code": "49101-8927", "country": "United States", "longitude": null, "latitude": null, "phone": "2693267059", "website_url": "http://www.roundbarnbrewery.com", "state": "Michigan", "street": "9151 First St"}, {"id": "134c9a7a-fee3-4a1c-8914-785a9d7c04ea", "name": "Round Guys Brewing Co", "brewery_type": "brewpub", "address_1": "324 W Main St", "address_2": null, "address_3": null, "city": "Lansdale", "state_province": "Pennsylvania", "postal_code": "19446-2006", "country": "United States", "longitude": "-75.28630882", "latitude": "40.24337843", "phone": "6107151512", "website_url": "http://www.roundguysbrewery.com", "state": "Pennsylvania", "street": "324 W Main St"}, {"id": "24fa73f1-2413-485e-8230-e8572837784a", "name": "Round Town Brewery", "brewery_type": "micro", "address_1": "950 S White River Pky West Dr Ste 100", "address_2": null, "address_3": null, "city": "Indianapolis", "state_province": "Indiana", "postal_code": "46221-1373", "country": "United States", "longitude": null, "latitude": null, "phone": "3174931375", "website_url": "http://www.roundtownbrewery.com", "state": "Indiana", "street": "950 S White River Pky West Dr Ste 100"}, {"id": "24c0c343-7f4d-43d4-8a2c-e554e5c0d6fc", "name": "Roundabout Brewery", "brewery_type": "micro", "address_1": "4901 Butler St", "address_2": null, "address_3": null, "city": "Pittsburgh", "state_province": "Pennsylvania", "postal_code": "15201-2718", "country": "United States", "longitude": "-79.956943", "latitude": "40.477161", "phone": "4126210540", "website_url": "http://roundaboutbeer.com", "state": "Pennsylvania", "street": "4901 Butler St"}, {"id": "c0217206-0b34-4205-8164-a587a1c6653a", "name": "Roundback Brewery LLC", "brewery_type": "planning", "address_1": null, "address_2": null, "address_3": null, "city": "Danville", "state_province": "Pennsylvania", "postal_code": "17821-7746", "country": "United States", "longitude": null, "latitude": null, "phone": "5708548067", "website_url": "http://roundbackbrewery.com", "state": "Pennsylvania", "street": null}, {"id": "43731cc4-87d3-47e7-9ca1-ff0be7b481f2", "name": "Roundhouse Brewery", "brewery_type": "micro", "address_1": "1551 Northern Pacific Rd", "address_2": null, "address_3": null, "city": "Brainerd", "state_province": "Minnesota", "postal_code": "56401-2687", "country": "United States", "longitude": "-94.1870055", "latitude": "46.3572831", "phone": "2184542739", "website_url": "http://roundhousebrew.com", "state": "Minnesota", "street": "1551 Northern Pacific Rd"}, {"id": "f765f05b-b755-45a8-844d-bc48962c6a52", "name": "Roundhouse Depot Brewing", "brewery_type": "micro", "address_1": "217 W Chillicothe Ave", "address_2": null, "address_3": null, "city": "Bellefontaine", "state_province": "Ohio", "postal_code": "43311", "country": "United States", "longitude": "-83.76289625", "latitude": "40.35981532", "phone": "5403231295", "website_url": null, "state": "Ohio", "street": "217 W Chillicothe Ave"}, {"id": "1857e7ae-9362-4b5a-96a8-385641bae67d", "name": "Route 30 Brewing Company", "brewery_type": "micro", "address_1": "9860 Indiana Ave Ste 19", "address_2": null, "address_3": null, "city": "Riverside", "state_province": "California", "postal_code": "92503-5515", "country": "United States", "longitude": "-117.4472297", "latitude": "33.90998597", "phone": "9517767083", "website_url": null, "state": "California", "street": "9860 Indiana Ave Ste 19"}, {"id": "689f6739-8faa-4c9f-977e-52220e4404db", "name": "Route 6 Tap House/ Putnam Brewery", "brewery_type": "brewpub", "address_1": "728 US-6", "address_2": null, "address_3": null, "city": "Mahopac", "state_province": "New York", "postal_code": "10541", "country": "United States", "longitude": "-73.72642406", "latitude": "41.37750571", "phone": "8456287302", "website_url": "http://www.facebook.com/Putnam-Brewery-165364887155377/", "state": "New York", "street": "728 US-6"}, {"id": "87740a12-4392-41e7-b244-8f013503d567", "name": "Route 66 Junkyard Brewery", "brewery_type": "brewpub", "address_1": "1634 E Hwy 66", "address_2": null, "address_3": null, "city": "Grants", "state_province": "New Mexico", "postal_code": "87020", "country": "United States", "longitude": null, "latitude": null, "phone": "5052855000", "website_url": "http://www.facebook.com/Route66JunkyardBrewery/", "state": "New Mexico", "street": "1634 E Hwy 66"}, {"id": "375c3fae-a1f7-4121-906a-ba1ea56b51f3", "name": "Rowdy's Brewing Company", "brewery_type": "micro", "address_1": "10002 6th St Ste A", "address_2": null, "address_3": null, "city": "Rancho Cucamonga", "state_province": "California", "postal_code": "91730-5784", "country": "United States", "longitude": "-117.5879009", "latitude": "34.08513212", "phone": "9099292722", "website_url": "http://rowdysbrewco.com", "state": "California", "street": "10002 6th St Ste A"}, {"id": "555fcbb9-7fc4-4a03-b04f-5ac0ada488c9", "name": "Rowlands Calumet Brewery Co", "brewery_type": "micro", "address_1": "25 N Madison St", "address_2": null, "address_3": null, "city": "Chilton", "state_province": "Wisconsin", "postal_code": "53014-1451", "country": "United States", "longitude": "-88.1632129", "latitude": "44.0293888", "phone": "9208492534", "website_url": null, "state": "Wisconsin", "street": "25 N Madison St"}, {"id": "6e59f361-2d17-4beb-ac3b-92d2a4d437d0", "name": "Rowlands Calumet Brewery Co (#2)", "brewery_type": "micro", "address_1": "57 School St", "address_2": null, "address_3": null, "city": "Chilton", "state_province": "Wisconsin", "postal_code": "53014-", "country": "United States", "longitude": "-88.16401327", "latitude": "44.0291831", "phone": "9208492534", "website_url": null, "state": "Wisconsin", "street": "57 School St"}, {"id": "641c91ad-d21c-44f3-b66b-993457ee9fae", "name": "Rowley Farmhouse Ales", "brewery_type": "brewpub", "address_1": "1405 MacLovia St", "address_2": null, "address_3": null, "city": "Santa Fe", "state_province": "New Mexico", "postal_code": "87505-3244", "country": "United States", "longitude": "-105.9836551", "latitude": "35.66076999", "phone": "5054280719", "website_url": "http://rowleyfarmhouse.com", "state": "New Mexico", "street": "1405 MacLovia St"}, {"id": "a35206a2-4fc6-471c-8b39-a31b0bbb6c23", "name": "Roy Pitz Brewing Co", "brewery_type": "brewpub", "address_1": "301 Roy Pitz Ave Ste 3", "address_2": null, "address_3": null, "city": "Chambersburg", "state_province": "Pennsylvania", "postal_code": "17201-1668", "country": "United States", "longitude": null, "latitude": null, "phone": "7174968753", "website_url": "http://www.roypitz.com", "state": "Pennsylvania", "street": "301 Roy Pitz Ave Ste 3"}, {"id": "d1bf7018-393e-4cd5-856e-8ee560e3585a", "name": "Royal Bavaria Brewhouse, Restaurant and Biergarten", "brewery_type": "brewpub", "address_1": "3401 S Sooner Rd", "address_2": null, "address_3": null, "city": "Moore", "state_province": "Oklahoma", "postal_code": "73165-7218", "country": "United States", "longitude": "-97.4235998", "latitude": "35.3148295", "phone": "4057997666", "website_url": "http://royal-bavaria.com", "state": "Oklahoma", "street": "3401 S Sooner Rd"}, {"id": "5d6cbdd3-2315-469c-a97f-e87ee1cbbd35", "name": "Royal Brewery", "brewery_type": "micro", "address_1": "7366 Townsend Pl Ste B", "address_2": null, "address_3": null, "city": "New Orleans", "state_province": "Louisiana", "postal_code": "70126-1138", "country": "United States", "longitude": null, "latitude": null, "phone": "5044158444", "website_url": "http://WWW.royalbrewerynola.com", "state": "Louisiana", "street": "7366 Townsend Pl Ste B"}, {"id": "485f4ed6-a9ae-42c7-9d66-c39540651709", "name": "Royal Docks Brewhouse and Cannery", "brewery_type": "micro", "address_1": "5646 Wales Ave NW", "address_2": null, "address_3": null, "city": "Massillon", "state_province": "Ohio", "postal_code": "44646", "country": "United States", "longitude": "-81.498326", "latitude": "40.844016", "phone": null, "website_url": null, "state": "Ohio", "street": "5646 Wales Ave NW"}, {"id": "a6f89f70-e00a-43a3-9779-f70e71393ae9", "name": "Royal Docks Brewing Company", "brewery_type": "contract", "address_1": "7162 Fulton Dr NW", "address_2": null, "address_3": null, "city": "Canton", "state_province": "Ohio", "postal_code": "44718-1523", "country": "United States", "longitude": null, "latitude": null, "phone": "3303539103", "website_url": "http://www.docks.beer", "state": "Ohio", "street": "7162 Fulton Dr NW"}, {"id": "f9e69ba6-fe3b-4cba-bb26-94fea1fe7592", "name": "Royal Gorge Brew Pub", "brewery_type": "brewpub", "address_1": "413 Main St", "address_2": null, "address_3": null, "city": "Canon City", "state_province": "Colorado", "postal_code": "81212-3733", "country": "United States", "longitude": "-105.2418113", "latitude": "38.44010539", "phone": "7193454141", "website_url": "http://www.royalgorgebrewing.com", "state": "Colorado", "street": "413 Main St"}, {"id": "6d3ba99f-057a-446b-925a-50ae1c284df5", "name": "Royal Oak Brewery", "brewery_type": "brewpub", "address_1": "215 E 4th St", "address_2": null, "address_3": null, "city": "Royal Oak", "state_province": "Michigan", "postal_code": "48067-2606", "country": "United States", "longitude": "-83.14271229", "latitude": "42.48739557", "phone": "2485441141", "website_url": "http://www.royaloakbrewery.com", "state": "Michigan", "street": "215 E 4th St"}, {"id": "5c9afad5-0cf3-4f3d-9918-0c4e9a002968", "name": "Royal Palm Brewing Company", "brewery_type": "brewpub", "address_1": "543 N State Road 7 Ste 103", "address_2": null, "address_3": null, "city": "Royal Palm Beach", "state_province": "Florida", "postal_code": "33411-3516", "country": "United States", "longitude": null, "latitude": null, "phone": "4079600128", "website_url": "http://www.facebook.com/royalpalmbrewingcompany/", "state": "Florida", "street": "543 N State Road 7 Ste 103"}, {"id": "72e76612-589c-4844-a3c6-7189bcdad638", "name": "Royale Brewing Company", "brewery_type": "closed", "address_1": "55 NE Farragut St Ste 6", "address_2": null, "address_3": null, "city": "Portland", "state_province": "Oregon", "postal_code": "97211-2245", "country": "United States", "longitude": "-122.6656145", "latitude": "45.57960681", "phone": "9712795587", "website_url": "http://www.royalebeer.com", "state": "Oregon", "street": "55 NE Farragut St Ste 6"}, {"id": "a19a3824-1bde-4652-a6ed-49e584d0d7d0", "name": "Ruba Brewing", "brewery_type": "micro", "address_1": "3310 Buttercup St", "address_2": null, "address_3": null, "city": "Houston", "state_province": "Texas", "postal_code": "77063", "country": "United States", "longitude": "-95.51694859", "latitude": "29.72879669", "phone": null, "website_url": "https://untappd.com/Ruba_Brewing", "state": "Texas", "street": "3310 Buttercup St"}, {"id": "e58f1b87-85b0-4adb-8fb1-d6e1eaa833a6", "name": "Rubber Soul Brewing", "brewery_type": "micro", "address_1": "1930 Northwood Dr", "address_2": null, "address_3": null, "city": "Salisbury", "state_province": "Maryland", "postal_code": "21801-7824", "country": "United States", "longitude": "-75.58418801", "latitude": "38.39109674", "phone": "4433047685", "website_url": "http://www.rubbersoulbrewing.com", "state": "Maryland", "street": "1930 Northwood Dr"}, {"id": "7383363f-2d98-45c7-8719-8236e869aa8d", "name": "Ruby Mountain Brewing Co", "brewery_type": "micro", "address_1": "HC 60 Box 100", "address_2": null, "address_3": null, "city": "Wells", "state_province": "Nevada", "postal_code": "89835-9802", "country": "United States", "longitude": null, "latitude": null, "phone": "7757522337", "website_url": "http://www.rubymountainbrewing.com", "state": "Nevada", "street": "HC 60 Box 100"}, {"id": "87f8af23-34eb-446a-9f6e-207e0bafc5a8", "name": "Ruby River Steak House and Brewery", "brewery_type": "brewpub", "address_1": "4286 Riverdale Rd", "address_2": null, "address_3": null, "city": "Ogden", "state_province": "Utah", "postal_code": "84405-3512", "country": "United States", "longitude": "-111.9883755", "latitude": "41.18405234", "phone": "8016222320", "website_url": "http://www.sizzlingplatter.com", "state": "Utah", "street": "4286 Riverdale Rd"}, {"id": "e5395eb7-b076-4046-ad78-98debacc0550", "name": "Ruby Valley Brew", "brewery_type": "micro", "address_1": "111 S Main St", "address_2": null, "address_3": null, "city": "Sheridan", "state_province": "Montana", "postal_code": "59749-7742", "country": "United States", "longitude": "-104.559298", "latitude": "48.77363753", "phone": "4068425977", "website_url": "http://www.rubyvalleybrew.com", "state": "Montana", "street": "111 S Main St"}, {"id": "4cc38bef-f05b-42ce-8323-ca7458415621", "name": "Ruckus Brewing Co", "brewery_type": "contract", "address_1": "261 W 35th St Ste 1002", "address_2": null, "address_3": null, "city": "New York", "state_province": "New York", "postal_code": "10001-1902", "country": "United States", "longitude": null, "latitude": null, "phone": "6467105098", "website_url": "http://www.ruckusbrewing.com", "state": "New York", "street": "261 W 35th St Ste 1002"}, {"id": "a2479c24-2ed6-42b6-9432-2b306558b0ae", "name": "Rudbeckia Farm", "brewery_type": "micro", "address_1": "3379 Lake Grove Rd", "address_2": null, "address_3": null, "city": "Petoskey", "state_province": "Michigan", "postal_code": "49770-9751", "country": "United States", "longitude": null, "latitude": null, "phone": "2316224173", "website_url": "http://www.rudbeckiafarm.com", "state": "Michigan", "street": "3379 Lake Grove Rd"}, {"id": "3f21deb3-122f-44c3-87c2-9e729a40955b", "name": "Ruddy Duck Brewery and Grill", "brewery_type": "brewpub", "address_1": "13200 Dowell Rd", "address_2": null, "address_3": null, "city": "Dowell", "state_province": "Maryland", "postal_code": "20629", "country": "United States", "longitude": "-76.45795", "latitude": "38.350501", "phone": "4103943825", "website_url": "http://www.ruddyduckbrewery.com", "state": "Maryland", "street": "13200 Dowell Rd"}, {"id": "2545723c-f71f-454c-847a-d4c524132e3a", "name": "Rugged Coast Brewing", "brewery_type": "closed", "address_1": "817 Piner Ave", "address_2": null, "address_3": null, "city": "Santa Rosa", "state_province": "California", "postal_code": "95403", "country": "United States", "longitude": "-122.7334692", "latitude": "38.47262977", "phone": "4156027272", "website_url": "http://www.ruggedcoastbrewing.com", "state": "California", "street": "817 Piner Ave"}, {"id": "4935e78e-47a1-479c-b613-88c319065314", "name": "Ruggedman Brewing Company", "brewery_type": "micro", "address_1": "7600 Old Bastrop Rd", "address_2": null, "address_3": null, "city": "New Braunfels", "state_province": "Texas", "postal_code": "78130", "country": "United States", "longitude": null, "latitude": null, "phone": "8306322104", "website_url": "http://www.drinkthedamnbeer.com", "state": "Texas", "street": "7600 Old Bastrop Rd"}, {"id": "646f5ed7-b512-4652-aa67-b981d3cfc266", "name": "Ruhlman Brewery/Our Ales", "brewery_type": "micro", "address_1": "2300 Harvey Gummel Rd", "address_2": null, "address_3": null, "city": "Hampstead", "state_province": "Maryland", "postal_code": "21074-1033", "country": "United States", "longitude": null, "latitude": null, "phone": null, "website_url": null, "state": "Maryland", "street": "2300 Harvey Gummel Rd"}, {"id": "4e7fcced-ba7b-4b66-b611-e2d8e10e3010", "name": "Ruhstaller Beer", "brewery_type": "micro", "address_1": "800 Business Park Drive, Suite G", "address_2": null, "address_3": null, "city": "Dixon", "state_province": "California", "postal_code": "95620", "country": "United States", "longitude": "-121.8196403", "latitude": "38.45364691", "phone": "5306018240", "website_url": null, "state": "California", "street": "800 Business Park Drive, Suite G"}, {"id": "e8fc3db0-8353-4962-9885-c796966ca78a", "name": "Ruhstaller Beer", "brewery_type": "micro", "address_1": "726 K St", "address_2": null, "address_3": null, "city": "Sacramento", "state_province": "California", "postal_code": "95814-3403", "country": "United States", "longitude": "-121.497428", "latitude": "38.58004528", "phone": "9169195691", "website_url": "http://www.ruhstallerbeer.com", "state": "California", "street": "726 K St"}, {"id": "b70e163a-8e4d-4b02-93fa-8b4f45732cc9", "name": "Rumspringa Brewing Co", "brewery_type": "micro", "address_1": "3174 Old Philadelphia Pike", "address_2": null, "address_3": null, "city": "Bird In Hand", "state_province": "Pennsylvania", "postal_code": "17505-9727", "country": "United States", "longitude": "-76.18731", "latitude": "40.038905", "phone": "7177687194", "website_url": null, "state": "Pennsylvania", "street": "3174 Old Philadelphia Pike"}, {"id": "689e4378-f742-4443-bb82-778d19036512", "name": "Run of the Mill Public House & Brewery", "brewery_type": "brewpub", "address_1": "100 Main St", "address_2": null, "address_3": null, "city": "Saco", "state_province": "Maine", "postal_code": "04072-3500", "country": "United States", "longitude": "-70.442601", "latitude": "43.501374", "phone": "2075719648", "website_url": "http://www.therunofthemill.net", "state": "Maine", "street": "100 Main St"}, {"id": "0759476d-8fed-46cc-abec-1cb02cbca0d6", "name": "Running Dogs Brewery", "brewery_type": "proprietor", "address_1": "291 S 1st St,St.", "address_2": null, "address_3": null, "city": "Saint Helens", "state_province": "Oregon", "postal_code": "97051", "country": "United States", "longitude": "-122.7980095", "latitude": "45.86251169", "phone": "5033971103", "website_url": "http://www.runningdogsbrewery.com", "state": "Oregon", "street": "291 S 1st St,St."}, {"id": "6e516bce-6396-4f42-9dd0-e60a520eb651", "name": "Running Walker Brewery & Braman Winery", "brewery_type": "micro", "address_1": "3421 FM 359 Rd", "address_2": null, "address_3": null, "city": "Richmond", "state_province": "Texas", "postal_code": "77406-7855", "country": "United States", "longitude": null, "latitude": null, "phone": null, "website_url": null, "state": "Texas", "street": "3421 FM 359 Rd"}, {"id": "969a6832-1577-487f-a325-fd5350678dbe", "name": "Rupert's Brew House", "brewery_type": "micro", "address_1": "773 W Michigan Ave", "address_2": null, "address_3": null, "city": "Kalamazoo", "state_province": "Michigan", "postal_code": "49007-4518", "country": "United States", "longitude": "-85.5941774", "latitude": "42.29072325", "phone": "2693379911", "website_url": "http://www.rupertsbrewhouse.com", "state": "Michigan", "street": "773 W Michigan Ave"}, {"id": "dd223433-1a97-435a-9b7d-995390ffb806", "name": "Rural Brewing Company", "brewery_type": "planning", "address_1": null, "address_2": null, "address_3": null, "city": "Sturgeon Bay", "state_province": "Wisconsin", "postal_code": "53590", "country": "United States", "longitude": null, "latitude": null, "phone": null, "website_url": "http://www.ruralbrewingcompany.com", "state": "Wisconsin", "street": null}, {"id": "f2472289-d2d3-4a02-8b98-10c88b8e9da3", "name": "Ruse Brewing, LLC.", "brewery_type": "proprietor", "address_1": "4784 SE 17th Ave", "address_2": null, "address_3": null, "city": "Portland", "state_province": "Oregon", "postal_code": "97202", "country": "United States", "longitude": "-122.6470059", "latitude": "45.4593922", "phone": "5036628325", "website_url": "http://www.rusebrewing.com", "state": "Oregon", "street": "4784 SE 17th Ave"}, {"id": "73fdad85-48d2-4cc0-92bb-358ada1a5c59", "name": "Rush River Brewing Co", "brewery_type": "micro", "address_1": "990 Antler Ct", "address_2": null, "address_3": null, "city": "River Falls", "state_province": "Wisconsin", "postal_code": "54022-4880", "country": "United States", "longitude": "-92.63861533", "latitude": "44.8911208", "phone": "7154262054", "website_url": "http://www.rushriverbeer.com", "state": "Wisconsin", "street": "990 Antler Ct"}, {"id": "1fd1cefa-9157-4071-8345-bad0be6d4a5a", "name": "Rushing Duck Brewing Co", "brewery_type": "micro", "address_1": "1 Battiato Ln", "address_2": null, "address_3": null, "city": "Chester", "state_province": "New York", "postal_code": "10918-1283", "country": "United States", "longitude": "-74.270801", "latitude": "41.362221", "phone": "8456105440", "website_url": "http://www.rushingduck.com", "state": "New York", "street": "1 Battiato Ln"}, {"id": "33645666-10c9-4704-956e-ae006c29abb2", "name": "Russian River Brewing Co", "brewery_type": "regional", "address_1": "725 4th St", "address_2": null, "address_3": null, "city": "Santa Rosa", "state_province": "California", "postal_code": "95404-4407", "country": "United States", "longitude": "-122.7116607", "latitude": "38.4418139", "phone": "7075452337", "website_url": "http://www.russianriverbrewing.com", "state": "California", "street": "725 4th St"}, {"id": "51d49909-8dc5-48b9-bc92-79bf6f4b5cb3", "name": "Russian River Brewing Co - Production", "brewery_type": "micro", "address_1": "1812 Ferdinand Ct", "address_2": null, "address_3": null, "city": "Santa Rosa", "state_province": "California", "postal_code": "95404-5968", "country": "United States", "longitude": "-122.7094385", "latitude": "38.4216577", "phone": null, "website_url": "http://www.russianriverbrewing.com", "state": "California", "street": "1812 Ferdinand Ct"}, {"id": "cea10be6-618c-4188-9f35-3fde4a5b1080", "name": "Rustic Brew", "brewery_type": "brewpub", "address_1": "117 1st St NW", "address_2": null, "address_3": null, "city": "Hampton", "state_province": "Iowa", "postal_code": "50441-1701", "country": "United States", "longitude": "-93.20855984", "latitude": "42.74298149", "phone": "6414562141", "website_url": "http://www.rusticbrew.com", "state": "Iowa", "street": "117 1st St NW"}, {"id": "5bc03c91-fce7-4e14-9aeb-05303d7e6bbb", "name": "Rustic Leaf Brewing Company", "brewery_type": "micro", "address_1": "7200 Highland Rd", "address_2": null, "address_3": null, "city": "Waterford", "state_province": "Michigan", "postal_code": "48327-1506", "country": "United States", "longitude": "-83.4048664", "latitude": "42.659901", "phone": "2485999933", "website_url": "http://www.rusticleafbrewingcompany.com", "state": "Michigan", "street": "7200 Highland Rd"}, {"id": "c33a13bf-bb83-4374-b4cc-1a4b43623ae5", "name": "Rustic Road Brewing Co", "brewery_type": "micro", "address_1": "5706 6th Ave", "address_2": null, "address_3": null, "city": "Kenosha", "state_province": "Wisconsin", "postal_code": "53140-4104", "country": "United States", "longitude": "-87.81848261", "latitude": "42.58399215", "phone": "2623207623", "website_url": "http://www.rusticbrewing.com", "state": "Wisconsin", "street": "5706 6th Ave"}, {"id": "2e475c21-a1f0-4ff8-8ba2-8c01cb7751ef", "name": "Rustica Brewing Company", "brewery_type": "micro", "address_1": "2370 S Kalamath St Unit A", "address_2": null, "address_3": null, "city": "Denver", "state_province": "Colorado", "postal_code": "80223-4248", "country": "United States", "longitude": null, "latitude": null, "phone": "7203979682", "website_url": "http://www.rusticabrewery.com", "state": "Colorado", "street": "2370 S Kalamath St Unit A"}, {"id": "c226d829-6805-4dbc-9a59-d0c274c2544a", "name": "Rusty Bull Brewing Company", "brewery_type": "brewpub", "address_1": "3005 W Montague Ave Ste 110", "address_2": null, "address_3": null, "city": "North Charleston", "state_province": "South Carolina", "postal_code": "29418-7908", "country": "United States", "longitude": null, "latitude": null, "phone": "8432258600", "website_url": "http://Www.rustybullbrewing.com", "state": "South Carolina", "street": "3005 W Montague Ave Ste 110"}, {"id": "2d5e000a-9439-4789-9263-b11a9c7b29ae", "name": "Rusty Gold Brewing", "brewery_type": "micro", "address_1": "43 W Pike St", "address_2": null, "address_3": null, "city": "Canonsburg", "state_province": "Pennsylvania", "postal_code": "15317", "country": "United States", "longitude": "-80.18750486", "latitude": "40.25856457", "phone": "7244852332", "website_url": null, "state": "Pennsylvania", "street": "43 W Pike St"}, {"id": "5b104c23-134e-46d5-9777-e59c98ab83d3", "name": "Rusty Nickel Brewing Co.", "brewery_type": "brewpub", "address_1": "4350 Seneca St", "address_2": null, "address_3": null, "city": "Buffalo", "state_province": "New York", "postal_code": "14224-3169", "country": "United States", "longitude": "-78.851031", "latitude": "42.876243", "phone": "7166086155", "website_url": "http://www.rustynickelbrewing.com", "state": "New York", "street": "4350 Seneca St"}, {"id": "b6ae47ee-790a-4490-b8be-574d08ee76be", "name": "Rusty Rail Brewing", "brewery_type": "brewpub", "address_1": "5 N 8th St Ste 1", "address_2": null, "address_3": null, "city": "Mifflinburg", "state_province": "Pennsylvania", "postal_code": "17844-1003", "country": "United States", "longitude": null, "latitude": null, "phone": "5709667878", "website_url": "http://www.rustyrailbrewing.com", "state": "Pennsylvania", "street": "5 N 8th St Ste 1"}, {"id": "3d0e7cf3-6778-46dd-9907-1bd3370bb52b", "name": "Rusty Truck Brewing Company", "brewery_type": "brewpub", "address_1": "4649 SW Highway 101", "address_2": null, "address_3": null, "city": "Lincoln City", "state_province": "Oregon", "postal_code": "97367-1557", "country": "United States", "longitude": "-124.0209913", "latitude": "44.93273319", "phone": "5419947729", "website_url": "http://www.rustytruckbrewing.com", "state": "Oregon", "street": "4649 SW Highway 101"}, {"id": "b0ffaff1-21a3-47a5-bbd3-073cd3ec1678", "name": "Ryan Brewing Company", "brewery_type": "micro", "address_1": "5312 Williams Dr", "address_2": null, "address_3": null, "city": "Roscoe", "state_province": "Illinois", "postal_code": "61073", "country": "United States", "longitude": "-89.01015782", "latitude": "42.4211214", "phone": "8152701223", "website_url": "http://www.ryanbrewingcompany.com", "state": "Illinois", "street": "5312 Williams Dr"}, {"id": "9e0bf529-9a78-4899-8404-61b00d8c13ec", "name": "Rye River Brewing Company", "brewery_type": "micro", "address_1": "Donaghcumper", "address_2": "Dublin Rd", "address_3": null, "city": "Celbridge", "state_province": "Kildare", "postal_code": "W23 AX07", "country": "Ireland", "longitude": "-6.5246196", "latitude": "53.3409641", "phone": "35316287255", "website_url": "https://www.ryeriverbrewingco.com/", "state": "Kildare", "street": "Donaghcumper"}, {"id": "c63a3d08-74de-48c4-a413-4105bec41837", "name": "S & S Farm Brewery", "brewery_type": "micro", "address_1": "174 Middle Rd", "address_2": null, "address_3": null, "city": "Nassau", "state_province": "New York", "postal_code": "12123", "country": "United States", "longitude": "-73.57263982", "latitude": "42.49050535", "phone": "5183360766", "website_url": "http://www.sandsbrewery.com", "state": "New York", "street": "174 Middle Rd"}, {"id": "bf893977-4cd2-4fb2-bf23-087cf9da7d60", "name": "Sabbath Brewing", "brewery_type": "planning", "address_1": null, "address_2": null, "address_3": null, "city": "Atlanta", "state_province": "Georgia", "postal_code": "30316", "country": "United States", "longitude": null, "latitude": null, "phone": null, "website_url": null, "state": "Georgia", "street": null}, {"id": "6e49945b-64fc-4925-90ca-decb714d99e0", "name": "Sabbatical Brewing Co", "brewery_type": "brewpub", "address_1": "835 S 29th St", "address_2": null, "address_3": null, "city": "Manitowoc", "state_province": "Wisconsin", "postal_code": "54220", "country": "United States", "longitude": "-87.6838074", "latitude": "44.0912299", "phone": "9209013282", "website_url": "https://www.sabbaticalbrewingco.com", "state": "Wisconsin", "street": "835 S 29th St"}, {"id": "f83e7244-ddf1-4e86-b6a7-ac288b38c71e", "name": "Sackbut Brewing and Barrelwerks", "brewery_type": "micro", "address_1": "3153 E Huntington Blvd", "address_2": null, "address_3": null, "city": "Fresno", "state_province": "California", "postal_code": "93702-3215", "country": "United States", "longitude": "-119.7715206", "latitude": "36.73946658", "phone": null, "website_url": "http://www.sackbutbrewing.com", "state": "California", "street": "3153 E Huntington Blvd"}, {"id": "c209ebea-b190-4b09-8ea5-ebc422eb1e10", "name": "Sackets Harbor Brewing Co", "brewery_type": "brewpub", "address_1": "212 W Main St", "address_2": null, "address_3": null, "city": "Sackets Harbor", "state_province": "New York", "postal_code": "13685-3183", "country": "United States", "longitude": "-76.12164821", "latitude": "43.94796085", "phone": "3156462739", "website_url": "http://www.sacketsharborbrewpub.com", "state": "New York", "street": "212 W Main St"}, {"id": "403dbaa0-4494-48ac-896d-29752895b876", "name": "Saco River Brewing", "brewery_type": "micro", "address_1": "10 Jockey Cap Ln", "address_2": null, "address_3": null, "city": "Fryeburg", "state_province": "Maine", "postal_code": "04037-1428", "country": "United States", "longitude": null, "latitude": null, "phone": "2072563028", "website_url": "http://www.facebook.com/sacoriverbrewing", "state": "Maine", "street": "10 Jockey Cap Ln"}, {"id": "4cae6ee1-6a28-4961-a3fc-169b5c2d5d2d", "name": "Sacrament Brewing", "brewery_type": "micro", "address_1": "1616 J st.", "address_2": null, "address_3": null, "city": "Sacramento", "state_province": "California", "postal_code": "95814", "country": "United States", "longitude": "-121.4849275", "latitude": "38.57794927", "phone": "3102592158", "website_url": "http://www.sacramentbrewing.com", "state": "California", "street": "1616 J st."}, {"id": "cc9bb9b0-bdea-4c49-b437-711d7f3a4612", "name": "Sacred Lake Brewing", "brewery_type": "planning", "address_1": null, "address_2": null, "address_3": null, "city": "Herrin", "state_province": "Illinois", "postal_code": "62948-6349", "country": "United States", "longitude": null, "latitude": null, "phone": null, "website_url": null, "state": "Illinois", "street": null}, {"id": "f8ca57ef-0c93-41f3-a2dd-a309b7e046cc", "name": "Sacred Waters Brewing Company", "brewery_type": "planning", "address_1": null, "address_2": null, "address_3": null, "city": "Kalispell", "state_province": "Montana", "postal_code": "59901-6641", "country": "United States", "longitude": null, "latitude": null, "phone": "4062530746", "website_url": "http://www.sacredwatersbrewing.com", "state": "Montana", "street": null}, {"id": "698cefc8-464f-4d3e-9953-63b7fcfebb7d", "name": "Sacrilege Brewing Project", "brewery_type": "brewpub", "address_1": "730 Main St", "address_2": null, "address_3": null, "city": "Half Moon Bay", "state_province": "California", "postal_code": "94019-1925", "country": "United States", "longitude": "-122.4299132", "latitude": "37.460938", "phone": "6502767029", "website_url": null, "state": "California", "street": "730 Main St"}, {"id": "2a94fbb0-2e87-4063-b496-09a4be6c6126", "name": "Saddle Mountain Brewing Company", "brewery_type": "brewpub", "address_1": "15651 W Roosevelt St", "address_2": null, "address_3": null, "city": "Goodyear", "state_province": "Arizona", "postal_code": "85338-9309", "country": "United States", "longitude": "-112.3970112", "latitude": "33.4572737", "phone": "6239809524", "website_url": null, "state": "Arizona", "street": "15651 W Roosevelt St"}, {"id": "31eef285-74df-4f42-8ac1-b50212996148", "name": "Saddle Rock Pub & Brewery", "brewery_type": "brewpub", "address_1": "25 N Wenatchee Ave Ste 107", "address_2": null, "address_3": null, "city": "Wenatchee", "state_province": "Washington", "postal_code": "98801-2201", "country": "United States", "longitude": null, "latitude": null, "phone": "5098884790", "website_url": "http://www.saddlerockbrewery.com", "state": "Washington", "street": "25 N Wenatchee Ave Ste 107"}, {"id": "21fa52e0-8144-41bf-a181-2509d40d4d7d", "name": "Saddlebock Brewery", "brewery_type": "micro", "address_1": "16600 Saddlebock Lane", "address_2": null, "address_3": null, "city": "Springdale", "state_province": "Arkansas", "postal_code": "72764-7582", "country": "United States", "longitude": null, "latitude": null, "phone": "4794221797", "website_url": "http://www.saddlebock.com", "state": "Arkansas", "street": "16600 Saddlebock Lane"}, {"id": "2d16cfa0-c07b-4f6b-927f-597833014c26", "name": "Sager Beer Works", "brewery_type": "planning", "address_1": null, "address_2": null, "address_3": null, "city": "Rochester", "state_province": "New York", "postal_code": "14607-1669", "country": "United States", "longitude": null, "latitude": null, "phone": "5857520613", "website_url": "http://www.sagerbeerworks.com", "state": "New York", "street": null}, {"id": "2cb6340e-0e01-4f87-8456-dbbefdbf158f", "name": "Sahm Brewing Company", "brewery_type": "micro", "address_1": "203 S Salina St", "address_2": null, "address_3": null, "city": "Syracuse", "state_province": "New York", "postal_code": "13202", "country": "United States", "longitude": "-76.15209318", "latitude": "43.04945059", "phone": "3158777246", "website_url": "http://www.facebook.com/SahmBrewCo/", "state": "New York", "street": "203 S Salina St"}, {"id": "34011fb5-ccda-4f99-b21a-62953b9b6128", "name": "Sailfish Brewing Company, llc", "brewery_type": "micro", "address_1": "130 N 2nd St", "address_2": null, "address_3": null, "city": "Fort Pierce", "state_province": "Florida", "postal_code": "34950-4403", "country": "United States", "longitude": "-80.32431828", "latitude": "27.44903854", "phone": "7725774382", "website_url": "http://www.sailfishbrewingco.com", "state": "Florida", "street": "130 N 2nd St"}, {"id": "558d16c5-ccf9-4a3b-b644-d6af7c60233e", "name": "Saint Archer Brewing Company", "brewery_type": "large", "address_1": "9550 Distribution Ave", "address_2": null, "address_3": null, "city": "San Diego", "state_province": "California", "postal_code": "92121-2306", "country": "United States", "longitude": "-117.163745", "latitude": "32.880445", "phone": "8582252337", "website_url": "http://www.saintarcherbrewery.com", "state": "California", "street": "9550 Distribution Ave"}, {"id": "611a3d39-d0a2-4020-b9ce-87cbc545ad0d", "name": "Saint Arnold Brewing Co", "brewery_type": "regional", "address_1": "2000 Lyons Ave", "address_2": null, "address_3": null, "city": "Houston", "state_province": "Texas", "postal_code": "77020-2028", "country": "United States", "longitude": "-95.34846656", "latitude": "29.77112745", "phone": "7136869494", "website_url": "http://www.saintarnold.com", "state": "Texas", "street": "2000 Lyons Ave"}, {"id": "7526abe5-393d-461f-b9b6-fb5880167db7", "name": "Saint Benjamin Brewing Co", "brewery_type": "micro", "address_1": "1710 N 5th St", "address_2": null, "address_3": null, "city": "Philadelphia", "state_province": "Pennsylvania", "postal_code": "19122-2909", "country": "United States", "longitude": "-75.1475016", "latitude": "39.9562965", "phone": null, "website_url": null, "state": "Pennsylvania", "street": "1710 N 5th St"}, {"id": "7cfafd1b-9f71-421e-b68a-2a020e3f9540", "name": "Saint Boniface Craft Brewing Co", "brewery_type": "brewpub", "address_1": "1701 W Main St", "address_2": null, "address_3": null, "city": "Ephrata", "state_province": "Pennsylvania", "postal_code": "17522-1106", "country": "United States", "longitude": "-76.205629", "latitude": "40.200294", "phone": "7177211744", "website_url": null, "state": "Pennsylvania", "street": "1701 W Main St"}, {"id": "d138f5c2-f5f8-4d68-bcd9-b69a021cae6d", "name": "Saint Croix Beer Co. DBA Saint Croix Brewing Co.", "brewery_type": "contract", "address_1": "363 Webster St", "address_2": null, "address_3": null, "city": "Saint Paul", "state_province": "Minnesota", "postal_code": "55102-3651", "country": "United States", "longitude": "-93.12454994", "latitude": "44.93128073", "phone": "6513870708", "website_url": "http://www.stcroixbeer.com", "state": "Minnesota", "street": "363 Webster St"}, {"id": "df62a0f5-73ba-457c-90c9-9d79d495348d", "name": "Saint Hazards Brewery", "brewery_type": "brewpub", "address_1": "1233 Fox Road", "address_2": null, "address_3": null, "city": "Middle Bass Island", "state_province": "Ohio", "postal_code": "43446", "country": "United States", "longitude": null, "latitude": null, "phone": "4192856121", "website_url": null, "state": "Ohio", "street": "1233 Fox Road"}, {"id": "44dda0d1-ec31-47ce-a4ca-b3fef5161990", "name": "Saint J Brewery", "brewery_type": "brewpub", "address_1": "2002 Memorial Dr", "address_2": null, "address_3": null, "city": "Saint Johnsbury", "state_province": "Vermont", "postal_code": "05819-8991", "country": "United States", "longitude": "-72.01506898", "latitude": "44.45918219", "phone": "8024241700", "website_url": "http://www.saintjbrewery.com", "state": "Vermont", "street": "2002 Memorial Dr"}, {"id": "323e6f9e-6e29-4e97-bb59-474d701e48bf", "name": "Saint James Brewery", "brewery_type": "micro", "address_1": "929 Lincoln Ave Ste 11", "address_2": null, "address_3": null, "city": "Holbrook", "state_province": "New York", "postal_code": "11741-2256", "country": "United States", "longitude": null, "latitude": null, "phone": "6217073192", "website_url": "http://www.saintjamesbrewery.com", "state": "New York", "street": "929 Lincoln Ave Ste 11"}, {"id": "37763ebb-c13e-4de7-b53d-7f12a7f48d9e", "name": "Saint Patrick's Brewing Company", "brewery_type": "micro", "address_1": "2842 W Bowles Ave", "address_2": null, "address_3": null, "city": "Littleton", "state_province": "Colorado", "postal_code": "80120-1843", "country": "United States", "longitude": "-105.024584", "latitude": "39.6125875", "phone": "3037187575", "website_url": "http://www.stpatricksbrewco.com", "state": "Colorado", "street": "2842 W Bowles Ave"}, {"id": "05ec470f-09d7-4582-b432-fca4758f146e", "name": "Saint Somewhere Brewing Co", "brewery_type": "micro", "address_1": "312 E Tarpon Ave", "address_2": null, "address_3": null, "city": "Tarpon Springs", "state_province": "Florida", "postal_code": "34689-4320", "country": "United States", "longitude": "-82.75335373", "latitude": "28.14615551", "phone": "8135036181", "website_url": "http://www.saintsomewherebrewing.com", "state": "Florida", "street": "312 E Tarpon Ave"}, {"id": "b52a2cbf-4041-43b6-afbb-151883c9900d", "name": "Saints Row Brewing", "brewery_type": "micro", "address_1": "1211 Taft St", "address_2": null, "address_3": null, "city": "Rockville", "state_province": "Maryland", "postal_code": "20850-1344", "country": "United States", "longitude": "-77.13401808", "latitude": "39.09361715", "phone": null, "website_url": "http://www.saintsrowbeer.com", "state": "Maryland", "street": "1211 Taft St"}, {"id": "73a9fd49-5bbb-421b-b62e-221eed613881", "name": "SakeBrooklyn Brewing Co., LLC", "brewery_type": "planning", "address_1": null, "address_2": null, "address_3": null, "city": "Brooklyn", "state_province": "New York", "postal_code": "11237-5263", "country": "United States", "longitude": null, "latitude": null, "phone": "9294007253", "website_url": "http://www.sakebrooklyn.com", "state": "New York", "street": null}, {"id": "8a639388-c76a-466c-a8f3-80af5ebcf43f", "name": "Salem Ale Works", "brewery_type": "micro", "address_1": "2315 25th St SE", "address_2": null, "address_3": null, "city": "Salem", "state_province": "Oregon", "postal_code": "97302-1145", "country": "United States", "longitude": "-123.0103968", "latitude": "44.91998888", "phone": "5039908486", "website_url": "http://www.aleinsalem.com", "state": "Oregon", "street": "2315 25th St SE"}, {"id": "d75ad0e6-7f74-4708-9828-4298ca8b9e46", "name": "Salem Beer Works", "brewery_type": "brewpub", "address_1": "278 Derby St", "address_2": null, "address_3": null, "city": "Salem", "state_province": "Massachusetts", "postal_code": "01970-3635", "country": "United States", "longitude": "-70.8898634", "latitude": "42.52079262", "phone": "9787452337", "website_url": "http://www.beerworks.net", "state": "Massachusetts", "street": "278 Derby St"}, {"id": "91a7067e-1832-4b74-b319-3fefb1b291be", "name": "Salish Sea Brewing Company", "brewery_type": "brewpub", "address_1": "518 Dayton St Ste 104", "address_2": null, "address_3": null, "city": "Edmonds", "state_province": "Washington", "postal_code": "98020-", "country": "United States", "longitude": null, "latitude": null, "phone": "2062953116", "website_url": "http://www.salishbrewing.com", "state": "Washington", "street": "518 Dayton St Ste 104"}, {"id": "0534dcda-ed55-4104-915b-e95e7ec5a7a5", "name": "Salmon River Brewery", "brewery_type": "brewpub", "address_1": "411 Railroad Ave", "address_2": null, "address_3": null, "city": "McCall", "state_province": "Idaho", "postal_code": "83638-4132", "country": "United States", "longitude": "-116.097682", "latitude": "44.911663", "phone": "2086344772", "website_url": "http://www.salmonriverbrewery.com", "state": "Idaho", "street": "411 Railroad Ave"}, {"id": "a904f795-1ac5-40e1-a7fa-4eff2ad5882b", "name": "Saloon Door Brewing Co", "brewery_type": "brewpub", "address_1": "105 Magellan Cir Ste A", "address_2": null, "address_3": null, "city": "Webster", "state_province": "Texas", "postal_code": "77598-2033", "country": "United States", "longitude": null, "latitude": null, "phone": "4099393992", "website_url": "http://www.saloondoorbrewing.com", "state": "Texas", "street": "105 Magellan Cir Ste A"}, {"id": "979a9377-27e4-436c-938e-fddea2d87888", "name": "Salt City Brewing", "brewery_type": "micro", "address_1": "514 N Main Street", "address_2": null, "address_3": null, "city": "Hutchinson", "state_province": "Kansas", "postal_code": "67501", "country": "United States", "longitude": "-97.93175306", "latitude": "38.05869143", "phone": "6209606210", "website_url": null, "state": "Kansas", "street": "514 N Main Street"}, {"id": "6db95a97-2d83-4952-8a99-7bd8d77c5138", "name": "Salt Creek Brewery", "brewery_type": "brewpub", "address_1": "466 Old State Road 37 N", "address_2": null, "address_3": null, "city": "Bedford", "state_province": "Indiana", "postal_code": "47421-8068", "country": "United States", "longitude": null, "latitude": null, "phone": "8122778277", "website_url": "http://www.saltcreeekbrewery.beer", "state": "Indiana", "street": "466 Old State Road 37 N"}, {"id": "08945808-d75c-48f5-beed-9c7c9178d2b8", "name": "Salt Flats Brewery", "brewery_type": "micro", "address_1": "2020 W Industrial Cir", "address_2": null, "address_3": null, "city": "Salt Lake City", "state_province": "Utah", "postal_code": "84104-4260", "country": "United States", "longitude": "-111.9481568", "latitude": "40.7298237", "phone": "8018283469", "website_url": "http://rpmbeer.com", "state": "Utah", "street": "2020 W Industrial Cir"}, {"id": "e6cf8a79-37b3-4717-8df8-6acd82b1890a", "name": "Salt Lake Brewing Co/ Squatters Pub Brewery", "brewery_type": "micro", "address_1": "147 W Broadway", "address_2": null, "address_3": null, "city": "Salt Lake City", "state_province": "Utah", "postal_code": "84101-1914", "country": "United States", "longitude": "-111.895676", "latitude": "40.762524", "phone": "8013632739", "website_url": "http://www.squatters.com", "state": "Utah", "street": "147 W Broadway"}, {"id": "150a966d-9635-4389-9280-241e1da8a35c", "name": "Salt Marsh Brewing", "brewery_type": "brewpub", "address_1": "203 Bluffton Rd", "address_2": null, "address_3": null, "city": "Bluffton", "state_province": "South Carolina", "postal_code": "29910-6213", "country": "United States", "longitude": "-80.86048975", "latitude": "32.2372909", "phone": "8433219556", "website_url": "http://www.facebook.com/Saltmarshbrew/", "state": "South Carolina", "street": "203 Bluffton Rd"}, {"id": "eaa42613-3192-4867-805e-7e578994c526", "name": "Salt Point Brewing Co, LLC", "brewery_type": "brewpub", "address_1": "2075 East Shore Dr", "address_2": null, "address_3": null, "city": "Lansing", "state_province": "New York", "postal_code": "14882", "country": "United States", "longitude": "-76.50592053", "latitude": "42.53689005", "phone": "6075330124", "website_url": null, "state": "New York", "street": "2075 East Shore Dr"}, {"id": "11f843b1-c0af-406a-9324-7abb436817cb", "name": "Salt Springs Brewery", "brewery_type": "brewpub", "address_1": "117 S Ann Arbor St", "address_2": null, "address_3": null, "city": "Saline", "state_province": "Michigan", "postal_code": "48176-1320", "country": "United States", "longitude": "-83.78105412", "latitude": "42.16646594", "phone": "7342959191", "website_url": "http://wwww.saltpsringsbrewery.com", "state": "Michigan", "street": "117 S Ann Arbor St"}, {"id": "d2950fc3-0965-4692-90ad-b9d8a8031829", "name": "Saltbox Brewery", "brewery_type": "brewpub", "address_1": "84 Commonwealth Ave", "address_2": null, "address_3": null, "city": "Concord", "state_province": "Massachusetts", "postal_code": "01742-2904", "country": "United States", "longitude": "-71.39468258", "latitude": "42.45690806", "phone": "9782123585", "website_url": "http://www.saltboxkitchen.com", "state": "Massachusetts", "street": "84 Commonwealth Ave"}, {"id": "d1fd0d69-4522-4f03-836a-d35960dda89f", "name": "SaltFire Brewing Co.", "brewery_type": "micro", "address_1": "2199 S West Temple", "address_2": null, "address_3": null, "city": "Salt Lake City", "state_province": "Utah", "postal_code": "84115-2529", "country": "United States", "longitude": "-111.8937514", "latitude": "40.7227984", "phone": "3859550504", "website_url": "https://www.saltfirebrewing.com", "state": "Utah", "street": "2199 S West Temple"}, {"id": "7f0a3ebf-1467-4a6c-af59-561fa81ff1d0", "name": "Saltmarsh Brewery", "brewery_type": "planning", "address_1": null, "address_2": null, "address_3": null, "city": "Foxboro", "state_province": "Massachusetts", "postal_code": "02035-2299", "country": "United States", "longitude": null, "latitude": null, "phone": "6177996627", "website_url": "http://adam@saltmarshbrewery.com", "state": "Massachusetts", "street": null}, {"id": "efdc475f-8e3c-42f7-8e69-7d5fda684097", "name": "Saltwater Brewery", "brewery_type": "micro", "address_1": "1701 W Atlantic Ave", "address_2": null, "address_3": null, "city": "Delray Beach", "state_province": "Florida", "postal_code": "33444-1566", "country": "United States", "longitude": "-80.0913747", "latitude": "26.4619509", "phone": "6092808464", "website_url": "http://www.saltwaterbrewery.com", "state": "Florida", "street": "1701 W Atlantic Ave"}, {"id": "a0cb0659-7da0-4ad1-92bb-36e5a2760408", "name": "Salty Nut Brewery", "brewery_type": "micro", "address_1": "2406 Clinton Ave W", "address_2": null, "address_3": null, "city": "Huntsville", "state_province": "Alabama", "postal_code": "35805-3014", "country": "United States", "longitude": "-86.5932014", "latitude": "34.7277523", "phone": "2567138877", "website_url": "http://www.saltynutbrewery.com", "state": "Alabama", "street": "2406 Clinton Ave W"}, {"id": "22b97f6b-cd22-42f9-99cf-01554417b7a2", "name": "Salty Turtle Beer Company", "brewery_type": "micro", "address_1": "103 Triton Ln", "address_2": null, "address_3": null, "city": "Surf City", "state_province": "North Carolina", "postal_code": "28445", "country": "United States", "longitude": null, "latitude": null, "phone": "9108032019", "website_url": "http://www.saltyturtlebeer.com", "state": "North Carolina", "street": "103 Triton Ln"}, {"id": "7613627e-54af-4cea-9279-9ae4ef452fe1", "name": "Salud Cerveceria", "brewery_type": "brewpub", "address_1": "3306-B N Davidson St", "address_2": null, "address_3": null, "city": "Charlotte", "state_province": "North Carolina", "postal_code": "28205-1036", "country": "United States", "longitude": null, "latitude": null, "phone": "7045782941", "website_url": "http://www.saludbeershop.com", "state": "North Carolina", "street": "3306-B N Davidson St"}, {"id": "a37dcce1-fdd5-4651-9415-27070366fb19", "name": "Sam Bond's Brewing Co", "brewery_type": "brewpub", "address_1": "540 E 8th Ave", "address_2": null, "address_3": null, "city": "Eugene", "state_province": "Oregon", "postal_code": "97401-3344", "country": "United States", "longitude": "-123.0843307", "latitude": "44.05093611", "phone": "5412468162", "website_url": "http://www.sambondsbrewing.com", "state": "Oregon", "street": "540 E 8th Ave"}, {"id": "a7fd2fe1-0473-4e71-ac50-2c8a9eeed67e", "name": "Samuel Adams Pennsylvania Brewing Co", "brewery_type": "regional", "address_1": "7880 Penn Dr", "address_2": null, "address_3": null, "city": "Breinigsville", "state_province": "Pennsylvania", "postal_code": "18031-1508", "country": "United States", "longitude": null, "latitude": null, "phone": "6103956811", "website_url": null, "state": "Pennsylvania", "street": "7880 Penn Dr"}, {"id": "7713be83-2ff6-4dc5-a28e-a4f629978402", "name": "San Diego Brewing Co", "brewery_type": "brewpub", "address_1": "10450 Friars Rd Ste L", "address_2": null, "address_3": null, "city": "San Diego", "state_province": "California", "postal_code": "92120-2311", "country": "United States", "longitude": null, "latitude": null, "phone": "6192842739", "website_url": "http://www.sandiegobrewing.com", "state": "California", "street": "10450 Friars Rd Ste L"}, {"id": "38bb7b37-a035-4e52-bc15-a0ea83eaadce", "name": "San Fernando Brewing Co.", "brewery_type": "micro", "address_1": "425 Park Ave", "address_2": null, "address_3": null, "city": "San Fernando", "state_province": "California", "postal_code": "91340-2525", "country": "United States", "longitude": "-118.4322067", "latitude": "34.2828803", "phone": "8187456175", "website_url": "http://www.sanfernandobrewingcompany.com", "state": "California", "street": "425 Park Ave"}, {"id": "6a2f7b58-6a84-4646-8362-13b9627e3f44", "name": "San Francisco Brewing Co", "brewery_type": "proprietor", "address_1": "3150 Polk St", "address_2": null, "address_3": null, "city": "San Francisco", "state_province": "California", "postal_code": "94109", "country": "United States", "longitude": "-122.4231232", "latitude": "37.80583356", "phone": "4154842337", "website_url": "http://www.sfbrewingco.com", "state": "California", "street": "3150 Polk St"}]