[{"id": "686e0f81-196a-4e76-9b73-2e3957c7b871", "name": "Astoria Brewing Company", "brewery_type": "micro", "address_1": "1196 Marine Dr", "address_2": null, "address_3": null, "city": "Astoria", "state_province": "Oregon", "postal_code": "97103-4112", "country": "United States", "longitude": "-123.831516", "latitude": "46.18980259", "phone": "5037413040", "website_url": null, "state": "Oregon", "street": "1196 Marine Dr"}, {"id": "d916497e-0b1b-48aa-8add-10a62c0b3e90", "name": "Astral Brewing", "brewery_type": "micro", "address_1": "4816 N Shepherd Dr suite a", "address_2": null, "address_3": null, "city": "Houston", "state_province": "Texas", "postal_code": "77018", "country": "United States", "longitude": null, "latitude": null, "phone": "7135341067", "website_url": "https://www.astralbrewing.com", "state": "Texas", "street": "4816 N Shepherd Dr suite a"}, {"id": "d94c95b9-509c-4d53-86a6-769555e1773e", "name": "Astro Lab Brewing", "brewery_type": "planning", "address_1": null, "address_2": null, "address_3": null, "city": "Silver Spring", "state_province": "Maryland", "postal_code": "20910-4519", "country": "United States", "longitude": null, "latitude": null, "phone": "3106910475", "website_url": "http://www.astrolabbrewing.com", "state": "Maryland", "street": null}, {"id": "e49978bd-c6d2-46c6-a3a4-50964ab4f783", "name": "Astronomy Aleworks", "brewery_type": "planning", "address_1": null, "address_2": null, "address_3": null, "city": "Henderson", "state_province": "Nevada", "postal_code": "89011", "country": "United States", "longitude": null, "latitude": null, "phone": "7023754968", "website_url": "http://astronomyaleworks.com", "state": "Nevada", "street": null}, {"id": "7b552890-643d-4615-a73b-791cff62299b", "name": "Asylum Brewing", "brewery_type": "micro", "address_1": "2970 E. La Palma Ave. Suite D", "address_2": null, "address_3": null, "city": "Anaheim", "state_province": "California", "postal_code": "92806", "country": "United States", "longitude": "-117.8612062", "latitude": "33.84988007", "phone": "9494495191", "website_url": "http://Www.asylumbrewing.beer", "state": "California", "street": "2970 E. La Palma Ave. Suite D"}, {"id": "f786b344-af07-4b30-a236-93a93314f9d5", "name": "At Ease Brewing", "brewery_type": "planning", "address_1": null, "address_2": null, "address_3": null, "city": "Sacramento", "state_province": "California", "postal_code": "95811-3003", "country": "United States", "longitude": "-121.4943996", "latitude": "38.5815719", "phone": "9167362267", "website_url": "http://www.ateasebrewing.com", "state": "California", "street": null}, {"id": "05f7ec4a-c1ed-4494-a2b0-5ef1ce6a8022", "name": "At Large Brewing", "brewery_type": "micro", "address_1": "2730 W Marine View Dr", "address_2": null, "address_3": null, "city": "Everett", "state_province": "Washington", "postal_code": "98201-3421", "country": "United States", "longitude": "-122.2146867", "latitude": "47.9808918", "phone": "4253240039", "website_url": "http://www.atlargebrewing.com", "state": "Washington", "street": "2730 W Marine View Dr"}, {"id": "ba385e5a-6c50-431a-a820-21d783b9e0b1", "name": "Atco Brewing LLC", "brewery_type": "micro", "address_1": "302 White Horse Pike", "address_2": null, "address_3": null, "city": "Atco", "state_province": "New Jersey", "postal_code": "08004-2209", "country": "United States", "longitude": "-74.89973165", "latitude": "39.77167345", "phone": "6097072628", "website_url": "http://Www.atcobrewingcompany.com", "state": "New Jersey", "street": "302 White Horse Pike"}, {"id": "be88a2bb-0975-416c-b9f4-c571ddf70e5c", "name": "Athens Brewing Co", "brewery_type": "brewpub", "address_1": "101 E Tyler St", "address_2": null, "address_3": null, "city": "Athens", "state_province": "Texas", "postal_code": "75751-2547", "country": "United States", "longitude": "-95.852642", "latitude": "32.205458", "phone": "9039527493", "website_url": "http://www.athensbrewingco.com", "state": "Texas", "street": "101 E Tyler St"}, {"id": "01dfa6a1-0ad4-4ac5-a184-1d6c69294460", "name": "Athletic Brewing Company", "brewery_type": "planning", "address_1": null, "address_2": null, "address_3": null, "city": "Stratford", "state_province": "Connecticut", "postal_code": "06615-7167", "country": "United States", "longitude": null, "latitude": null, "phone": "2032730422", "website_url": "http://www.AthleticBrewing.com", "state": "Connecticut", "street": null}, {"id": "4e0403f6-c040-4d4c-b9fe-1f5a115b0172", "name": "Atlantic Beach Brewing Company", "brewery_type": "micro", "address_1": "725 Atlantic Blvd Suite 3", "address_2": null, "address_3": null, "city": "Atlantic Beach", "state_province": "Florida", "postal_code": "32233-3946", "country": "United States", "longitude": null, "latitude": null, "phone": "9048948426", "website_url": "http://www.atlanticbeachbrewingcompany.com", "state": "Florida", "street": "725 Atlantic Blvd Suite 3"}, {"id": "5f353918-3d93-49ba-93d1-098a0ecf318f", "name": "Atlantic Brewing Co", "brewery_type": "micro", "address_1": "15 Knox Rd", "address_2": null, "address_3": null, "city": "Bar Harbor", "state_province": "Maine", "postal_code": "04609-7770", "country": "United States", "longitude": null, "latitude": null, "phone": "2072882337", "website_url": "http://atlanticbrewing.com", "state": "Maine", "street": "15 Knox Rd"}, {"id": "9df45ed5-3546-43e7-a1dd-3311c0c1176b", "name": "Converge Brewing Company", "brewery_type": "planning", "address_1": null, "address_2": null, "address_3": null, "city": "Paso Robles", "state_province": "California", "postal_code": "93446-8360", "country": "United States", "longitude": "-120.6912456", "latitude": "35.6267654", "phone": "3076908538", "website_url": null, "state": "California", "street": null}, {"id": "36a6f65e-aa9d-45d5-9ce8-cbbc82ca9ab1", "name": "Atlantic Brewing Co / Bar Harbor Brewing", "brewery_type": "brewpub", "address_1": "52 Cottage Street Bar Harbor", "address_2": null, "address_3": null, "city": "Bar Harbor", "state_province": "Maine", "postal_code": "04609", "country": "United States", "longitude": "-68.20607075", "latitude": "44.389488", "phone": "2072884592", "website_url": "http://www.barharborbrewing.com", "state": "Maine", "street": "52 Cottage Street Bar Harbor"}, {"id": "41b3fd0e-0083-4f6a-96d8-dff2554e4731", "name": "Atlas Brew Works", "brewery_type": "micro", "address_1": "2052 W Virginia Ave NE Ste 102", "address_2": null, "address_3": null, "city": "Washington", "state_province": "District of Columbia", "postal_code": "20002-1832", "country": "United States", "longitude": null, "latitude": null, "phone": "2028320420", "website_url": "http://www.atlasbrewworks.com", "state": "District of Columbia", "street": "2052 W Virginia Ave NE Ste 102"}, {"id": "325d44c0-53fb-4991-a694-659ac9f89fa9", "name": "Atom Brewing Company", "brewery_type": "micro", "address_1": "654 Moffat St", "address_2": null, "address_3": null, "city": "Erie", "state_province": "Colorado", "postal_code": "80516", "country": "United States", "longitude": "-105.0542327", "latitude": "40.0488359", "phone": "8634120917", "website_url": "http://www.atombrewingcompany.com", "state": "Colorado", "street": "654 Moffat St"}, {"id": "aaba0413-9bee-49ac-9bef-8159dcd353d0", "name": "Atomic Ale Brewpub and Eatery", "brewery_type": "brewpub", "address_1": "1015 Lee Blvd", "address_2": null, "address_3": null, "city": "Richland", "state_province": "Washington", "postal_code": "99352-4226", "country": "United States", "longitude": "-119.2782003", "latitude": "46.27475515", "phone": "5099465465", "website_url": "http://www.atomicalebrewpub.com", "state": "Washington", "street": "1015 Lee Blvd"}, {"id": "26567ffb-52fb-40b2-a31f-08f4ea3699b9", "name": "Atrevida Beer Company", "brewery_type": "micro", "address_1": "204 Mount View Ln Unit 3", "address_2": null, "address_3": null, "city": "Colorado Springs", "state_province": "Colorado", "postal_code": "80908", "country": "United States", "longitude": null, "latitude": null, "phone": "7192664200", "website_url": "http://www.atrevidabeerco.com", "state": "Colorado", "street": "204 Mount View Ln Unit 3"}, {"id": "724a6296-cdac-4d35-92fd-cc44960010ff", "name": "Attaboy Beer", "brewery_type": "micro", "address_1": "400 Sagner Ave Ste 400", "address_2": null, "address_3": null, "city": "Frederick", "state_province": "Maryland", "postal_code": "21701-6083", "country": "United States", "longitude": null, "latitude": null, "phone": "4157106459", "website_url": null, "state": "Maryland", "street": "400 Sagner Ave Ste 400"}, {"id": "87d71c35-9537-4ef1-b232-668bea736ffa", "name": "Attic Brewing", "brewery_type": "planning", "address_1": null, "address_2": null, "address_3": null, "city": "Philadelphia", "state_province": "Pennsylvania", "postal_code": "19144-3603", "country": "United States", "longitude": null, "latitude": null, "phone": "7082047376", "website_url": null, "state": "Pennsylvania", "street": null}, {"id": "70fc7667-dda2-4cf0-ae7e-cbb43b5c43c4", "name": "Atwater Brewing Co", "brewery_type": "regional", "address_1": "237 Joseph Campau St", "address_2": null, "address_3": null, "city": "Detroit", "state_province": "Michigan", "postal_code": "48207-4107", "country": "United States", "longitude": "-83.072904", "latitude": "42.4190883", "phone": "3138779205", "website_url": "http://www.atwaterbeer.com", "state": "Michigan", "street": "237 Joseph Campau St"}, {"id": "14693124-55bc-43e9-817e-b99a85f662ac", "name": "Atwater Grand Rapids", "brewery_type": "brewpub", "address_1": "201 Michigan St NW", "address_2": null, "address_3": null, "city": "Grand Rapids", "state_province": "Michigan", "postal_code": "49503-2323", "country": "United States", "longitude": "-85.672454", "latitude": "42.970463", "phone": "6166493020", "website_url": null, "state": "Michigan", "street": "201 Michigan St NW"}, {"id": "89d36a6d-1226-4c61-b4c6-22676a55a364", "name": "Atwater In the Park Biergarten and Tap House", "brewery_type": "brewpub", "address_1": "1175 Lakepointe St", "address_2": null, "address_3": null, "city": "Grosse Pointe Park", "state_province": "Michigan", "postal_code": "48230-1319", "country": "United States", "longitude": "-82.9399103", "latitude": "42.3814617", "phone": "3133445104", "website_url": "http://www.atwaterbeer.com", "state": "Michigan", "street": "1175 Lakepointe St"}, {"id": "aa0195bf-8258-4262-89c4-af8a89793822", "name": "Atwood Ales", "brewery_type": "micro", "address_1": "4012 Sweet Rd", "address_2": null, "address_3": null, "city": "Blaine", "state_province": "Washington", "postal_code": "98230-9108", "country": "United States", "longitude": "-122.6990459", "latitude": "48.97900614", "phone": "3603996239", "website_url": "http://www.atwoodales.com", "state": "Washington", "street": "4012 Sweet Rd"}, {"id": "65706566-c0f6-4995-ae18-0b07feea8396", "name": "Atypical Brewery & Barrelworks", "brewery_type": "micro", "address_1": "510 Central Ave E", "address_2": null, "address_3": null, "city": "Minot", "state_province": "North Dakota", "postal_code": "58701-4056", "country": "United States", "longitude": "-101.2854035", "latitude": "48.23634956", "phone": "7018330567", "website_url": "https://www.facebook.com/AtypicalBrew", "state": "North Dakota", "street": "510 Central Ave E"}, {"id": "b556e8ca-eb4b-46c4-a1bc-b5bb2e33b605", "name": "Auburn Alehouse", "brewery_type": "brewpub", "address_1": "289 Washington St", "address_2": null, "address_3": null, "city": "Auburn", "state_province": "California", "postal_code": "95603-5036", "country": "United States", "longitude": "-121.0789583", "latitude": "38.89612107", "phone": "5308852537", "website_url": "http://www.auburnalehouse.com", "state": "California", "street": "289 Washington St"}, {"id": "b96d27cf-42b8-4791-8fb8-87840016e497", "name": "Auburn Brewing Company", "brewery_type": "planning", "address_1": null, "address_2": null, "address_3": null, "city": "Auburn", "state_province": "Indiana", "postal_code": "46706", "country": "United States", "longitude": null, "latitude": null, "phone": "2609081074", "website_url": null, "state": "Indiana", "street": null}, {"id": "2728266c-bb3e-4e98-81b8-52489bc019ae", "name": "Audacious Aleworks", "brewery_type": "micro", "address_1": "110 E Fairfax St", "address_2": null, "address_3": null, "city": "Falls Church", "state_province": "Virginia", "postal_code": "22046", "country": "United States", "longitude": "-77.17234359", "latitude": "38.88076482", "phone": null, "website_url": null, "state": "Virginia", "street": "110 E Fairfax St"}, {"id": "bd7e4765-9179-47b5-8888-219d1af19fe1", "name": "Audacity Brewing", "brewery_type": "micro", "address_1": "1208 10th St Ste C", "address_2": null, "address_3": null, "city": "Snohomish", "state_province": "Washington", "postal_code": "98290", "country": "United States", "longitude": "-122.0966776", "latitude": "47.925023", "phone": "3602948742", "website_url": "http://www.audacitybrewing.com", "state": "Washington", "street": "1208 10th St Ste C"}, {"id": "e8f104ff-0e7e-429d-b3da-ae6655830e8c", "name": "August Schell Brewing Co", "brewery_type": "regional", "address_1": "Schells Park/1860 Schell Rd", "address_2": null, "address_3": null, "city": "New Ulm", "state_province": "Minnesota", "postal_code": "56073", "country": "United States", "longitude": null, "latitude": null, "phone": "5073545528", "website_url": "http://www.schellsbrewery.com", "state": "Minnesota", "street": "Schells Park/1860 Schell Rd"}, {"id": "895ef2f2-7ce5-44c7-af97-ee9c7cce774b", "name": "Augusta Brewing Co", "brewery_type": "brewpub", "address_1": "109 W Main St", "address_2": null, "address_3": null, "city": "Washington", "state_province": "Missouri", "postal_code": "63090-2191", "country": "United States", "longitude": "-91.01173472", "latitude": "38.56026935", "phone": "6362395010", "website_url": "http://www.augustabrewing.com", "state": "Missouri", "street": "109 W Main St"}, {"id": "9209ed61-b9dd-4b06-bf2c-8cacbef097f8", "name": "Augustino Brewing", "brewery_type": "brewpub", "address_1": "756 N Tyler Rd", "address_2": null, "address_3": null, "city": "Wichita", "state_province": "Kansas", "postal_code": "67212-3617", "country": "United States", "longitude": "-97.44431468", "latitude": "37.69517328", "phone": "3167215554", "website_url": "http://www.augustinobrew.com", "state": "Kansas", "street": "756 N Tyler Rd"}, {"id": "506f8ec3-7cac-42c1-b7fd-9fe1a5865b2c", "name": "Aurochs Brewing Company", "brewery_type": "micro", "address_1": "8321 Ohio River Blvd", "address_2": null, "address_3": null, "city": "Pittsburgh", "state_province": "Pennsylvania", "postal_code": "15202-1451", "country": "United States", "longitude": "-80.0221567", "latitude": "40.4488158", "phone": "7242608737", "website_url": null, "state": "Pennsylvania", "street": "8321 Ohio River Blvd"}, {"id": "74f46cc4-156c-4986-b653-b5240678ff54", "name": "Aurora Ale & Lager", "brewery_type": "micro", "address_1": "1891 State Route 90 N", "address_2": null, "address_3": null, "city": "King Ferry", "state_province": "New York", "postal_code": "13081-9719", "country": "United States", "longitude": null, "latitude": null, "phone": null, "website_url": "http://www.brewaurora.com", "state": "New York", "street": "1891 State Route 90 N"}, {"id": "16ead71f-bbd5-4b34-b434-a3bc7849349f", "name": "Ausable Brewing Co", "brewery_type": "micro", "address_1": "765 Mace Chasm Rd", "address_2": null, "address_3": null, "city": "Keeseville", "state_province": "New York", "postal_code": "12944-2425", "country": "United States", "longitude": null, "latitude": null, "phone": "3152443295", "website_url": "http://ausablebrewing.tumblr.com", "state": "New York", "street": "765 Mace Chasm Rd"}, {"id": "9a280fbb-adee-484a-876b-50e71235a711", "name": "Austin Beerworks", "brewery_type": "regional", "address_1": "3001 Industrial Ter", "address_2": null, "address_3": null, "city": "Austin", "state_province": "Texas", "postal_code": "78758-7609", "country": "United States", "longitude": "-97.72984444", "latitude": "30.3795705", "phone": "5128212494", "website_url": "http://www.austinbeerworks.com", "state": "Texas", "street": "3001 Industrial Ter"}, {"id": "26079ee9-0313-425a-84b6-25d0eda4f596", "name": "Austin Brothers' Beer Company", "brewery_type": "brewpub", "address_1": "821 W Miller St", "address_2": null, "address_3": null, "city": "Alpena", "state_province": "Michigan", "postal_code": "49707-1825", "country": "United States", "longitude": "-83.43583578", "latitude": "45.07296998", "phone": "9893402300", "website_url": "http://www.austinbrosbeerco.com", "state": "Michigan", "street": "821 W Miller St"}, {"id": "840d509e-f231-4722-ab4c-bf2ef7996196", "name": "Austin Street Brewery", "brewery_type": "micro", "address_1": "1 Industrial Way Ste 8", "address_2": null, "address_3": null, "city": "Portland", "state_province": "Maine", "postal_code": "04103-1072", "country": "United States", "longitude": null, "latitude": null, "phone": "2072001994", "website_url": "http://www.austinstreetbrewery.com", "state": "Maine", "street": "1 Industrial Way Ste 8"}, {"id": "322a5eb4-e725-4c03-b532-a64153037076", "name": "Automatic Brewing Co. / Blind Lady Alehouse", "brewery_type": "brewpub", "address_1": "3416 Adams Ave", "address_2": null, "address_3": null, "city": "San Diego", "state_province": "California", "postal_code": "92116-2428", "country": "United States", "longitude": "-117.120151", "latitude": "32.763588", "phone": "6192007522", "website_url": "http://www.blindlady.blogspot.com", "state": "California", "street": "3416 Adams Ave"}, {"id": "102c478e-ab27-4c8c-82c3-8eaee82959fa", "name": "Avalanche Brewing Co", "brewery_type": "brewpub", "address_1": "1067 Blair St", "address_2": null, "address_3": null, "city": "Silverton", "state_province": "Colorado", "postal_code": "81433-0377", "country": "United States", "longitude": "-107.664791", "latitude": "37.8098899", "phone": "9703875282", "website_url": "http://www.avalanchebrewing.com", "state": "Colorado", "street": "1067 Blair St"}, {"id": "d07100f1-ab4b-413e-bc07-045ee4d61fe6", "name": "Avant Garde Aleworks", "brewery_type": "micro", "address_1": "920 Dunraven St", "address_2": null, "address_3": null, "city": "Estes Park", "state_province": "Colorado", "postal_code": "80517", "country": "United States", "longitude": "-105.5085669", "latitude": "40.3728533", "phone": "9705912700", "website_url": "https://avantgardealeworks.com", "state": "Colorado", "street": "920 Dunraven St"}, {"id": "3bde4342-bfc1-49cb-9b40-7fb1aef26886", "name": "Avery Brewing Co", "brewery_type": "regional", "address_1": "4910 Nautilus Ct N", "address_2": null, "address_3": null, "city": "Boulder", "state_province": "Colorado", "postal_code": "80301-3242", "country": "United States", "longitude": "-105.2047652", "latitude": "40.0625835", "phone": null, "website_url": null, "state": "Colorado", "street": "4910 Nautilus Ct N"}, {"id": "7006a17a-74da-497a-ba35-2338c7efbb25", "name": "Aviator Brewing Company", "brewery_type": "regional", "address_1": "209 Technology Park Ln", "address_2": null, "address_3": null, "city": "Fuquay Varina", "state_province": "North Carolina", "postal_code": "27526-9311", "country": "United States", "longitude": "-78.8073896", "latitude": "35.61695983", "phone": "9195672337", "website_url": "http://www.aviatorbrew.com", "state": "North Carolina", "street": "209 Technology Park Ln"}, {"id": "bb02e7c9-bf6e-47dd-a0dc-a0e8eb1b9ad3", "name": "Avondale Brewing Co", "brewery_type": "micro", "address_1": "201 41st St S", "address_2": null, "address_3": null, "city": "Birmingham", "state_province": "Alabama", "postal_code": "35222-1932", "country": "United States", "longitude": "-86.774322", "latitude": "33.524521", "phone": "2057775456", "website_url": "http://www.avondalebrewing.com", "state": "Alabama", "street": "201 41st St S"}, {"id": "46813d2e-b120-4f43-8957-5e8dfadc603f", "name": "Axe And Arrow Brewery", "brewery_type": "planning", "address_1": null, "address_2": null, "address_3": null, "city": "Glassboro", "state_province": "New Jersey", "postal_code": "08028", "country": "United States", "longitude": null, "latitude": null, "phone": null, "website_url": null, "state": "New Jersey", "street": null}, {"id": "f42d1652-6001-490f-ad55-ed573c47c38d", "name": "Axle Brewing Company", "brewery_type": "micro", "address_1": "567 Livernois St", "address_2": null, "address_3": null, "city": "Ferndale", "state_province": "Michigan", "postal_code": "48220-2303", "country": "United States", "longitude": "-83.1428144", "latitude": "42.4508021", "phone": "2486137002", "website_url": "http://www.axlebrewing.com", "state": "Michigan", "street": "567 Livernois St"}, {"id": "796874cf-6c73-4946-9459-e4cc044c8f39", "name": "Aztec Brewing Company", "brewery_type": "micro", "address_1": "2330 La Mirada Dr Ste 300", "address_2": null, "address_3": null, "city": "Vista", "state_province": "California", "postal_code": "92081-7871", "country": "United States", "longitude": "-117.2297606", "latitude": "33.14984395", "phone": "7605987720", "website_url": "http://www.aztecbrewery.com", "state": "California", "street": "2330 La Mirada Dr Ste 300"}, {"id": "483efb3e-05aa-43b5-a283-40414b6b47dc", "name": "B and J's Handcrafted Texas Ales", "brewery_type": "micro", "address_1": "6335 S Padre Island Dr", "address_2": null, "address_3": null, "city": "Corpus Christi", "state_province": "Texas", "postal_code": "78412-4013", "country": "United States", "longitude": "-97.2962784", "latitude": "27.6749936", "phone": "3619926671", "website_url": "http://pizzaandbrew@aol.com", "state": "Texas", "street": "6335 S Padre Island Dr"}, {"id": "e5cae8be-4cfa-40da-bf78-ffd3ad7cba35", "name": "B Chord Brewing Company", "brewery_type": "micro", "address_1": "34266 Williams Gap Rd", "address_2": null, "address_3": null, "city": "Round Hill", "state_province": "Virginia", "postal_code": "20141-2100", "country": "United States", "longitude": null, "latitude": null, "phone": "7036234542", "website_url": "http://www.bchordbrewing.com", "state": "Virginia", "street": "34266 Williams Gap Rd"}, {"id": "8f4aa88c-e9cb-4932-9245-a2230ec59b63", "name": "B-52 Brewing", "brewery_type": "micro", "address_1": "12470 Milroy Ln", "address_2": null, "address_3": null, "city": "Conroe", "state_province": "Texas", "postal_code": "77304-5160", "country": "United States", "longitude": null, "latitude": null, "phone": "9364474677", "website_url": "http://www.b52brewing.com", "state": "Texas", "street": "12470 Milroy Ln"}, {"id": "80263b86-dfa6-46dd-86cd-3440a13d5015", "name": "B-CS  Zoigl Brewery", "brewery_type": "micro", "address_1": "\u00c2\u00a0211-C W William Joel Bryan Pkwy", "address_2": null, "address_3": null, "city": "Bryan", "state_province": "Texas", "postal_code": "77803-3225", "country": "United States", "longitude": null, "latitude": null, "phone": "2819353018", "website_url": "http://www.bcs-zoigl.com", "state": "Texas", "street": "\u00c2\u00a0211-C W William Joel Bryan Pkwy"}, {"id": "6918f40b-ab41-4fd8-bea0-ae8a5ce5664a", "name": "B.C. Brewery", "brewery_type": "micro", "address_1": "10950 Gilroy Rd Ste F", "address_2": null, "address_3": null, "city": "Hunt Valley", "state_province": "Maryland", "postal_code": "21031-1327", "country": "United States", "longitude": null, "latitude": null, "phone": "4433913847", "website_url": "http://www.bcbrewerymd.com", "state": "Maryland", "street": "10950 Gilroy Rd Ste F"}, {"id": "22d43b9c-e8ba-412b-bb36-da1fc749fe80", "name": "B.O.B's Brewery", "brewery_type": "brewpub", "address_1": "20 Monroe Ave NW", "address_2": null, "address_3": null, "city": "Grand Rapids", "state_province": "Michigan", "postal_code": "49503-6208", "country": "United States", "longitude": "-85.67248446", "latitude": "42.9638257", "phone": "6163562000", "website_url": "http://thebobsbrewery.thebob.com", "state": "Michigan", "street": "20 Monroe Ave NW"}, {"id": "03df12a0-f2ff-4c37-b862-e6df31123b74", "name": "B9 Beverages Inc", "brewery_type": "contract", "address_1": "404 5th Ave # 7.055", "address_2": null, "address_3": null, "city": "New York", "state_province": "New York", "postal_code": "10018-2797", "country": "United States", "longitude": null, "latitude": null, "phone": null, "website_url": null, "state": "New York", "street": "404 5th Ave # 7.055"}, {"id": "c916c0c3-be83-4d5a-b2de-c58fc9faa206", "name": "Baa Baa Brewhouse", "brewery_type": "micro", "address_1": "539 FM 359 Rd S", "address_2": null, "address_3": null, "city": "Brookshire", "state_province": "Texas", "postal_code": "77423-8013", "country": "United States", "longitude": null, "latitude": null, "phone": "2819341847", "website_url": "http://www.baabaabrewhouse.com", "state": "Texas", "street": "539 FM 359 Rd S"}, {"id": "ed8d31a5-35b4-48fb-b2df-971d9951e915", "name": "Conversations Brewing", "brewery_type": "closed", "address_1": null, "address_2": null, "address_3": null, "city": "Battle Ground", "state_province": "Washington", "postal_code": "98604", "country": "United States", "longitude": null, "latitude": null, "phone": null, "website_url": null, "state": "Washington", "street": null}, {"id": "569b794f-4e15-446c-b249-9699e8687d40", "name": "Babe's Bar-B-Que and Brewhouse", "brewery_type": "brewpub", "address_1": "71800 Highway 111 Ste A176", "address_2": null, "address_3": null, "city": "Rancho Mirage", "state_province": "California", "postal_code": "92270-4495", "country": "United States", "longitude": "-116.4110483", "latitude": "33.74096746", "phone": "7603468738", "website_url": "https://www.babesbbqbrewery.com/", "state": "California", "street": "71800 Highway 111 Ste A176"}, {"id": "418c8bd5-997f-47f5-8147-a8a243517634", "name": "Bacchus Brewing", "brewery_type": "micro", "address_1": "15 Ellis Dr", "address_2": null, "address_3": null, "city": "Dryden", "state_province": "New York", "postal_code": "13053-9630", "country": "United States", "longitude": "-76.29904171", "latitude": "42.49966971", "phone": "6078448474", "website_url": "http://www.bacchusbrewing.com", "state": "New York", "street": "15 Ellis Dr"}, {"id": "89028aa2-3ecf-446b-89c0-5ef641e1bd50", "name": "Back Alley Brewing Co", "brewery_type": "micro", "address_1": "211 S Main St", "address_2": null, "address_3": null, "city": "Goshen", "state_province": "Indiana", "postal_code": "46526-3722", "country": "United States", "longitude": "-85.83457862", "latitude": "41.58461971", "phone": "5743704049", "website_url": null, "state": "Indiana", "street": "211 S Main St"}, {"id": "2c260790-18be-4c9d-88da-4334c5cf151e", "name": "Back Bay Brewing Company", "brewery_type": "micro", "address_1": "614 Norfolk Ave", "address_2": null, "address_3": null, "city": "Virginia Beach", "state_province": "Virginia", "postal_code": "23451-4419", "country": "United States", "longitude": "-75.97974414", "latitude": "36.83778371", "phone": "7575317750", "website_url": "http://www.backbaybrewingco.com", "state": "Virginia", "street": "614 Norfolk Ave"}, {"id": "cb595c72-e65b-444e-83a6-9d07d731e2b6", "name": "Back Channel Brewing", "brewery_type": "micro", "address_1": "4787 Shoreline Dr", "address_2": null, "address_3": null, "city": "Spring Park", "state_province": "Minnesota", "postal_code": "55384-9713", "country": "United States", "longitude": "-93.64430718", "latitude": "44.93673794", "phone": null, "website_url": "http://www.backchannelbrewing@gmail.com", "state": "Minnesota", "street": "4787 Shoreline Dr"}, {"id": "e6df4e9e-1833-49b0-90e5-69c565c5da83", "name": "Back Creek Brewing Company", "brewery_type": "planning", "address_1": null, "address_2": null, "address_3": null, "city": "Annapolis", "state_province": "Maryland", "postal_code": "21401-4019", "country": "United States", "longitude": null, "latitude": null, "phone": "4103206904", "website_url": "http://www.backcreekbrewing.com", "state": "Maryland", "street": null}, {"id": "fc54b886-6305-4dc2-8511-a8b9049297e6", "name": "Back East Brewing", "brewery_type": "micro", "address_1": "1296 Blue Hills Ave Ste A", "address_2": null, "address_3": null, "city": "Bloomfield", "state_province": "Connecticut", "postal_code": "06002-5312", "country": "United States", "longitude": null, "latitude": null, "phone": "8602421793", "website_url": "http://www.backeastbrewing.com", "state": "Connecticut", "street": "1296 Blue Hills Ave Ste A"}, {"id": "3564fec6-6f87-45cd-88a7-94063757ce94", "name": "Back Forty Beer Co", "brewery_type": "micro", "address_1": "200 N 6th St", "address_2": null, "address_3": null, "city": "Gadsden", "state_province": "Alabama", "postal_code": "35901-3361", "country": "United States", "longitude": "-86.005006", "latitude": "34.016888", "phone": "2564674912", "website_url": "http://www.backfortybeer.com", "state": "Alabama", "street": "200 N 6th St"}, {"id": "d53226dc-b8b1-494c-85f5-1c97ba255947", "name": "Back Pedal Brewing Company", "brewery_type": "micro", "address_1": "1425 NW Flanders St", "address_2": null, "address_3": null, "city": "Portland", "state_province": "Oregon", "postal_code": "97209-2620", "country": "United States", "longitude": "-122.6856562", "latitude": "45.52597595", "phone": "9714005950", "website_url": "http://backpedalbrewing.com", "state": "Oregon", "street": "1425 NW Flanders St"}, {"id": "38c59264-ac19-4b4a-bada-cab729f71d57", "name": "Back Pew Brewing", "brewery_type": "micro", "address_1": "26452 Sorters Rd", "address_2": null, "address_3": null, "city": "Porter", "state_province": "Texas", "postal_code": "77365-4752", "country": "United States", "longitude": null, "latitude": null, "phone": "2816087526", "website_url": "http://www.backpewbrewing.com", "state": "Texas", "street": "26452 Sorters Rd"}, {"id": "df9da06e-0ead-498f-ae26-3c5f783292c9", "name": "Back Road Brewery", "brewery_type": "micro", "address_1": "308 Perry St", "address_2": null, "address_3": null, "city": "La Porte", "state_province": "Indiana", "postal_code": "46350-3216", "country": "United States", "longitude": "-86.72649137", "latitude": "41.6118882", "phone": "2193627623", "website_url": "http://www.backroadbrewery.com", "state": "Indiana", "street": "308 Perry St"}, {"id": "dde5cb42-9ee5-44bf-ae05-b51d8e0986e1", "name": "Back Street Brewery & Tasting Room", "brewery_type": "micro", "address_1": "1884 S Santa Cruz St", "address_2": null, "address_3": null, "city": "Anaheim", "state_province": "California", "postal_code": "92805-6726", "country": "United States", "longitude": "-117.8960894", "latitude": "33.79983678", "phone": "6572364050", "website_url": "http://www.backstreetbrew.com", "state": "California", "street": "1884 S Santa Cruz St"}, {"id": "e932c001-d68a-4dc8-8eef-b4311b9399ad", "name": "Back Unturned Brewing Co.", "brewery_type": "micro", "address_1": "516 Brooklyn Ave", "address_2": null, "address_3": null, "city": "San Antonio", "state_province": "Texas", "postal_code": "78215", "country": "United States", "longitude": "-98.4867139", "latitude": "29.4330983", "phone": "210-25-0022", "website_url": "http://www.backunturned.com/", "state": "Texas", "street": "516 Brooklyn Ave"}, {"id": "b48ce764-abf5-41cb-b9c5-93cf4fdc6b57", "name": "Backacre Beermakers", "brewery_type": "micro", "address_1": null, "address_2": null, "address_3": null, "city": "Weston", "state_province": "Vermont", "postal_code": "05161", "country": "United States", "longitude": null, "latitude": null, "phone": null, "website_url": "http://www.backacrebeermakers.com", "state": "Vermont", "street": null}, {"id": "b83daf92-6347-44b0-91df-8fec02c2a22c", "name": "Backcountry Brewing", "brewery_type": "micro", "address_1": "3250 Mecca Dr", "address_2": null, "address_3": null, "city": "Plover", "state_province": "Wisconsin", "postal_code": "54467", "country": "United States", "longitude": "-89.5413643", "latitude": "44.3304949", "phone": "7155729400", "website_url": "https://www.backcountrybrewingco.com", "state": "Wisconsin", "street": "3250 Mecca Dr"}, {"id": "092efaaf-02ab-4ac6-a9c3-6269af54ddeb", "name": "Backlash Beer Co", "brewery_type": "contract", "address_1": null, "address_2": null, "address_3": null, "city": "Boston", "state_province": "Massachusetts", "postal_code": "02215", "country": "United States", "longitude": null, "latitude": null, "phone": null, "website_url": "http://backlashbeer.com/", "state": "Massachusetts", "street": null}, {"id": "f0ca51bb-ad85-4dca-bd03-eefeb99f1184", "name": "Backman Brewing Company", "brewery_type": "planning", "address_1": null, "address_2": null, "address_3": null, "city": "Whitehouse Station", "state_province": "New Jersey", "postal_code": "08889-3562", "country": "United States", "longitude": null, "latitude": null, "phone": null, "website_url": "http://backmanbrewing.com", "state": "New Jersey", "street": null}, {"id": "d4c25fef-5c3e-423e-831b-599cc328424c", "name": "Backpocket Brewing Co", "brewery_type": "micro", "address_1": "903 Quarry Rd", "address_2": null, "address_3": null, "city": "Coralville", "state_province": "Iowa", "postal_code": "52241-2208", "country": "United States", "longitude": "-91.55981337", "latitude": "41.68139484", "phone": "3194493700", "website_url": "http://www.backpocketbrewing.com", "state": "Iowa", "street": "903 Quarry Rd"}, {"id": "a2cdb369-d869-4f9a-9d80-7a5d2becd096", "name": "BackRoad Brewery", "brewery_type": "micro", "address_1": "90 School St", "address_2": null, "address_3": null, "city": "Carlisle", "state_province": "Iowa", "postal_code": "50047", "country": "United States", "longitude": "-93.48531767", "latitude": "41.498501", "phone": "5152102096", "website_url": "http://www.backroadbeer.com", "state": "Iowa", "street": "90 School St"}, {"id": "933637d8-72b2-4812-8795-48c3da52f206", "name": "Backroom Brewery", "brewery_type": "brewpub", "address_1": "150 Ridgemont Rd", "address_2": null, "address_3": null, "city": "Middletown", "state_province": "Virginia", "postal_code": "22645-3817", "country": "United States", "longitude": null, "latitude": null, "phone": "5408698482", "website_url": "http://www.backroombreweryva.com", "state": "Virginia", "street": "150 Ridgemont Rd"}, {"id": "b617c420-3a48-41f3-a529-68dccd1e253f", "name": "Backshore Brewing Co.", "brewery_type": "brewpub", "address_1": "913 Atlantic Ave", "address_2": null, "address_3": null, "city": "Ocean City", "state_province": "Maryland", "postal_code": "21842-6689", "country": "United States", "longitude": null, "latitude": null, "phone": "4102890008", "website_url": "http://www.BackshoreBrew.com", "state": "Maryland", "street": "913 Atlantic Ave"}, {"id": "9ae1ef58-7652-40a7-9abc-7900a57109a8", "name": "Backside Brewing Co", "brewery_type": "brewpub", "address_1": "1640 NE Odell Ave", "address_2": null, "address_3": null, "city": "Roseburg", "state_province": "Oregon", "postal_code": "97470-3320", "country": "United States", "longitude": "-123.3377881", "latitude": "43.21449839", "phone": "5415801906", "website_url": "http://www.backsidebrewingco.com", "state": "Oregon", "street": "1640 NE Odell Ave"}, {"id": "b6685b52-d4f2-4b41-a3d9-f88c778b2346", "name": "Backslope Brewing", "brewery_type": "brewpub", "address_1": "1107 9th St W (Highway 2)", "address_2": null, "address_3": null, "city": "Columbia Falls", "state_province": "Montana", "postal_code": "59912", "country": "United States", "longitude": null, "latitude": null, "phone": "4062242510", "website_url": "http://www.backslopebrewing.com", "state": "Montana", "street": "1107 9th St W (Highway 2)"}, {"id": "270cf75d-5742-44bb-b795-6300d8429cc1", "name": "Backspace Brewing", "brewery_type": "micro", "address_1": "200 Walnut St", "address_2": null, "address_3": null, "city": "Yankton", "state_province": "South Dakota", "postal_code": "57078-4343", "country": "United States", "longitude": "-97.393642", "latitude": "42.86878841", "phone": "4026508158", "website_url": "http://www.backspacebeer.com", "state": "South Dakota", "street": "200 Walnut St"}, {"id": "ecc118fd-aee9-4e81-bcda-8ab049b2f6f3", "name": "Backstep Brewing Company", "brewery_type": "micro", "address_1": "125 N Green St", "address_2": null, "address_3": null, "city": "Crawfordsville", "state_province": "Indiana", "postal_code": "47933-1708", "country": "United States", "longitude": "-86.89998607", "latitude": "40.04207712", "phone": "7652302337", "website_url": "http://www.backstepbrewingcompany.com", "state": "Indiana", "street": "125 N Green St"}, {"id": "9618d4a8-2e33-4025-888d-ecbc0da2a8a5", "name": "BackStory Brewery", "brewery_type": "planning", "address_1": null, "address_2": null, "address_3": null, "city": "Sulphur Springs", "state_province": "Texas", "postal_code": "75482-2772", "country": "United States", "longitude": null, "latitude": null, "phone": null, "website_url": null, "state": "Texas", "street": null}, {"id": "08d2efda-af3e-4611-b8c6-d5c46af4c7a6", "name": "Backswing Brewing Co.", "brewery_type": "micro", "address_1": "500 W South St Ste 8", "address_2": null, "address_3": null, "city": "Lincoln", "state_province": "Nebraska", "postal_code": "68522-1744", "country": "United States", "longitude": "-96.7274091", "latitude": "40.7922193", "phone": "4024135576", "website_url": "http://www.backswingbrewing.com", "state": "Nebraska", "street": "500 W South St Ste 8"}, {"id": "55582f56-7b20-499a-875a-8457e8715a1c", "name": "Backward Flag Brewing", "brewery_type": "micro", "address_1": "699 Challenger Way Ste D5", "address_2": null, "address_3": null, "city": "Forked River", "state_province": "New Jersey", "postal_code": "08731-5917", "country": "United States", "longitude": null, "latitude": null, "phone": null, "website_url": "http://www.backwardflagbrewing.com", "state": "New Jersey", "street": "699 Challenger Way Ste D5"}, {"id": "707a470e-266d-4ca9-bb9f-031e8cf28de6", "name": "Backwoods Brewing Company - Production Only", "brewery_type": "micro", "address_1": "1162 B Wind River Hwy", "address_2": null, "address_3": null, "city": "Carson", "state_province": "Washington", "postal_code": "98610", "country": "United States", "longitude": "-121.8203754", "latitude": "45.72872253", "phone": "5094273412", "website_url": "http://www.backwoodsbrewingcompany.com", "state": "Washington", "street": "1162 B Wind River Hwy"}, {"id": "f5d7bfda-bce0-46f5-8626-74e14371a85b", "name": "Backwoods in the Gorge", "brewery_type": "micro", "address_1": "1162 Wind River Hwy", "address_2": null, "address_3": null, "city": "Carson", "state_province": "Washington", "postal_code": "98610", "country": "United States", "longitude": "-121.8203754", "latitude": "45.72872253", "phone": "5094273412", "website_url": "http://www.backwoodsbrewingcompany.com", "state": "Washington", "street": "1162 Wind River Hwy"}, {"id": "1d5ac885-33a0-4bed-971b-dfb24772eb0b", "name": "Backyard Barn Winery and Microbrewery", "brewery_type": "micro", "address_1": "1945 E County Road 462", "address_2": null, "address_3": null, "city": "Wildwood", "state_province": "Florida", "postal_code": "34785-8594", "country": "United States", "longitude": null, "latitude": null, "phone": "3524187887", "website_url": "http://www.backyardbardwinery.com", "state": "Florida", "street": "1945 E County Road 462"}, {"id": "be52e354-8456-4703-88d0-f33cfa777e6b", "name": "Backyard Brewery", "brewery_type": "brewpub", "address_1": "1211 S Mammoth Rd", "address_2": null, "address_3": null, "city": "Manchester", "state_province": "New Hampshire", "postal_code": "03109-5101", "country": "United States", "longitude": "-71.4134598", "latitude": "42.93534925", "phone": "6036233545", "website_url": "http://www.backyardbrewerynh.com", "state": "New Hampshire", "street": "1211 S Mammoth Rd"}, {"id": "c7215e3b-5320-4ef4-a4ad-73ab42a39603", "name": "Bad Beat Brewing", "brewery_type": "micro", "address_1": "7380 Eastgate Rd Ste 110", "address_2": null, "address_3": null, "city": "Henderson", "state_province": "Nevada", "postal_code": "89011-4012", "country": "United States", "longitude": null, "latitude": null, "phone": "7024634199", "website_url": "http://www.badbeatbrewing.com", "state": "Nevada", "street": "7380 Eastgate Rd Ste 110"}, {"id": "cec378ba-bb45-4988-a654-30e6d3f1a3fd", "name": "BAD Brewing Co", "brewery_type": "micro", "address_1": "440 S Jefferson St", "address_2": null, "address_3": null, "city": "Mason", "state_province": "Michigan", "postal_code": "48854-1654", "country": "United States", "longitude": "-84.4433383", "latitude": "42.5786176", "phone": "5176767664", "website_url": "http://www.badbrewing.com", "state": "Michigan", "street": "440 S Jefferson St"}, {"id": "d493c084-8f5c-4e04-994b-ddc55fcd3959", "name": "Bad Bulldogs Brewery", "brewery_type": "closed", "address_1": "941 N Callow Ave", "address_2": null, "address_3": null, "city": "Bremerton", "state_province": "Washington", "postal_code": "98312", "country": "United States", "longitude": "-122.6533736", "latitude": "47.56963921", "phone": "3606278079", "website_url": null, "state": "Washington", "street": "941 N Callow Ave"}, {"id": "38863255-70b3-4201-bfd0-b4b0dab818d2", "name": "Bad Dad Brewery", "brewery_type": "micro", "address_1": "407 W. Washington St. Ste. C", "address_2": null, "address_3": null, "city": "Fairmount", "state_province": "Indiana", "postal_code": "46928", "country": "United States", "longitude": null, "latitude": null, "phone": "7654990941", "website_url": "http://www.baddadbrewery.com", "state": "Indiana", "street": "407 W. Washington St. Ste. C"}, {"id": "c1496ab2-788d-454c-b205-9e852e54f682", "name": "Bad Habit Brewing Company", "brewery_type": "micro", "address_1": "15 E Minnesota St Ste 108", "address_2": null, "address_3": null, "city": "Saint Joseph", "state_province": "Minnesota", "postal_code": "56374-4691", "country": "United States", "longitude": null, "latitude": null, "phone": "3204024442", "website_url": "http://www.badhabitbeer.com", "state": "Minnesota", "street": "15 E Minnesota St Ste 108"}, {"id": "80ed402e-9340-4b10-a478-3d8ed0af93b5", "name": "Bad Idea Brewing", "brewery_type": "planning", "address_1": null, "address_2": null, "address_3": null, "city": "Spring Hill", "state_province": "Tennessee", "postal_code": "37174-2895", "country": "United States", "longitude": null, "latitude": null, "phone": null, "website_url": "http://www.badideabrewing.com", "state": "Tennessee", "street": null}, {"id": "bbda5eb0-95cd-4b87-88ac-7b0e2bd01c48", "name": "Bad Jimmy's Brewing Co", "brewery_type": "micro", "address_1": "4358B Leary Way NW", "address_2": null, "address_3": null, "city": "Seattle", "state_province": "Washington", "postal_code": "98107-4554", "country": "United States", "longitude": "-122.3653569", "latitude": "47.66133224", "phone": "2067891548", "website_url": "http://www.badjimmysbrewingco.com", "state": "Washington", "street": "4358B Leary Way NW"}, {"id": "7ecfcf55-8bc1-4744-9a2c-7feaa99290b0", "name": "Bad Lab Beer Co.", "brewery_type": "brewpub", "address_1": "460 High St", "address_2": null, "address_3": null, "city": "Somersworth", "state_province": "New Hampshire", "postal_code": "03878-1012", "country": "United States", "longitude": "-70.88353777", "latitude": "43.22651432", "phone": "6033192436", "website_url": "http://www.badlabbeer.com", "state": "New Hampshire", "street": "460 High St"}, {"id": "007b572b-cb61-478b-aa08-2966a1a028d5", "name": "Bad Martha Farmer's Brewery", "brewery_type": "brewpub", "address_1": "270 Upper Main St", "address_2": null, "address_3": null, "city": "Edgartown", "state_province": "Massachusetts", "postal_code": "02539-", "country": "United States", "longitude": "-70.52732", "latitude": "41.394402", "phone": "5089394415", "website_url": "http://www.badmarthabeer.com", "state": "Massachusetts", "street": "270 Upper Main St"}, {"id": "7e470330-e32a-42aa-8d9b-db15529b8faa", "name": "Bad Shepherd Beer Company", "brewery_type": "brewpub", "address_1": "702 Quarrier St", "address_2": null, "address_3": null, "city": "Charleston", "state_province": "West Virginia", "postal_code": "25301-2627", "country": "United States", "longitude": "-81.63612015", "latitude": "38.35094943", "phone": "3045527569", "website_url": "http://www.blacksheepwv.com", "state": "West Virginia", "street": "702 Quarrier St"}, {"id": "ccb3350f-eade-47d0-8fa7-351d20ead048", "name": "Bad Tom Smith Brewing", "brewery_type": "micro", "address_1": "4720 Eastern Ave", "address_2": null, "address_3": null, "city": "Cincinnati", "state_province": "Ohio", "postal_code": "45226-1893", "country": "United States", "longitude": "-84.41803086", "latitude": "39.11995755", "phone": "5138714677", "website_url": "http://www.badtomsmithbrewing.com", "state": "Ohio", "street": "4720 Eastern Ave"}, {"id": "1630747e-8c36-4a34-9531-02d6b5ac2a28", "name": "Bad Tom Smith Brewing", "brewery_type": "brewpub", "address_1": "1836 W 25th St", "address_2": null, "address_3": null, "city": "Cleveland", "state_province": "Ohio", "postal_code": "44113-3142", "country": "United States", "longitude": "-81.7051638", "latitude": "41.4861772", "phone": null, "website_url": null, "state": "Ohio", "street": "1836 W 25th St"}, {"id": "ac773861-5642-46b6-98c5-ad065ee9b4df", "name": "Bad Water Brewing", "brewery_type": "contract", "address_1": "4216 N Brown Ave", "address_2": null, "address_3": null, "city": "Scottsdale", "state_province": "Arizona", "postal_code": "85251-3914", "country": "United States", "longitude": "-111.9244743", "latitude": "33.49726157", "phone": "5207459175", "website_url": "http://www.badwaterbrewing.com", "state": "Arizona", "street": "4216 N Brown Ave"}, {"id": "6f9649a1-b449-4542-8f23-837bec41f649", "name": "Bad Weather Brewing LLC", "brewery_type": "micro", "address_1": "414 7th St W", "address_2": null, "address_3": null, "city": "Saint Paul", "state_province": "Minnesota", "postal_code": "55102-2733", "country": "United States", "longitude": "-93.1655001", "latitude": "44.9040455", "phone": "6512076627", "website_url": "http://www.badweatherbrewery.com", "state": "Minnesota", "street": "414 7th St W"}, {"id": "1937d9f8-9bc7-4a32-b04c-642879b8aa00", "name": "Badass Backyard Brewing", "brewery_type": "micro", "address_1": "1415 N Argonne Rd", "address_2": null, "address_3": null, "city": "Spokane Valley", "state_province": "Washington", "postal_code": "99212-2685", "country": "United States", "longitude": "-117.282919", "latitude": "47.66990394", "phone": "5092423225", "website_url": "http://badassbackyardbrewing.com", "state": "Washington", "street": "1415 N Argonne Rd"}, {"id": "d85636df-f559-4277-ab0c-c3ddf3853c4e", "name": "Badger Hill Brewing", "brewery_type": "micro", "address_1": "4571 Valley Industrial Blvd S Ste 500", "address_2": null, "address_3": null, "city": "Shakopee", "state_province": "Minnesota", "postal_code": "55379-1846", "country": "United States", "longitude": null, "latitude": null, "phone": "6123884479", "website_url": "http://www.badgerhillbrewing.com", "state": "Minnesota", "street": "4571 Valley Industrial Blvd S Ste 500"}, {"id": "4f49473d-22aa-4f44-b69c-2d7f95d76abd", "name": "Badger Mountain Brewing", "brewery_type": "micro", "address_1": "1 Orondo Ave", "address_2": null, "address_3": null, "city": "Wenatchee", "state_province": "Washington", "postal_code": "98801-2206", "country": "United States", "longitude": "-120.309353", "latitude": "47.423747", "phone": "5098882234", "website_url": "http://www.badgermountainbrewing.com", "state": "Washington", "street": "1 Orondo Ave"}, {"id": "71857398-4e1c-4540-9ddb-36388193c880", "name": "Badger State Brewing Company", "brewery_type": "micro", "address_1": "990 Tony Canadeo Run", "address_2": null, "address_3": null, "city": "Green Bay", "state_province": "Wisconsin", "postal_code": "54304-3762", "country": "United States", "longitude": "-88.05136473", "latitude": "44.49669718", "phone": "9205435320", "website_url": "http://www.badgerstatebrewing.com", "state": "Wisconsin", "street": "990 Tony Canadeo Run"}, {"id": "393816b0-7f91-450d-b65a-7f99f5cc8ae7", "name": "BADSONS Beer Co", "brewery_type": "micro", "address_1": "251 Roosevelt Dr", "address_2": null, "address_3": null, "city": "Derby", "state_province": "Connecticut", "postal_code": "06418-1665", "country": "United States", "longitude": "-73.1322771", "latitude": "41.3513647", "phone": "2033082654", "website_url": "http://www.badsoons.com", "state": "Connecticut", "street": "251 Roosevelt Dr"}, {"id": "c4459528-06a6-4f7b-a4a4-be62a1fbd420", "name": "BadWolf Brewing Company", "brewery_type": "micro", "address_1": "8420 Kao Cir", "address_2": null, "address_3": null, "city": "Manassas", "state_province": "Virginia", "postal_code": "20110-1728", "country": "United States", "longitude": null, "latitude": null, "phone": "7034792305", "website_url": "http://www.badwolfbrewingcompany.com", "state": "Virginia", "street": "8420 Kao Cir"}, {"id": "d42aade0-cd64-4ce2-a79d-4360413d3955", "name": "BadWolf Brewing Company", "brewery_type": "micro", "address_1": "9776 Center St", "address_2": null, "address_3": null, "city": "Manassas", "state_province": "Virginia", "postal_code": "20110-4128", "country": "United States", "longitude": "-77.48972051", "latitude": "38.75356183", "phone": "5713589774", "website_url": "http://www.badwolfbrewingcompany.com", "state": "Virginia", "street": "9776 Center St"}, {"id": "e25d20e1-1700-45a6-b236-9eb6d01a9434", "name": "Baere Brewing Company", "brewery_type": "micro", "address_1": "320 Broadway, Unit E", "address_2": null, "address_3": null, "city": "Denver", "state_province": "Colorado", "postal_code": "80203-3955", "country": "United States", "longitude": null, "latitude": null, "phone": "9709014810", "website_url": "http://www.baerebrewing.com", "state": "Colorado", "street": "320 Broadway, Unit E"}, {"id": "10ad1074-00f1-4731-9154-878dafcb58a9", "name": "Baerlic Brewing Co", "brewery_type": "micro", "address_1": "2235 SE 11th Ave", "address_2": null, "address_3": null, "city": "Portland", "state_province": "Oregon", "postal_code": "97214-5303", "country": "United States", "longitude": "-122.6550828", "latitude": "45.50680595", "phone": "5034779418", "website_url": "http://www.baerlicbrewing.com", "state": "Oregon", "street": "2235 SE 11th Ave"}, {"id": "a79c77fa-dd4c-4e3f-bf34-c50ae8032f5c", "name": "Baffin Brewing Co", "brewery_type": "micro", "address_1": "25113 Jefferson Ave", "address_2": null, "address_3": null, "city": "Saint Clair Shores", "state_province": "Michigan", "postal_code": "48081-2303", "country": "United States", "longitude": "-82.888964", "latitude": "42.472227", "phone": "5862187990", "website_url": "http://baffinbrewing.com", "state": "Michigan", "street": "25113 Jefferson Ave"}, {"id": "62c3eba7-bba3-4ab5-aa14-9b049415c3df", "name": "Bag and Kettle, The", "brewery_type": "brewpub", "address_1": "9000 Main St Apt 21", "address_2": null, "address_3": null, "city": "Carrabassett Valley", "state_province": "Maine", "postal_code": "04947-6808", "country": "United States", "longitude": null, "latitude": null, "phone": "2072372451", "website_url": "http://www.thebagandkettle.com", "state": "Maine", "street": "9000 Main St Apt 21"}, {"id": "f167edfa-21ec-466a-89dd-b78ef6037c55", "name": "Bagby Beer Company", "brewery_type": "brewpub", "address_1": "601 S Coast Hwy", "address_2": null, "address_3": null, "city": "Oceanside", "state_province": "California", "postal_code": "92054-4120", "country": "United States", "longitude": "-117.373847", "latitude": "33.189591", "phone": "7602709075", "website_url": "http://www.bagbybeer.com", "state": "California", "street": "601 S Coast Hwy"}, {"id": "a715d721-e382-45e3-a035-18edf1dee861", "name": "Baileson Brewing Company, LLC", "brewery_type": "micro", "address_1": "2322 Bissonnet St", "address_2": null, "address_3": null, "city": "Houston", "state_province": "Texas", "postal_code": "77005-1512", "country": "United States", "longitude": "-95.41337465", "latitude": "29.72562404", "phone": "8325169828", "website_url": "http://www.bailesonbrewing.com", "state": "Texas", "street": "2322 Bissonnet St"}, {"id": "fcd34248-fb3f-410e-9550-31f71e91764f", "name": "Bainbridge Brewing", "brewery_type": "micro", "address_1": "9415 Coppertop Loop NE Ste 104", "address_2": null, "address_3": null, "city": "Bainbridge Island", "state_province": "Washington", "postal_code": "98110-3339", "country": "United States", "longitude": "-122.5251446", "latitude": "47.64937373", "phone": "2064514646", "website_url": "http://www.bainbridgebeer.com", "state": "Washington", "street": "9415 Coppertop Loop NE Ste 104"}, {"id": "f08b4937-45cd-45cc-bd0f-93d84f392d86", "name": "Bainbridge Brewing Alehouse", "brewery_type": "brewpub", "address_1": "500 Winslow Way E #110", "address_2": null, "address_3": null, "city": "Bainbridge Island", "state_province": "Washington", "postal_code": "98110", "country": "United States", "longitude": "-122.5145398", "latitude": "47.62624505", "phone": "2063176986", "website_url": "http://www.bainbridgebeer.com", "state": "Washington", "street": "500 Winslow Way E #110"}, {"id": "19de43df-8293-4823-b8aa-2dfb285924e8", "name": "Baithouse Brewery", "brewery_type": "planning", "address_1": null, "address_2": null, "address_3": null, "city": "Sandusky", "state_province": "Ohio", "postal_code": "44870", "country": "United States", "longitude": null, "latitude": null, "phone": "4193665372", "website_url": "http://www.baithousebrewery.com", "state": "Ohio", "street": null}, {"id": "6413df9d-206d-409a-bf5a-405c4db6724e", "name": "Baker City Brewing Co", "brewery_type": "micro", "address_1": "2200 Main Street", "address_2": null, "address_3": null, "city": "Baker City", "state_province": "Oregon", "postal_code": "97814", "country": "United States", "longitude": "-117.8293471", "latitude": "44.77928865", "phone": "5415232337", "website_url": "http://www.barleybrowns.com", "state": "Oregon", "street": "2200 Main Street"}, {"id": "2f4107b2-90e6-422e-876b-6578924206bb", "name": "BAKFISH Brewing Company", "brewery_type": "micro", "address_1": "1231 Broadway St", "address_2": null, "address_3": null, "city": "Pearland", "state_province": "Texas", "postal_code": "77581-6303", "country": "United States", "longitude": "-95.4174149", "latitude": "29.5551351", "phone": "2819938658", "website_url": "http://www.bakfishbrewing.com", "state": "Texas", "street": "1231 Broadway St"}, {"id": "ca101b8b-4b59-4298-a163-e5559e72358a", "name": "Bald Man Brewing Company", "brewery_type": "micro", "address_1": "2020 Silver Bell Rd Ste 25", "address_2": null, "address_3": null, "city": "Eagan", "state_province": "Minnesota", "postal_code": "55122-1030", "country": "United States", "longitude": null, "latitude": null, "phone": "6516003164", "website_url": "http://www.BaldManBrewing.com", "state": "Minnesota", "street": "2020 Silver Bell Rd Ste 25"}, {"id": "4c61ceb1-4256-4307-b538-5629a8613208", "name": "Bald Top Brewing Company", "brewery_type": "micro", "address_1": "1830 Thrift Rd", "address_2": null, "address_3": null, "city": "Madison", "state_province": "Virginia", "postal_code": "22727-2843", "country": "United States", "longitude": "-78.2625296", "latitude": "38.3772921", "phone": "5409991830", "website_url": "http://www.baldtopbrewing.com", "state": "Virginia", "street": "1830 Thrift Rd"}, {"id": "72b7fb2e-ebb2-4f46-8c85-758c6707d42a", "name": "Bale Breaker Brewing Company", "brewery_type": "regional", "address_1": "1801 Birchfield Rd", "address_2": null, "address_3": null, "city": "Yakima", "state_province": "Washington", "postal_code": "98901-9577", "country": "United States", "longitude": "-120.435573", "latitude": "46.57685541", "phone": "5094244000", "website_url": "http://www.balebreaker.com", "state": "Washington", "street": "1801 Birchfield Rd"}, {"id": "9d58821d-291a-4258-82b2-bb7f97f5df63", "name": "Baleen Brewing Co.", "brewery_type": "micro", "address_1": "884 Mizzen Ln #9462", "address_2": null, "address_3": null, "city": "Ketchikan", "state_province": "Alaska", "postal_code": "99901", "country": "United States", "longitude": "-131.817681", "latitude": "55.472907", "phone": "9072207492", "website_url": "https://www.baleenbrewing.com", "state": "Alaska", "street": "884 Mizzen Ln #9462"}, {"id": "c879d0a8-e06e-45f7-8479-4c129119af47", "name": "Ballad Brewing", "brewery_type": "micro", "address_1": "600 Craghead St", "address_2": null, "address_3": null, "city": "Danville", "state_province": "Virginia", "postal_code": "24541-1504", "country": "United States", "longitude": "-79.386371", "latitude": "36.584786", "phone": "8049250109", "website_url": "http://www.balladbrewing.com", "state": "Virginia", "street": "600 Craghead St"}, {"id": "3c4eab56-1643-4204-ab89-2ce01f6b5bf7", "name": "Ballast Point Brewing Co / Home Brew Mart", "brewery_type": "large", "address_1": "5401 Linda Vista Rd Ste 406", "address_2": null, "address_3": null, "city": "San Diego", "state_province": "California", "postal_code": "92110-2402", "country": "United States", "longitude": "-117.1953344", "latitude": "32.76692137", "phone": "6198517681", "website_url": "http://www.ballastpoint.com", "state": "California", "street": "5401 Linda Vista Rd Ste 406"}, {"id": "5794a61e-1fa2-45bd-b317-287ca186b919", "name": "Ballast Point Brewing Company", "brewery_type": "planning", "address_1": null, "address_2": null, "address_3": null, "city": "Anaheim", "state_province": "California", "postal_code": "92802-2294", "country": "United States", "longitude": "-117.911732", "latitude": "33.8347516", "phone": null, "website_url": null, "state": "California", "street": null}, {"id": "60076124-a2a2-40e7-9e4f-e73e2429777a", "name": "Ballast Point Brewing Company", "brewery_type": "large", "address_1": "110 N Marina Dr", "address_2": null, "address_3": null, "city": "Long Beach", "state_province": "California", "postal_code": "90803-4601", "country": "United States", "longitude": "-118.114751", "latitude": "33.7464176", "phone": "8586952739", "website_url": "http://www.ballastpoint.com", "state": "California", "street": "110 N Marina Dr"}, {"id": "0cbb2117-5968-4d0d-a0fd-9ee7c7f53e31", "name": "Ballast Point Brewing Company", "brewery_type": "large", "address_1": "9045 Carroll Way", "address_2": null, "address_3": null, "city": "San Diego", "state_province": "California", "postal_code": "92121-2405", "country": "United States", "longitude": "-117.1587251", "latitude": "32.88798083", "phone": "8586952739", "website_url": "http://www.ballastpoint.com", "state": "California", "street": "9045 Carroll Way"}, {"id": "94fe77de-a7d7-42d4-a076-687e1fdaeec4", "name": "Ballast Point Brewing Company", "brewery_type": "large", "address_1": "7606 Trade St", "address_2": null, "address_3": null, "city": "San Diego", "state_province": "California", "postal_code": "92121-2405", "country": "United States", "longitude": "-117.157081", "latitude": "32.889641", "phone": "8586952739", "website_url": null, "state": "California", "street": "7606 Trade St"}, {"id": "1aefb103-ced0-49cb-96c2-b65a2222fb3d", "name": "Ballast Point Brewing Company", "brewery_type": "planning", "address_1": null, "address_2": null, "address_3": null, "city": "Chicago", "state_province": "Illinois", "postal_code": "60607", "country": "United States", "longitude": null, "latitude": null, "phone": null, "website_url": null, "state": "Illinois", "street": null}, {"id": "38871a7b-b304-459b-aa24-282321967048", "name": "Ballast Point Brewing Company", "brewery_type": "large", "address_1": "555 International Pkwy", "address_2": null, "address_3": null, "city": "Daleville", "state_province": "Virginia", "postal_code": "24083-3028", "country": "United States", "longitude": "-79.91380298", "latitude": "37.43575624", "phone": "5405913059", "website_url": null, "state": "Virginia", "street": "555 International Pkwy"}, {"id": "786c56e4-c533-4181-8aec-ec976a7bde9f", "name": "Ballast Point Brewing Company - Little Italy", "brewery_type": "large", "address_1": "2215 India St", "address_2": null, "address_3": null, "city": "San Diego", "state_province": "California", "postal_code": "92101-1725", "country": "United States", "longitude": "-117.169738", "latitude": "32.727777", "phone": "6192557213", "website_url": "http://www.ballastpoint.com", "state": "California", "street": "2215 India St"}, {"id": "6b42d56c-67bb-47e1-b856-01d87b414a14", "name": "Ballykilcavan Brewing Company", "brewery_type": "micro", "address_1": "Unnamed Street", "address_2": "Ballykilcavan", "address_3": null, "city": "Stradbally", "state_province": "Laois", "postal_code": "R93 X3X8", "country": "Ireland", "longitude": "-7.115267515", "latitude": "53.01800718", "phone": null, "website_url": "https://www.ballykilcavan.com/", "state": "Laois", "street": "Unnamed Street"}, {"id": "cb8d7ce9-114c-44b6-91de-45ad0cd2285f", "name": "Balsam Falls Brewing", "brewery_type": "micro", "address_1": "506 W Main St", "address_2": null, "address_3": null, "city": "Sylva", "state_province": "North Carolina", "postal_code": "28779-5544", "country": "United States", "longitude": "-83.2218237", "latitude": "35.3737065", "phone": "8286311987", "website_url": null, "state": "North Carolina", "street": "506 W Main St"}, {"id": "a85f70a5-1b54-43ba-8ab3-261e20f8d570", "name": "Balter Beerworks", "brewery_type": "brewpub", "address_1": "100 S Broadway St", "address_2": null, "address_3": null, "city": "Knoxville", "state_province": "Tennessee", "postal_code": "37902-1901", "country": "United States", "longitude": "-83.92432", "latitude": "35.96654", "phone": "8659995015", "website_url": "http://www.balterbeerworks.com", "state": "Tennessee", "street": "100 S Broadway St"}, {"id": "17d563f1-e620-4a74-8d39-3486312454f2", "name": "Baltimore Washington Beer Works", "brewery_type": "contract", "address_1": "2500 Grays Rd", "address_2": null, "address_3": null, "city": "Dundalk", "state_province": "Maryland", "postal_code": "21222", "country": "United States", "longitude": null, "latitude": null, "phone": "4438476223", "website_url": "http://www.ravenbeer.com", "state": "Maryland", "street": "2500 Grays Rd"}, {"id": "4b2cb700-2a42-4a22-8811-b15879b6b401", "name": "Bam Entertainment Center", "brewery_type": "brewpub", "address_1": "478 E 16th St", "address_2": null, "address_3": null, "city": "Holland", "state_province": "Michigan", "postal_code": "49423-3793", "country": "United States", "longitude": "-86.08555156", "latitude": "42.7812873", "phone": "6163927086", "website_url": "http://www.gobamgo.com", "state": "Michigan", "street": "478 E 16th St"}, {"id": "2b725797-9b61-4bf9-bb7f-85127e955905", "name": "Band Of Bohemia", "brewery_type": "brewpub", "address_1": "4710 N Ravenswood Ave", "address_2": null, "address_3": null, "city": "Chicago", "state_province": "Illinois", "postal_code": "60640-4408", "country": "United States", "longitude": "-87.6750827", "latitude": "41.9675954", "phone": "7732714710", "website_url": "http://bandofbohemia.com", "state": "Illinois", "street": "4710 N Ravenswood Ave"}, {"id": "063107cd-7134-41d9-b44e-f75439937878", "name": "Band of Brothers Brewing Company", "brewery_type": "micro", "address_1": "1605 23rd Ave", "address_2": null, "address_3": null, "city": "Tuscaloosa", "state_province": "Alabama", "postal_code": "35401-4653", "country": "United States", "longitude": "-87.56215513", "latitude": "33.19849071", "phone": "2052665137", "website_url": "http://www.bandofbrosbrewing.com", "state": "Alabama", "street": "1605 23rd Ave"}, {"id": "56be2bfb-6de2-4c08-b707-4e5a9e27005c", "name": "Banded Brewing Company", "brewery_type": "micro", "address_1": "32 Main St. Bldg 13-W Ste 102", "address_2": null, "address_3": null, "city": "Biddeford", "state_province": "Maine", "postal_code": "04005-5145", "country": "United States", "longitude": null, "latitude": null, "phone": "2076021561", "website_url": "http://www.bandedhorn.com", "state": "Maine", "street": "32 Main St. Bldg 13-W Ste 102"}, {"id": "2b5fbb61-2e0b-42ec-8d68-dcc62fe244e9", "name": "Banded Oak Brewing Company", "brewery_type": "brewpub", "address_1": "470 N Broadway", "address_2": null, "address_3": null, "city": "Denver", "state_province": "Colorado", "postal_code": "80203-3404", "country": "United States", "longitude": "-104.9874187", "latitude": "39.7282897", "phone": "7204798033", "website_url": "http://Bandedoakbrewing.com", "state": "Colorado", "street": "470 N Broadway"}, {"id": "2d0bf6d8-1aad-42f4-8553-f78c7b90e1fd", "name": "Bandera Ale Project, LLC", "brewery_type": "micro", "address_1": "3540 State Highway 16 S Ste 2A", "address_2": null, "address_3": null, "city": "Bandera", "state_province": "Texas", "postal_code": "78003-3561", "country": "United States", "longitude": null, "latitude": null, "phone": "8305224226", "website_url": "http://www.banderabrewery.com", "state": "Texas", "street": "3540 State Highway 16 S Ste 2A"}, {"id": "29297833-9297-43fe-a9f4-4a9437a405c1", "name": "Bandit Brewing Co", "brewery_type": "micro", "address_1": "610 N 1st St Ste 5-228", "address_2": null, "address_3": null, "city": "Hamilton", "state_province": "Montana", "postal_code": "59840-2149", "country": "United States", "longitude": null, "latitude": null, "phone": "4066466003", "website_url": "http://www.banditbeer.com", "state": "Montana", "street": "610 N 1st St Ste 5-228"}, {"id": "3063b641-c33f-492c-bcac-f0b591221abf", "name": "Bandon Brewing Company", "brewery_type": "brewpub", "address_1": "395 2nd St SE", "address_2": null, "address_3": null, "city": "Bandon", "state_province": "Oregon", "postal_code": "97411-9605", "country": "United States", "longitude": "-124.4122494", "latitude": "43.1191572", "phone": "5413473911", "website_url": "http://www.bandonbrewingco.com", "state": "Oregon", "street": "395 2nd St SE"}, {"id": "299ebba1-6bb3-4998-b4a5-e0f4fad4c443", "name": "Bandwagon Brewery", "brewery_type": "micro", "address_1": "3582 West Ave", "address_2": null, "address_3": null, "city": "Interlaken", "state_province": "New York", "postal_code": "14847", "country": "United States", "longitude": "-76.7278241", "latitude": "42.61661956", "phone": "6072295608", "website_url": "http://www.bandwagonbeer.com", "state": "New York", "street": "3582 West Ave"}, {"id": "d2af1d0e-cc9d-4c26-90a0-f768b9cfb344", "name": "Bang Brewing", "brewery_type": "micro", "address_1": "2320 Capp Rd", "address_2": null, "address_3": null, "city": "Saint Paul", "state_province": "Minnesota", "postal_code": "55114-1251", "country": "United States", "longitude": null, "latitude": null, "phone": "6512432264", "website_url": "http://www.bangbrewing.com", "state": "Minnesota", "street": "2320 Capp Rd"}, {"id": "6c11ccfe-9941-4c48-acc6-75217efabbce", "name": "Bang the Drum Brewery", "brewery_type": "micro", "address_1": "950 Orcutt Rd", "address_2": null, "address_3": null, "city": "San Luis Obispo", "state_province": "California", "postal_code": "93401-6740", "country": "United States", "longitude": "-120.6452338", "latitude": "35.2615498", "phone": "8587762973", "website_url": "http://www.bangthedrumbrewery.com", "state": "California", "street": "950 Orcutt Rd"}, {"id": "cb33e61e-48cf-433e-96cd-7c336c6ef8bf", "name": "Banger Brewing Co", "brewery_type": "micro", "address_1": "450 Fremont St Ste 135", "address_2": null, "address_3": null, "city": "Las Vegas", "state_province": "Nevada", "postal_code": "89101-5649", "country": "United States", "longitude": null, "latitude": null, "phone": "7024562739", "website_url": "http://www.bangerbrewing.com", "state": "Nevada", "street": "450 Fremont St Ste 135"}, {"id": "e049fe2d-95ad-4c99-8c93-439f39339b60", "name": "Bangin' Banjo Brewing Company", "brewery_type": "micro", "address_1": "3200 NW 23rd Ave Ste 500", "address_2": null, "address_3": null, "city": "Pompano Beach", "state_province": "Florida", "postal_code": "33069-5909", "country": "United States", "longitude": null, "latitude": null, "phone": "9549783113", "website_url": "http://www.banginbanjobrewing.com", "state": "Florida", "street": "3200 NW 23rd Ave Ste 500"}]